address,area,city,lat,lng,name,province
市喜格孜步行街与青岛西路交叉口西50米,桑珠孜区,日喀则市,88.879738,29.268805,台铃电动车,西藏自治区
林廓西路28号,城关区,拉萨市,91.114036,29.655999,台铃电动车(林廓西路店),西藏自治区
三间房褡裢坡268号268文化产业基地总部(国家音乐产业基地)东边,朝阳区,北京市,116.560532,39.930995,台铃电动车(中泰168文化创意园东),北京市
八里庄街道定慧寺恩济里小区1号楼底墒,海淀区,北京市,116.286821,39.931755,台铃电动车(玲珑路店),北京市
铁匠营路福臻家园6号楼底商,丰台区,北京市,116.434801,39.854378,台铃电动车(方庄店),北京市
望京西路花家地西里117号楼底商,朝阳区,北京市,116.458094,39.988735,台铃电动车(南湖中园二条),北京市
枣园路15号附近,大兴区,北京市,116.330252,39.753126,台铃电动车(枣园路),北京市
黄寺大街什坊街2号,西城区,北京市,116.384115,39.961299,台铃电动车,北京市
来广营北路与来广营西路交叉口东50米,朝阳区,北京市,116.462887,40.020948,台铃电动车(来广营北路店),北京市
酒仙桥南路,朝阳区,北京市,116.497975,39.963732,台铃电动车,北京市
中关村北大街47号北大圆明园校区北100米,海淀区,北京市,116.316813,40.016800,台铃电动车(中关村北大街店),北京市
来广营红军营南路广华居15号楼底商,朝阳区,北京市,116.438787,40.032730,台铃电动车(红军营南路),北京市
赵登禹路76号,西城区,北京市,116.368426,39.934337,台铃电动车,北京市
老君堂中路东50米,朝阳区,北京市,116.509399,39.839832,台铃电动车(老君堂中路店),北京市
高碑店镇朝阳路兴隆家园2号楼底商,朝阳区,北京市,116.525032,39.916605,台铃电动车(兴隆家园店),北京市
化工路与垡头路交叉口西南100米,朝阳区,北京市,116.513035,39.860478,台铃电动车,北京市
中关村北大街28号,海淀区,北京市,116.314860,40.003511,台铃电动车(清华西门店),北京市
南磨房路临甲5-102号附近,朝阳区,北京市,116.484806,39.884627,台铃电动车,北京市
清河四街东南大街小学附近,海淀区,北京市,116.348809,40.024189,台铃电动车,北京市
龙岗路21号,海淀区,北京市,116.360679,40.030857,台铃电动车(龙岗路店),北京市
东四北大街155号,东城区,北京市,116.416821,39.936780,台铃电动车(东四北大街店),北京市
丰台火车站正阳北里16号台铃电动车(杨帆教育学校),丰台区,北京市,116.287735,39.848632,台铃电动车(正阳大街),北京市
金沟河路17号附近,海淀区,北京市,116.262072,39.917841,台铃电动车,北京市
周家庄路133号院附近,朝阳区,北京市,116.463637,39.859423,台铃电动车(吕营大街店),北京市
地安门东大街70-1号,东城区,北京市,116.398655,39.933217,台铃电动车,北京市
东坝镇南二街金泽家园C区底商303号楼,朝阳区,北京市,116.562962,39.960434,台铃电动车(东坝店),北京市
临泓路福海西区35号楼3号,丰台区,北京市,116.389387,39.845490,台铃电动车(大红门店),北京市
梨园玉桥西路南延,通州区,北京市,116.672650,39.878744,台铃电动车,北京市
莹霞旅馆西北70米(天柱东路东),顺义区,北京市,116.568271,40.088704,台铃电动车,北京市
马桥北街230号,通州区,北京市,116.546743,39.762682,台铃云电动车,北京市
丰桥路1号院理想家小区2号楼8828号,丰台区,北京市,116.316595,39.851932,台铃电动车(三环新城店),北京市
永顺镇潞苑南大街109号,通州区,北京市,116.697450,39.933803,台铃电动车,北京市
驼房营亮马河边,朝阳区,北京市,116.502414,39.961498,台铃电动车(驼房营店),北京市
沙河镇巩华大街14号,昌平区,北京市,116.269970,40.121737,台铃电动车(沙河中西医结合医院东南),北京市
古城大街1号楼附近,石景山区,北京市,116.186918,39.914933,台铃电动车,北京市
无,朝阳区,北京市,116.506374,40.039077,台铃电动车专卖店,北京市
黄村桥农贸市场北门,大兴区,北京市,116.344773,39.715153,台铃电动车(黄徐路店),北京市
西关北路与西关路交叉口西100米,昌平区,北京市,116.222152,40.223754,台铃电动车(西关路店),北京市
安定门内大街与永恒胡同交叉口东北50米,东城区,北京市,116.408511,39.947128,台铃电动车,北京市
无,朝阳区,北京市,116.494144,40.036787,台铃电动车(何各庄店),北京市
中心东街与迎宾路交叉口东50米,顺义区,北京市,116.638478,40.063480,台铃电动车,北京市
南陈路与顺沙路交叉口东北100米,顺义区,北京市,116.617763,40.141256,台铃电动车,北京市
高丽营镇西马各庄村府荣街81号,顺义区,北京市,116.552156,40.137865,台铃电动车,北京市
百沙路178号附近,昌平区,北京市,116.300299,40.153947,台铃电动车(百沙路),北京市
北七家镇宏福苑小区29号楼底商,昌平区,北京市,116.368618,40.115218,台铃电动车,北京市
回南路25号附近,昌平区,北京市,116.419896,40.089608,台铃电动车,北京市
南宫路西100米,丰台区,北京市,116.147880,39.805526,台铃电动车,北京市
平安北大街与幸福西街交叉口西北50米,顺义区,北京市,116.593985,40.033464,台铃电动车,北京市
大窦路与房窑路交叉口西南150米,房山区,北京市,116.067713,39.646618,台铃电动车工厂店,北京市
X034(水南路),昌平区,北京市,116.215153,40.200276,台铃电动车,北京市
张凤路与枣林路交叉口东南100米,通州区,北京市,116.724239,39.826811,台铃电动车,北京市
上庄镇望湖楼饭庄对面,海淀区,北京市,116.214474,40.100110,台铃电动车(上庄家园西路),北京市
南口镇东大街42号,昌平区,北京市,116.136313,40.237600,台铃电动车(东昇路),北京市
太歇路南100米,昌平区,北京市,116.444257,40.072243,台铃电动车,北京市
皮村路北50米,朝阳区,北京市,116.625283,39.988493,台铃电动车,北京市
小沙河村星星幼儿园北,昌平区,北京市,116.325714,40.126756,台铃电动车,北京市
后沙峪古城中心街17条1号,顺义区,北京市,116.495079,40.095833,台铃电动车,北京市
火沙路与西泗上村南区街交叉口西150米,顺义区,北京市,116.487243,40.094450,台铃电动车,北京市
宋郎路与榆燕路交叉口北100米,通州区,北京市,116.815446,39.856642,北京台铃电动车专卖店,北京市
高丽营镇张喜庄农商银行西行,顺义区,北京市,116.560605,40.146592,台铃电动车专卖店,北京市
半壁店东五街与李天路交叉口西南50米,顺义区,北京市,116.636948,40.034400,台铃电动车,北京市
董各庄村北二街与董白路交叉口南50米,顺义区,北京市,116.521597,40.125908,台铃电动车,北京市
城关镇农林路1号附近,房山区,北京市,115.984663,39.688297,台铃电动车,北京市
S32京平高速靠近管头村村委会,通州区,北京市,116.614426,40.024445,台铃电动车,北京市
阳坊村西大街43号附近,昌平区,北京市,116.144181,40.140710,台铃电动车,北京市
太师屯镇市场内68号,密云区,北京市,117.121780,40.538495,台铃电动车,北京市
南横东街四平园8号楼1一2一3底商,西城区,北京市,116.378559,39.883026,台铃电动车旗舰店(南横东街),北京市
果园西路53号楼附近,密云区,北京市,116.827191,40.378910,台铃电动车小鸟电动车,北京市
新都路北50米,昌平区,北京市,116.375963,40.066052,宗申摩托车台铃电动车,北京市
新华南路59-61号附近,通州区,北京市,116.657787,39.904104,台玲电动车,北京市
旧宫东路54号,大兴区,北京市,116.449105,39.805810,都市风&台铃电动车,北京市
旧京承路与果园北街交叉口东100米,密云区,北京市,116.811637,40.366981,台铃电动车金鹏三轮车,北京市
龙华园1号楼底商,昌平区,北京市,116.328199,40.077359,台铃电动车(回龙观总店),北京市
羊坊店街道翠微路4号,海淀区,北京市,116.302434,39.914589,台铃电动车(翠微路),北京市
美术馆后街65号楼,东城区,北京市,116.408774,39.929686,台铃电动车,北京市
鼓楼西大街212号,西城区,北京市,116.380678,39.947866,台铃电动车,北京市
宋梁路136号附近,通州区,北京市,116.731490,39.942300,紫霞台铃电动车,北京市
上马台镇汽车产业园天福路9号,武清区,天津市,117.231257,39.377571,台铃电动车厂,天津市
大毕庄金温东路圆通速递东200米,东丽区,天津市,117.264014,39.181499,台铃休闲电动三轮办事处,天津市
双口镇永保路7号增1号天禹工业园,北辰区,天津市,117.071098,39.237916,台铃休闲车,天津市
迁安镇昌盛路38号,迁安市,唐山市,118.697817,40.013642,台铃,河北省
南环悦港城同天超市红绿灯路口往西10米路北,运河区,沧州市,116.844186,38.293082,台铃电动车(南环店),河北省
海阳路135号,海港区,秦皇岛市,119.592369,39.935768,台铃电动车(海阳路),河北省
学院大街850附近,三河市,廊坊市,116.831955,39.954349,台铃电动车,河北省
胜利街南50米,南宫市,邢台市,115.386420,37.355994,台铃,河北省
商贸街与241省道交叉口东北50米,平山县,石家庄市,114.137741,38.386287,台铃电动车,河北省
广平街与新石中路交叉口东南50米,桥西区,石家庄市,114.473823,38.013024,台铃电动车,河北省
南长街79号,桥东区,邢台市,114.509986,37.069552,台铃电动车,河北省
谈固东街与建明中路交叉口东行30米路北,长安区,石家庄市,114.570892,38.040468,台铃电动车,河北省
永济西路18号京顺医院西侧20米门市,运河区,沧州市,116.834063,38.328873,台铃电动车(北环工厂店),河北省
槐安西路280号附近,桥西区,石家庄市,114.432120,38.024740,台铃电动车,河北省
建设大街与和平路东行200米路北电掣,长安区,石家庄市,114.515004,38.054154,台铃电动车,河北省
万盛路与建华南大街交叉口东50米,裕华区,石家庄市,114.547460,38.012311,台铃电动车,河北省
解放东路6-11号,运河区,沧州市,116.859775,38.305765,台铃电动车(沧县小区西南),河北省
新华大街101附近,香河县,廊坊市,117.023038,39.765256,台铃电动车,河北省
国营中捷农场广场西蜀一蜀二南,黄骅市,沧州市,117.468277,38.386047,台铃电动车,河北省
同盟巷与尹泰大街交叉口东北50米,桥西区,石家庄市,114.465516,37.989399,台铃电动车,河北省
港航街与307国道交叉口西南150米,黄骅市,沧州市,117.777524,38.270640,台铃电动车,河北省
解放路清真寺东20米,新华区,沧州市,116.865816,38.305457,台铃电动车(解放东路),河北省
竹林大街59附近,冀州区,衡水市,115.572303,37.547727,台铃电动车,河北省
兴华南路与新开街交叉口东南50米,辛集市,石家庄市,115.216252,37.915996,台铃电动车,河北省
枣强镇胜利南路54号,枣强县,衡水市,115.729249,37.501659,台铃电动车专卖,河北省
新华街北段路西100号台铃电动车,馆陶县,邯郸市,115.287509,36.542930,台铃专卖,河北省
秦山路27-5,海港区,秦皇岛市,119.644408,39.973162,台铃电动车,河北省
石获北路29号东60米,新华区,石家庄市,114.428224,38.067669,台铃电动车,河北省
农大路,曲周县,邯郸市,115.004127,36.865163,四町镇台铃电动车专卖店,河北省
丰州街与牌坊街交叉口东100米,平乡县,邢台市,115.027410,37.062828,台铃电动车,河北省
汇鑫路15号附近,裕华区,石家庄市,114.552778,37.981092,台铃电动车,河北省
遵化镇通化西街西关口南行200米路北,遵化市,唐山市,117.957422,40.185271,台铃电动车,河北省
东开发区珠江大道与天山大街交叉口北行200米路西,裕华区,石家庄市,114.608482,38.024596,台铃电动车(天山大街店),河北省
燕赵南大街与裕华路交叉口东北50米,正定县,石家庄市,114.571665,38.144374,台铃电动车(燕赵南大街店),河北省
长兴街65号南郭花园B区对过,桥西区,石家庄市,114.408750,38.055232,台铃电动车,河北省
112国道南50米,易县,保定市,115.544276,39.353339,台铃电动车,河北省
广场南路与董存瑞东街交叉口东南50米,怀来县,张家口市,115.522567,40.406159,台铃电动车,河北省
北池子路与南池子路交叉口西50米,遵化市,唐山市,117.959426,40.187462,台铃电动车(通华西街),河北省
石丰路东100米,长安区,石家庄市,114.606782,38.075340,台铃电动车,河北省
天马大街与抚绣路交叉口西100米,抚宁区,秦皇岛市,119.243876,39.885034,台铃电动车,河北省
平安街道牌坊路实验小学南,涉县,邯郸市,113.670465,36.559782,台铃电动车,河北省
宁丰路10号,丰宁满族自治县,承德市,116.647866,41.211774,台铃电动车,河北省
兴临大街225号,临城县,邢台市,114.505159,37.439466,台铃电动车,河北省
163乡道西150米,峰峰矿区,邯郸市,114.269035,36.476835,台铃电动车,河北省
北陈村,永年区,邯郸市,114.616281,36.866370,台铃电动车,河北省
宗申电动三轮车专卖威县旗舰店北,威县,邢台市,115.265368,36.980741,台铃电动车,河北省
胜利南街337附近,裕华区,石家庄市,114.494816,37.990746,台铃电动车,河北省
兴广路防疫站对过,广宗县,邢台市,115.145814,37.065877,台铃电动车(广宗店),河北省
邯山街64号稽山新天地3号楼一层A12(03-1-12A),丛台区,邯郸市,114.482000,36.605678,台铃电动车,河北省
上庄镇上庄商品街北段路东,鹿泉区,石家庄市,114.384793,38.036142,台铃电动车上庄TAILG品牌专卖店,河北省
开泰街62号附近,桥西区,石家庄市,114.431602,38.059669,台铃电动车,河北省
东兴街3号附近,桥东区,张家口市,114.901310,40.808748,台铃电动车(东兴街),河北省
文化南路57号附近,遵化市,唐山市,117.964579,40.180956,台铃电动车,河北省
三羊东街2号,清河县,邢台市,115.668887,37.063655,台铃电动车,河北省
中心街与冠云西路交叉口西50米路北,涿州市,保定市,115.966381,39.476569,台铃电动车(冠云西路),河北省
王禅东路19号附近,临漳县,邯郸市,114.614149,36.331618,台铃电动车,河北省
兼庄乡东环路与和平路交叉口北行30米路东,丛台区,邯郸市,114.540455,36.599449,台铃电动车,河北省
武安镇桥西路251号,武安市,邯郸市,114.206719,36.688280,台铃电动车武安专卖店,河北省
香港路河北省农村信用社西北250米,行唐县,石家庄市,114.563083,38.441214,台铃云电动车,河北省
友谊街212号,永年区,邯郸市,114.503645,36.777286,台铃电动车,河北省
新华南路65号附近,馆陶县,邯郸市,115.286197,36.535067,台铃电动车,河北省
新华街228号,泊头市,沧州市,116.571741,38.073355,台铃电动车(新华街),河北省
054县道南50米,正定县,石家庄市,114.622821,38.195128,台铃电动车,河北省
西土山乡西土山西街村,武安市,邯郸市,114.177518,36.745955,台铃电动车(土山店),河北省
中山西路与后仓路交叉口南50米,磁县,邯郸市,114.380346,36.360138,台铃电动车,河北省
兴盛街与海滨路交叉口西100米,海兴县,沧州市,117.500543,38.140777,台铃电动车,河北省
永定路106国道肯德基对面,固安县,廊坊市,116.309773,39.441891,台铃电动车,河北省
华山道与站前一路交叉口南50米,吴桥县,沧州市,116.390044,37.626438,台铃电动车,河北省
镇宁路27号附近,鹿泉区,石家庄市,114.323274,38.088300,台铃电动车,河北省
南长街62号附近,桥西区,石家庄市,114.483101,38.027689,台铃电动车,河北省
乐寿大街与本斋路交叉口北100米,献县,沧州市,116.134594,38.191508,台铃电动车,河北省
234省道西50米,曲周县,邯郸市,114.960060,36.678039,台铃电动车,河北省
冀衡路南50米,武邑县,衡水市,115.824878,37.788673,台铃电动车,河北省
玉田镇遵宝线振国文教用品厂附近,玉田县,唐山市,117.711578,39.867927,台铃电动车,河北省
中华南大街16号附近,邯山区,邯郸市,114.486651,36.541014,台铃电动车,河北省
武强镇新开街31号,武强县,衡水市,115.966138,38.039707,台铃云电动车,河北省
邯馆公路北50米,广平县,邯郸市,115.045760,36.554171,台铃电动车,河北省
新华西街74附近,大城县,廊坊市,116.633767,38.694713,台铃电动车,河北省
无极西路与英杰巷交叉口东北50米,无极县,石家庄市,114.972265,38.177487,无极台铃电动车,河北省
龙井大街与191乡道交叉口西北50米,涉县,邯郸市,113.730795,36.609311,台铃电动车,河北省
农机宾馆西50米路南,曲周县,邯郸市,114.965526,36.773785,台铃电动车,河北省
南山街与百泉路交叉口北50米,涞源县,保定市,114.690663,39.349059,台铃电动车,河北省
仁厚镇向阳南大街玉滢小区旁,唐县,保定市,114.980868,38.740589,台铃电动车(雅利奇电动车),河北省
282省道东50米,深州市,衡水市,115.699055,38.050615,台铃电动车,河北省
人民西路23号附近,鸡泽县,邯郸市,114.871840,36.910202,台铃电动车,河北省
彭城镇滏西路陶瓷职工2号楼下,峰峰矿区,邯郸市,114.181084,36.421410,台铃电动车,河北省
刘河线与318省道交叉口东150米,永年区,邯郸市,114.574351,36.817413,台铃电动车,河北省
307国道北200米,辛集市,石家庄市,115.261759,37.984500,台铃电动车,河北省
兴阳路159附近,高阳县,保定市,115.781848,38.688539,台铃电动车,河北省
长城中路与长城南路交叉口西北100米,怀来县,张家口市,115.514673,40.399129,台铃电动车(长城中路),河北省
101国道与354省道交叉口东南50米,滦平县,承德市,117.196883,40.722702,台铃电动车,河北省
中兴路与辛未中街交叉口东50米,宁晋县,邢台市,115.120097,37.795837,台铃电动车,河北省
卢龙镇北门外路卢龙乐购超市旁,卢龙县,秦皇岛市,118.877729,39.890372,台铃电动车,河北省
邢德路北50米,故城县,衡水市,115.802423,37.312200,台铃电动车,河北省
无,青龙满族自治县,秦皇岛市,119.163952,40.338111,台铃电动车,河北省
315省道南50米,邯山区,邯郸市,114.478518,36.462095,台铃电动车北豆公专卖店,河北省
微水镇河边东路(后马路中心市场)47号,井陉县,石家庄市,114.142789,38.030972,台铃电动车,河北省
先锋路与复兴大街交叉口东100米,临西县,邢台市,115.684746,36.853997,台铃电动车,河北省
759乡道南50米,临西县,邢台市,115.709900,36.913723,台铃电动车,河北省
钢铁路西200米,迁安市,唐山市,118.590266,39.996037,台铃电动车,河北省
扣庄派出所斜对面,迁安市,唐山市,118.773098,40.048126,台铃电动车,河北省
为民路与107国道交叉口东北150米,邯山区,邯郸市,114.461646,36.552995,台铃电动车,河北省
皇褡线十里亭镇政府西行160米路北,沙河市,邢台市,114.347131,36.957197,台铃电动车,河北省
302省道北50米,正定县,石家庄市,114.670077,38.156262,台铃电动车,河北省
吕尖线东50米,馆陶县,邯郸市,115.445332,36.720179,台铃电动车,河北省
107国道西50米,邯山区,邯郸市,114.431978,36.477942,台铃电动车,河北省
085乡道与307国道交叉口西50米,献县,沧州市,116.369198,38.231928,台铃电动车(淮镇专卖店),河北省
282省道东50米,桃城区,衡水市,115.692287,37.797655,台铃电动车(大麻森供销社商业楼南),河北省
363省道南50米,抚宁区,秦皇岛市,119.213340,40.029036,台铃电动车,河北省
世纪商贸城,任丘市,沧州市,116.095678,38.689428,台铃电动车(世纪商贸城店),河北省
036省道北50米,永年区,邯郸市,114.638115,36.731816,台铃电动车,河北省
沙口集乡313省道集东村附近,魏县,邯郸市,115.031378,36.307032,台铃电动车,河北省
051乡道东50米(路顺饭店北行200米),正定县,石家庄市,114.574190,38.216545,台铃电动车,河北省
007县道西50米,柏乡县,邢台市,114.696680,37.444795,台铃电动车,河北省
严华寺村西路南,赞皇县,石家庄市,114.343784,37.626137,台铃电动车,河北省
泰元南大街五号,易县,保定市,115.508748,39.346837,台铃电动车,河北省
健康北街29附近,赞皇县,石家庄市,114.391430,37.663836,台铃电动车,河北省
024乡道西50米,遵化市,唐山市,118.027658,40.220516,台铃电动车,河北省
彭李线西50米,迁安市,唐山市,118.576341,40.009430,台铃电动车,河北省
302省道北50米,藁城区,石家庄市,114.714605,38.153273,台铃电动车,河北省
231省道与392省道交叉口南200米,深州市,衡水市,115.505947,37.798099,台铃电动车,河北省
北早现乡浦驰路112号,正定县,石家庄市,114.507013,38.191495,台铃电动车,河北省
财神庙商业区d区,宣化区,张家口市,115.061982,40.610868,台铃电动车(鼓楼前街),河北省
322省道北50米,邢台县,邢台市,114.019060,37.227698,台铃电动车,河北省
东延路与中大街交叉口东南50米,长安区,石家庄市,114.659326,38.090020,台铃电动车,河北省
位伯镇位伯村附近,辛集市,石家庄市,115.226639,38.032043,台铃电动车,河北省
汇平路与红旗大街交叉口西北50米,桥西区,石家庄市,114.460040,37.997341,台铃电动车,河北省
无,磁县,邯郸市,114.108977,36.310145,台铃电动车,河北省
建华大街亨盛花园东门北侧,滦州市,唐山市,118.694420,39.745277,台铃电动车,河北省
073乡道西50米,肥乡区,邯郸市,114.988361,36.561927,台铃电动车,河北省
市场北路,平泉市,承德市,118.770395,41.217171,台铃电动车(黄大线),河北省
007县道与205乡道交叉口西100米,柏乡县,邢台市,114.711182,37.543678,台铃电动车,河北省
迁徐线与288乡道交叉口东南50米,迁安市,唐山市,118.831739,40.068682,台铃电动车,河北省
667乡道南50米,威县,邢台市,115.529969,36.965299,台铃电动车,河北省
洪火线与356省道交叉口西北100米,遵化市,唐山市,118.114210,40.191109,台铃电动车,河北省
444乡道北150米,深州市,衡水市,115.491452,37.795984,台铃电动车,河北省
贾村天主教堂南150米白仙庙附近,丛台区,邯郸市,114.589180,36.700064,台铃电动车,河北省
新华街与明德南路交叉路口北300米附近,桥西区,张家口市,114.879512,40.823971,台铃电动车专卖,河北省
碾唐线西50米,迁西县,唐山市,118.460062,40.301549,台铃电动车,河北省
X634(卢昌线),卢龙县,秦皇岛市,119.032198,39.810380,台铃电动车,河北省
福瑞大街1200号附近,迁安市,唐山市,118.604000,40.120660,台铃电动车,河北省
凤城东路与宁魏路交叉口东南150米,曲周县,邯郸市,114.964978,36.778788,台铃电动车(曲周专卖店),河北省
327省道北200米,临城县,邢台市,114.264129,37.480970,台铃电动车,河北省
G309(荣兰线),肥乡区,邯郸市,114.667630,36.577802,台铃电动车,河北省
381省道北50米,任丘市,沧州市,116.169424,38.708341,台铃电动车,河北省
堡东线遵化马兰峪汽车客运站东南,遵化市,唐山市,117.706521,40.184699,台铃电动车,河北省
祖山路与龙泉街交叉口西北50米,青龙满族自治县,秦皇岛市,118.969992,40.406170,台铃电动车,河北省
开元西路与望远北街交叉口东南50米,魏县,邯郸市,114.932218,36.363875,台铃电动车(望远北街),河北省
文明路与邯临公路交叉口西北100米,曲周县,邯郸市,115.062185,36.784749,台铃电动车,河北省
潘庄镇政府东北70米(蛇刘线西),卢龙县,秦皇岛市,118.931206,40.050148,台铃电动车,河北省
202省道与216乡道交叉口西北200米,涉县,邯郸市,113.744837,36.480673,台铃电动车,河北省
无,广宗县,邢台市,115.129449,36.979435,台铃电动车,河北省
无,遵化市,唐山市,117.963006,40.268925,台铃电动车,河北省
燕新线附近,卢龙县,秦皇岛市,119.067167,40.037908,台铃电动车,河北省
无,定州市,保定市,114.913970,38.523091,台铃电动车专卖店,河北省
鹰城中路与鹰城大街交叉口西150米,鹰手营子矿区,承德市,117.654852,40.546574,台铃电动车,河北省
西苑路与贸易街交叉口北200米,阳原县,张家口市,114.166528,40.106657,台铃电动车,河北省
会馆路89号对面路南,鹿泉区,石家庄市,114.326489,38.083699,台铃电动车(鹿泉会馆路店),河北省
石清路南50米,鹿泉区,石家庄市,114.349599,38.197555,台铃电动车,河北省
涞曲高速与188乡道交叉口西150米,曲阳县,保定市,114.648336,38.790929,台铃电动车,河北省
009县道西50米,正定县,石家庄市,114.548916,38.230985,台铃电动车,河北省
S355(京建线),迁西县,唐山市,118.302331,40.356277,台铃电动车,河北省
建华北大街辅路,长安区,石家庄市,114.544516,38.072967,台铃电动车,河北省
001乡道东50米,任丘市,沧州市,116.379114,38.740640,台铃电动车,河北省
大河路北50米,任丘市,沧州市,116.284299,38.768452,台铃电动车,河北省
234省道西50米,巨鹿县,邢台市,115.058990,37.271725,台铃电动车专卖店,河北省
涿娄路与232省道交叉口东北100米,涞水县,保定市,115.663542,39.484238,台铃云电动车,河北省
曹前线与151县道交叉口西100米,曲周县,邯郸市,114.866489,36.677971,台铃电动车(东大由专卖店),河北省
滨河西路与鹰城大街交叉口东南50米,鹰手营子矿区,承德市,117.651098,40.546239,台铃电动车(鹰城大街),河北省
205乡道与356省道交叉口东150米,迁西县,唐山市,118.304391,40.359472,台铃电动车(万通车行),河北省
古赵路东200米,古冶区,唐山市,118.432049,39.750883,台铃电动车,河北省
魏僧寨镇阳光幼儿园南88米,馆陶县,邯郸市,115.386380,36.714911,台铃电动车专卖,河北省
夏官营镇中国农业银行西,迁安市,唐山市,118.808137,39.974995,台铃电动车(夏官营专卖店),河北省
板城东大街与语录街交叉口西150米,承德县,承德市,118.190587,40.777665,台铃电动车(板城东大街),河北省
"联盟路232号,联盟路与高中街交叉东行30米路南侧",新华区,石家庄市,114.468970,38.079208,石家庄台铃电动车售后,河北省
新华街与胜利西路交叉口东50米,藁城区,石家庄市,114.844976,38.031892,智建国台铃,河北省
龙潭西街45号附近,怀来县,张家口市,115.513787,40.402750,台铃电动车行,河北省
无,吴桥县,沧州市,116.448463,37.603030,台铃云电动车,河北省
邯馆公路南50米,馆陶县,邯郸市,115.195965,36.547786,俊岭台铃电动车,河北省
264省道东50米,遵化市,唐山市,117.889755,40.066875,台铃云电动车,河北省
市场北路东6栋,平泉市,承德市,118.693974,41.010201,台铃云电动车,河北省
和平路155号国风购物中心,丛台区,邯郸市,114.487057,36.605161,台铃电动车门市,河北省
友谊南大街与107国道交叉口南200米,磁县,邯郸市,114.370140,36.344234,台铃电动车德旺车行,河北省
城垣西路附近(河间商贸城对面),河间市,沧州市,116.078494,38.444232,台铃·云电动车(墨松专卖店),河北省
无,鸡泽县,邯郸市,114.772794,36.886609,台铃电动车店上专卖,河北省
林西道138号附近,古冶区,唐山市,118.460261,39.718759,倍尔捷台铃电动车,河北省
振兴路与河西街交叉口东100米,涉县,邯郸市,113.680124,36.560724,振兴路龙翔宾馆楼下台铃电动车店,河北省
318省道北50米,永年区,邯郸市,114.646372,36.838514,速派奇电动车&台铃电动车,河北省
霖江一锅香(北环路店)西90米,霸州市,廊坊市,116.699698,39.069415,台铃修理电动车,河北省
体育路和王村南街十字路口路西往北300米,小店区,太原市,112.568753,37.833349,台铃电动车(体育路店),山西省
中国农业银行高科技支行(建设街东),尧都区,临汾市,111.530356,36.095811,台铃电动车(建设街),山西省
敦化坊街道敦化南路76号顶好电动车交易中心,杏花岭区,太原市,112.590369,37.885350,台铃电动车,山西省
五一西路A区中段,尧都区,临汾市,111.505867,36.076482,台铃电动车(信合西路店),山西省
真武路中段88号1层,小店区,太原市,112.576444,37.734273,台铃电动车(真武路店),山西省
和平北路119号附近,万柏林区,太原市,112.510799,37.882262,台铃,山西省
平阳路怡安装饰城路西,小店区,太原市,112.549822,37.804367,台铃电动车,山西省
解放路164号,杏花岭区,太原市,112.562254,37.883123,台铃电动车,山西省
西线街90附近,万柏林区,太原市,112.477760,37.875101,台铃电动车,山西省
建设路1568号,城区,晋城市,112.850157,35.498539,台铃电动车(建设路店),山西省
千峰北路与和平北路北巷交叉口北100米,尖草坪区,太原市,112.517826,37.895537,台铃(太原旗舰店),山西省
新义街636号,孝义市,吕梁市,111.770896,37.141653,台铃电动车(新义街店),山西省
凤凰南路33号,盐湖区,运城市,110.996229,35.016168,台铃电动车,山西省
和平南路下元街道大众街口,万柏林区,太原市,112.511684,37.845573,台铃电动车(和平南路),山西省
刘村镇鼓楼北大街郭家庄十字北一百米路西,尧都区,临汾市,111.518343,36.096262,台铃电动车,山西省
解放东路吉祥花园楼下,尧都区,临汾市,111.564062,36.083181,台铃电动车(解放东路店),山西省
羿神西大街北200米,屯留区,长治市,112.880011,36.314881,台铃电动车,山西省
迎太路玩具批发部旁,盐湖区,运城市,111.024628,35.051069,台铃电动车,山西省
光明东街与光明街北巷交叉口东北100米,忻府区,忻州市,112.740463,38.403392,台铃电动车(光明东街店),山西省
七贤巷与新建南路交叉口北100米,忻府区,忻州市,112.742413,38.406018,台铃电动车(新建南路),山西省
凤山路483号,离石区,吕梁市,111.140225,37.532141,台铃电动车(桥头街店),山西省
昌平路与昌明路交叉口西50米,离石区,吕梁市,111.128714,37.502708,台铃电动车,山西省
花园路东16号,榆次区,晋中市,112.745442,37.682662,台铃电动车(花园路店),山西省
万佛洞街0309,宁武县,忻州市,112.295879,38.992203,台铃电动车,山西省
S227(畅安路),城区,晋城市,112.903395,35.555573,台铃电动车,山西省
滨河南路与金牛大街交叉口,古交市,太原市,112.167551,37.913899,台铃电动车(古交博爱医院西北),山西省
新市西街1547号附近,城区,晋城市,112.837577,35.499378,台铃电动车(新市西街),山西省
建设南路184号,高平市,晋城市,112.929005,35.785137,高平台铃电动车行,山西省
北大街40号,壶关县,长治市,113.207972,36.118781,台铃电动车,山西省
古韩镇西街工商银行对面,襄垣县,长治市,113.045270,36.534094,台铃电动车,山西省
221省道与379县道交叉口西南150米,介休市,晋中市,112.073795,37.132774,台铃电动车(张兰中心医院东北),山西省
新安街(中阳楼街道社区卫生服务中心东北),孝义市,吕梁市,111.804717,37.136093,台铃电动,山西省
中山南街92号,介休市,晋中市,111.913583,37.030549,台铃电动车(北河沿街店),山西省
南村镇南村村南域经典二期,泽州县,晋城市,112.796610,35.461581,台铃电动车,山西省
风陵渡镇开发区摩托街,芮城县,运城市,110.323855,34.634729,台铃电动车,山西省
联想专卖店(县底镇店)西50米,尧都区,临汾市,111.601804,36.028337,台铃电动车(县底专卖),山西省
南大街安监局往南150米,娄烦县,太原市,111.787531,38.062934,台铃,山西省
柏杨树北二街东50米,杏花岭区,太原市,112.569513,37.928816,台铃电动车,山西省
辽阳镇家家利停车场,左权县,晋中市,113.377672,37.078417,台铃电动车,山西省
东村镇向阳东路东河公园红绿灯香油30米,岚县,吕梁市,111.684836,38.274049,台铃电动车(岚县城区医院东),山西省
十二米街18号,柳林县,吕梁市,110.896833,37.431027,台铃电动车(南坪西路),山西省
迎宾路,五台县,忻州市,113.264409,38.720576,台铃电动车(五台县盐务管理支局南),山西省
新建西路永安大厦1层,介休市,晋中市,111.921150,37.021048,台铃电动车(新建西路),山西省
猗氏镇南环路农机公司西,临猗县,运城市,110.778165,35.134612,台铃电动车,山西省
秀水东街48号(盂县仁爱医院附近),盂县,阳泉市,113.415489,38.084575,台铃电动车(秀水东街店),山西省
通顺街与龙山大街交叉口西100米,尖草坪区,太原市,112.448461,38.006940,台铃电动车,山西省
狄青路与迎新正街交叉口东50米,汾阳市,吕梁市,111.771317,37.264637,台铃电动车,山西省
新建南路与槐荫街交叉口西北50米,祁县,晋中市,112.330511,37.348914,台铃电动车(新建南路),山西省
欧式西街与莲池路交叉口西150米,河津市,运城市,110.713432,35.585044,台铃电动车(莲池路),山西省
030乡道东50米,定襄县,忻州市,113.103059,38.590093,台铃电动车,山西省
232省道西50米,襄汾县,临汾市,111.403134,36.024001,台铃电动车(八方融滙购物中心襄陵分店东北),山西省
商业路与府东街交叉口西100米,广灵县,大同市,114.279113,39.759663,台铃电动车,山西省
开元街与永康路交叉口东50米,霍州市,临汾市,111.751887,36.568788,台铃电动车(开元街),山西省
唐城公路南50米,晋源区,太原市,112.494458,37.741901,台铃电动车,山西省
凤城镇旧富康小区大门西面,文水县,吕梁市,112.042916,37.436942,台铃电动车,山西省
蒲伊西街12号附近,蒲县,临汾市,111.091987,36.414753,台铃电动车(蒲伊西街店),山西省
南熏路与西坛巷交叉口西50米,汾阳市,吕梁市,111.780649,37.261122,台铃电动车(南熏路),山西省
016乡道与108国道交叉口东北50米,灵石县,晋中市,111.770155,36.926006,台铃电动车(016乡道),山西省
527县道邓庄镇邓庄村,襄汾县,临汾市,111.519562,35.952949,台铃电动车,山西省
西街小学东北90米(涧桥北路西),洪洞县,临汾市,111.668351,36.254817,台铃电动车(涧桥北路店),山西省
赵城镇108国道第二人民医院东100米,洪洞县,临汾市,111.694672,36.386139,台铃电动车,山西省
霍侯一级公路西50米,洪洞县,临汾市,111.649307,36.214700,台铃电动车,山西省
广场东街5号,静乐县,忻州市,111.941945,38.352854,台铃电动车,山西省
刘村镇商业街中国移动通信泊庄专营店,尧都区,临汾市,111.465591,36.088192,台铃电动车(商业街),山西省
贾得乡政府对面,尧都区,临汾市,111.533495,36.030534,台铃电动车(贾得乡人民政府西南),山西省
823县道东50米,永济市,运城市,110.329530,34.831381,台铃电动车,山西省
顺城路128号附近,平遥县,晋中市,112.171121,37.199599,台铃电动车,山西省
临泉镇临州文化广场,临县,吕梁市,110.996453,37.963180,台铃电动车,山西省
新荣路与方正街交叉口南50米,方山县,吕梁市,111.245345,37.897200,台铃电动车,山西省
步行街与纺织东巷交叉口东50米,侯马市,临汾市,111.383396,35.624522,台铃电动车(纺织东巷),山西省
西街,大宁县,临汾市,110.741106,36.463696,台铃电动车,山西省
桥南路36号附近,黎城县,长治市,113.388175,36.505700,台铃电动车,山西省
新城镇丁陶大卖场,襄汾县,临汾市,111.427234,35.882290,台铃电动车(党校北院西),山西省
春蕾路122号附近,平遥县,晋中市,112.180164,37.179934,台铃电动车,山西省
文庙路体育场楼下,新绛县,运城市,111.230645,35.613820,台铃电动车,山西省
正大街附近,高平市,晋城市,113.040301,35.849095,台铃电动车,山西省
安康北巷与林涛大道交叉口西南100米,保德县,忻州市,111.079437,39.021295,台铃电动车(林涛大道),山西省
金元街与207国道交叉口东南100米,黎城县,长治市,113.362540,36.468978,台铃电动车,山西省
无,介休市,晋中市,112.008068,37.122345,台铃电动车,山西省
建工路287号附近,侯马市,临汾市,111.389133,35.630323,台铃电动售后,山西省
圣人涧镇红楼宾馆北40米,平陆县,运城市,111.221689,34.834237,台铃电动车,山西省
台运线西50米,盐湖区,运城市,110.937415,35.138792,台铃电动车,山西省
010乡道与923县道交叉口南50米,介休市,晋中市,112.027636,37.056463,台铃电动,山西省
千伏村路北,尧都区,临汾市,111.616659,36.073030,台铃电动车(中心路南二巷),山西省
开元街李诠庄村,霍州市,临汾市,111.755671,36.567030,台铃电动车(华翰瑞府东北),山西省
380县道西50米,介休市,晋中市,111.922667,37.001944,台铃电动车,山西省
036乡道与844县道交叉口东200米,闻喜县,运城市,111.171995,35.304118,台铃电动车,山西省
唐兴镇华丰小区楼下,翼城县,临汾市,111.704079,35.738619,台铃电动车,山西省
城墙岭街与府北街交叉口西北50米,安泽县,临汾市,112.251623,36.148748,台铃电动车,山西省
529县道南50米,尧都区,临汾市,111.630745,36.117205,台铃电动车,山西省
309国道东50米,吉县,临汾市,110.820180,36.247169,台铃电动车,山西省
沁东线与334省道交叉口北150米,绛县,运城市,111.661099,35.510080,台铃电动车(卫庄镇卫生院北),山西省
龙泉镇七道街公安局50米,神池县,忻州市,112.201023,39.089202,台铃电动车,山西省
东大街与南大街交叉口东100米,天镇县,大同市,114.090797,40.419825,台铃电动车,山西省
文昌东街与文昌西街交叉口西100米,灵石县,晋中市,111.876143,36.892447,台铃电动车,山西省
238省道东50米,临猗县,运城市,110.556203,35.088851,台铃电动车(临晋卫生院东南),山西省
太华路与太洛公路交叉口西50米,高平市,晋城市,112.918831,35.806389,台铃电动车,山西省
延安街与沁园春大道交叉口东150米,石楼县,吕梁市,110.822993,37.001955,台铃电动车,山西省
瓦窑南路215号附近,方山县,吕梁市,111.237419,37.889956,台铃电动车,山西省
529县道南50米,尧都区,临汾市,111.633960,36.116520,台铃电动车,山西省
209国道与237省道交叉口西100米,万荣县,运城市,110.712300,35.422114,台铃电动车,山西省
霍侯一级公路西50米,曲沃县,临汾市,111.465777,35.761180,台铃电动车(中共里村镇委员会北),山西省
明姜北街中段,洪洞县,临汾市,111.733422,36.334294,台铃电动车,山西省
义棠镇温家沟村口,介休市,晋中市,111.849907,37.006906,台铃电动车,山西省
阳阿新街南50米,泽州县,晋城市,112.804327,35.664051,台铃电动车,山西省
014乡道与309国道交叉口西50米,洪洞县,临汾市,111.715921,36.168884,台铃电动车,山西省
005乡道与232省道交叉口东150米,夏县,运城市,111.163657,35.178115,台铃电动车,山西省
035乡道附近,平遥县,晋中市,112.170135,37.180933,台铃电动车,山西省
后夏线西50米,闻喜县,运城市,111.354900,35.333610,河底台铃电动车,山西省
无,侯马市,临汾市,111.394637,35.686247,台铃电动车,山西省
义棠镇宾河小区门面,介休市,晋中市,111.871990,37.037662,台铃电动冬成车行,山西省
新市西街北50米,城区,晋城市,112.821222,35.499486,五羊摩托台铃电动车,山西省
东华路120号,阳城县,晋城市,112.436769,35.482779,阳城台铃休闲车,山西省
同源路与新华街交叉口西150米,灵丘县,大同市,114.227409,39.438813,台玲电动车,山西省
相如路123号附近,古县,临汾市,111.915540,36.264381,台铃电动车行,山西省
健康路与新东街交叉口西150米,稷山县,运城市,110.912872,35.497747,二恒车行,山西省
翟店镇新建街红升家电西南150米,稷山县,运城市,110.912825,35.497741,台铃电动车服务站,山西省
桐城镇道北小学华强超市隔壁,闻喜县,运城市,111.209881,35.355241,台铃电车,山西省
汽车站华仙宾馆往东,孝义市,吕梁市,111.797590,37.142659,台铃电动车,山西省
玉门河北沿岸,万柏林区,太原市,112.477276,37.864998,台铃电动车,山西省
小宋曲滨河小区南门面17号,介休市,晋中市,111.871106,37.036913,台铃电动,山西省
012乡道附近,洪洞县,临汾市,111.696115,36.120926,台铃电动车,山西省
北门街,交城县,吕梁市,112.152998,37.552501,台铃电动车,山西省
迎新东街51号西北100米,永济市,运城市,110.450581,34.870089,台铃电动车,山西省
G521(运永线),永济市,运城市,110.631188,34.866937,爱玛台铃电动车,山西省
府南路与新义街交叉口西150米,孝义市,吕梁市,111.773663,37.141734,台铃电动车(装修中),山西省
三道街63-3,红山区,赤峰市,118.961586,42.278736,台铃电动车(三中街街道办事处南),内蒙古自治区
兴安南路与南二环高架路出口交叉口北100米,赛罕区,呼和浩特市,111.713223,40.798870,台铃电动车,内蒙古自治区
赤茅公路与206省道交叉口西南200米,喀喇沁旗,赤峰市,118.869796,42.232671,台铃电动车(和美如意家园西南),内蒙古自治区
草原道与青山路交叉口东北50米,青山区,包头市,109.889877,40.671125,台铃电动车,内蒙古自治区
穆家营子镇松山大街金峰佳苑北门附近,松山区,赤峰市,118.922645,42.279930,台铃电动车(松山大街),内蒙古自治区
二中十字路口东路北金鼎国际南门店,乌拉特中旗,巴彦淖尔市,108.507286,41.569157,台铃电动车,内蒙古自治区
金川泰和熙地商业街32-33号附近,土默特左旗,呼和浩特市,111.534670,40.791697,台铃电动车,内蒙古自治区
民族西路(南段)辅路,昆都仑区,包头市,109.829844,40.609428,台铃电动车,内蒙古自治区
温州步行街18号楼-18号,回民区,呼和浩特市,111.661509,40.812229,台铃电动车,内蒙古自治区
兴隆巷街道兴隆巷办事处鄂尔多斯大街与石羊桥路交叉口向西300米路北,玉泉区,呼和浩特市,111.653188,40.792708,台铃电动车(鄂尔多斯大街),内蒙古自治区
鄂尔多斯大街56号附近,玉泉区,呼和浩特市,111.666119,40.794407,台铃电动车,内蒙古自治区
南门外大街17号,东河区,包头市,110.028266,40.578499,台铃电动车,内蒙古自治区
包白公路西50米,九原区,包头市,110.023765,40.612264,台铃电动车,内蒙古自治区
北二环110囯道旭原川市场往西600米,新城区,呼和浩特市,111.684088,40.872487,台铃电动车,内蒙古自治区
067县道北50米,九原区,包头市,109.834408,40.581904,台铃电动车,内蒙古自治区
教育路与红卫中路交叉口南150米,乌拉特前旗,巴彦淖尔市,108.652801,40.725696,台铃电动车(红卫中路),内蒙古自治区
河东镇惠民路,东河区,包头市,110.059945,40.582499,台铃电动车专卖店,内蒙古自治区
包哈公路与067县道交叉口西100米,青山区,包头市,109.904609,40.590428,台铃专卖店,内蒙古自治区
利朗路与泰达路交叉口南100米,东河区,包头市,110.062861,40.564124,台铃电动车,内蒙古自治区
人民路与长安街交叉口西北150米,土默特左旗,呼和浩特市,111.133295,40.716289,台铃电动车(人民路店),内蒙古自治区
巴音陶亥西街裕泽苑西商,海南区,乌海市,106.883219,39.441641,台铃电动车,内蒙古自治区
音德尔镇江南风情园5号楼,扎赉特旗,兴安盟,122.908015,46.718804,台铃电动车,内蒙古自治区
人民路与甘德尔街交叉口北150米,海勃湾区,乌海市,106.820078,39.665390,台铃电动车,内蒙古自治区
内205县道北50米,松山区,赤峰市,118.823603,42.274651,台铃电动车,内蒙古自治区
广通路与新华街交叉口西南50米,和林格尔县,呼和浩特市,111.817366,40.381469,台铃电动车(广通路店),内蒙古自治区
中山南路与迎宾街交叉口西150米,杭锦后旗,巴彦淖尔市,107.144133,40.883337,台铃电动车,内蒙古自治区
向阳路与幸福街交叉口东南50米,突泉县,兴安盟,121.572732,45.374038,台铃电动车,内蒙古自治区
110国道与307乡道交叉口西南50米,临河区,巴彦淖尔市,107.553336,40.824721,台铃电动车(307乡道店),内蒙古自治区
同心路与向阳街交叉口东150米,翁牛特旗,赤峰市,119.026146,42.930512,台铃电动车(向阳街),内蒙古自治区
林东东城街道一道街和谐家园四号厅,巴林左旗,赤峰市,119.393150,43.985449,台铃电动车,内蒙古自治区
新建大街交通路观光大厦西门,科尔沁区,通辽市,122.258237,43.608212,台铃电动车(交通路店),内蒙古自治区
中央北路与新桥街交叉口西100米,扎兰屯市,呼伦贝尔市,122.749040,47.995939,台铃电动车,内蒙古自治区
大南街西50米,土默特右旗,包头市,110.519175,40.548512,台铃电动车,内蒙古自治区
207省道东50米,宁城县,赤峰市,118.839672,41.417098,台铃电动车,内蒙古自治区
长青路,宁城县,赤峰市,119.327972,41.594129,台铃电动车,内蒙古自治区
东风街与和平路交叉口西南50米,磴口县,巴彦淖尔市,107.012608,40.329430,台铃电动车,内蒙古自治区
双拥街与赛飞亚路交叉口南100米,宁城县,赤峰市,119.340677,41.591237,台铃电动车(赛飞亚路),内蒙古自治区
双河镇民族幼儿园门口,托克托县,呼和浩特市,111.200079,40.274252,台铃电动车专卖店,内蒙古自治区
大板街南50米,巴林右旗,赤峰市,118.686907,43.527313,台铃电动车,内蒙古自治区
305国道北50米,敖汉旗,赤峰市,120.378370,42.126108,台铃电动车,内蒙古自治区
安白线与111国道交叉口西100米,松山区,赤峰市,119.345239,42.433367,台铃电动车,内蒙古自治区
兴元路西50米,元宝山区,赤峰市,119.297116,42.302622,台铃电动车,内蒙古自治区
锦山大街与锦龙线交叉口东50米,喀喇沁旗,赤峰市,118.696860,41.922159,台铃电动车,内蒙古自治区
306国道西50米,克什克腾旗,赤峰市,118.360078,43.099949,台铃电动车,内蒙古自治区
306国道西50米,宁城县,赤峰市,118.993073,41.770879,台铃电动车(小城子卫生院西南),内蒙古自治区
元宝山镇兴元路盛世馨居1号楼,元宝山区,赤峰市,119.296674,42.303899,台铃电动车,内蒙古自治区
306国道北50米,宁城县,赤峰市,119.126737,41.596102,台铃电动车,内蒙古自治区
黄河大街韩庆坝村口永盛成超市东一百米,九原区,包头市,109.963004,40.594760,九原区黄河大街与农机路交叉口台铃电动车,内蒙古自治区
隆兴昌东街,五原县,巴彦淖尔市,108.276525,41.101146,台铃电动车,内蒙古自治区
白云鄂博路,昆都仑区,包头市,109.813867,40.678078,台铃电动车,内蒙古自治区
兴盛路与阜顺街交叉口东100米,兴和县,乌兰察布市,113.832874,40.873448,台铃电动车,内蒙古自治区
无,乌拉特前旗,巴彦淖尔市,108.972202,40.620781,台铃电动车,内蒙古自治区
林荫路7号东70米,昆都仑区,包头市,109.823138,40.673204,台铃电动车,内蒙古自治区
无,赛罕区,呼和浩特市,111.733037,40.821711,台铃电动车,内蒙古自治区
那仁宝力格街,杭锦后旗,巴彦淖尔市,107.092497,41.079225,跑狼台铃电动车,内蒙古自治区
庆丰街与金川大道交叉口东150米,临河区,巴彦淖尔市,107.377040,40.763287,跑狼台铃电动车,内蒙古自治区
三好街104-1号311房间,和平区,沈阳市,123.426744,41.761500,台铃电动车(三好街店),辽宁省
南顺城路63号,沈河区,沈阳市,123.459434,41.792741,台铃电动车(南顺城路店),辽宁省
北海街245号附近,大东区,沈阳市,123.486165,41.814839,台铃电动车,辽宁省
前程街与红旗东路交叉口西50米,沙河口区,大连市,121.546448,38.923487,台铃电动车(红旗东路店),辽宁省
丰乐二街5号9门,沈河区,沈阳市,123.487284,41.766425,台铃电动车,辽宁省
沈大路11号7门迎宾花园对面,于洪区,沈阳市,123.313276,41.801589,台铃电动车(沈大路辅路),辽宁省
兴华街道南七中路17号,铁西区,沈阳市,123.365828,41.790931,台铃电动车(南七中路店),辽宁省
黄河北大街11号,皇姑区,沈阳市,123.418003,41.862280,台铃电动车,辽宁省
令闻社区B区令闻街67号楼2门,沈河区,沈阳市,123.447757,41.808663,台铃电动车,辽宁省
振兴路34-2门,海州区,阜新市,121.655893,41.997298,台铃电动车,辽宁省
东陵街道东陵西路73号10门,沈河区,沈阳市,123.519630,41.812273,台铃电动车(东陵西路店),辽宁省
海东街道平安大街绿色时代(东区),鲅鱼圈区,营口市,122.137365,40.253524,台铃电动车,辽宁省
南八东路汉庭酒店西北50米南八东路122号楼,铁西区,沈阳市,123.375682,41.783900,台铃电动车(南八东路),辽宁省
天山路与珠江桥交叉口北50米路东,皇姑区,沈阳市,123.402771,41.813789,台铃,辽宁省
兴明街与建设路交叉口东150米,沈北新区,沈阳市,123.519006,41.942803,台铃电动车,辽宁省
解放路2段72-81号,古塔区,锦州市,121.125887,41.115936,台铃电动车,辽宁省
白山路19号楼附近,于洪区,沈阳市,123.406379,41.859343,台铃电动车,辽宁省
健康路西50米,振兴区,丹东市,124.344201,40.104032,台铃电动车,辽宁省
建设路20-2号,双塔区,朝阳市,120.444782,41.577313,台铃电动车,辽宁省
沈苏西路与浑河站街交叉口南150米,和平区,沈阳市,123.378431,41.730493,台铃电动车,辽宁省
后革街与土革线交叉口东50米,甘井子区,大连市,121.540026,39.009392,台铃电动车富强车行,辽宁省
新华大街24-10附近,连山区,葫芦岛市,120.847164,40.749748,台铃电动车,辽宁省
芳草路29-36号附近,沈北新区,沈阳市,123.601382,41.920846,台铃电动车(芳草路),辽宁省
丰荣街道医保中心左侧,普兰店区,大连市,121.973960,39.409958,台铃电动车,辽宁省
朝阳大街1段-83-3号,双塔区,朝阳市,120.461594,41.589315,台铃电动车,辽宁省
民族街28附近,阜新蒙古族自治县,阜新市,121.738363,42.056117,台铃电动车(民族街店),辽宁省
鞍蛤线与003县道交叉口西150米,辽阳县,辽阳市,122.916589,41.214591,台铃电动车,辽宁省
后四线与102国道交叉口北200米,兴城市,葫芦岛市,120.663708,40.564679,台铃电动车,辽宁省
熊岳河路118号附近,鲅鱼圈区,营口市,122.135242,40.175894,台铃电动车,辽宁省
新华街道迎宾大街世纪小区北(嘉隆苑南),庄河市,大连市,122.957920,39.705050,台铃电动车,辽宁省
益天龙电子商厦西南台铃电动车,兴隆台区,盘锦市,122.070553,41.127214,台铃电动车,辽宁省
文化街22号,银州区,铁岭市,123.849210,42.286870,台铃电动车,辽宁省
南三路与大宽街三段交叉口西北50米,瓦房店市,大连市,122.003479,39.620345,台铃电动车,辽宁省
东风路46-12号附近,站前区,营口市,122.278775,40.692333,台铃电动车,辽宁省
东大营街31号东方御景15门,沈河区,沈阳市,123.559180,41.839759,台铃电动车(东方御景店),辽宁省
尹家街道锡伯大街尹家小学东北,沈北新区,沈阳市,123.364826,42.022046,台铃电动车(尹家乡人民政府西北),辽宁省
红菱中心街西50米,苏家屯区,沈阳市,123.298788,41.550336,台铃电动车,辽宁省
盖州路与长征大街交叉口西100米路北,盖州市,营口市,122.354447,40.402351,台铃电动车,辽宁省
兴海中街北50米,兴城市,葫芦岛市,120.765668,40.613906,台铃,辽宁省
新昌路38号附近,清河门区,阜新市,121.427956,41.782550,台铃电动车,辽宁省
沙河大街海韵佳苑附近(海韵风情附近),鲅鱼圈区,营口市,122.184520,40.336470,台铃电动车(望海店),辽宁省
繁荣北街1-5号附近,台安县,鞍山市,122.430677,41.388759,台铃电动车,辽宁省
燕都大街与竹林路交叉口东150米附近,龙城区,朝阳市,120.410277,41.583750,台铃电动车,辽宁省
中心街301号,康平县,沈阳市,123.353282,42.746344,台铃电动车(文化路),辽宁省
红董线,东港市,丹东市,123.469148,39.954705,台铃电动车,辽宁省
春明街与秋盛西路交叉口东50米,苏家屯区,沈阳市,123.610466,41.537851,台铃电动车,辽宁省
兴工路14号,建平县,朝阳市,119.640327,41.404553,台铃电动车(建平总经销),辽宁省
中街路1-s26号,海城市,鞍山市,122.751019,40.845839,台铃电动车,辽宁省
农村信用社对面,法库县,沈阳市,123.032166,42.358143,台铃电动车(秀水河子专卖店),辽宁省
西丰镇大通街盐业小区东门对过,西丰县,铁岭市,124.724998,42.732638,台铃电动车,辽宁省
桓仁镇广播局对面,桓仁满族自治县,本溪市,125.360924,41.272137,台铃电动车,辽宁省
北三家子街道华朔通讯,康平县,沈阳市,123.536906,42.932137,台铃电动车(山东屯台铃专卖店),辽宁省
东四管理区,海城市,鞍山市,122.631205,40.904968,台铃电动车,辽宁省
昌盛路实验小学对过,昌图县,铁岭市,124.106894,42.776916,台铃电动车(昌盛路店),辽宁省
303省道南50米,康平县,沈阳市,123.164159,42.770163,台铃电动车,辽宁省
文化路与211省道交叉口北50米,阜新蒙古族自治县,阜新市,122.313105,42.212862,台铃电动车(泡子专卖店),辽宁省
新华大街105附近,龙港区,葫芦岛市,120.815531,40.724094,老和台台铃电动车,辽宁省
东平湖街红旗台世代书香340-29门,于洪区,沈阳市,123.293904,41.839488,台铃电动车行,辽宁省
南关街与府安路交叉口西南150米,桓仁满族自治县,本溪市,125.353806,41.260013,台铃云电动车,辽宁省
民主街道枫杨路105号11-1门,苏家屯区,沈阳市,123.332442,41.658979,台铃·云电动车,辽宁省
辽河大街169附近,新民市,沈阳市,122.819094,42.006730,台铃电动车鹏圣摩托车,辽宁省
正义路,沈北新区,沈阳市,123.406658,41.919910,台铃电动车,辽宁省
新邱大街337-2-9门,新邱区,阜新市,121.788577,42.085012,邦德台铃电动车,辽宁省
新华路254号,白塔区,辽阳市,123.185976,41.270482,辽阳台铃电动车专卖店,辽宁省
新春街道大马路1050号,南关区,长春市,125.340513,43.893399,台铃电动车(吉塔公寓北),吉林省
向阳路与阜丰大街交叉口东南100米,朝阳区,长春市,125.167613,43.777744,台铃云电动车(阜丰大街),吉林省
建设街与文化路交叉口西北150米,集安市,通化市,126.186996,41.129329,台铃电动车,吉林省
嫩江北街与嫩江南街交叉口东北50米,大安市,白城市,124.297945,45.507340,台铃电动车,吉林省
清源路西150米,公主岭市,四平市,125.081203,43.719193,台铃电动车,吉林省
友谊胡同166号,珲春市,延边朝鲜族自治州,130.355067,42.863016,台铃电动车,吉林省
合心镇派出所南面绿园经开医院附近,绿园区,长春市,125.151596,43.948388,台铃电动车,吉林省
丹青街与安定大路交叉口西50米,乾安县,松原市,124.029763,44.999258,台铃电动车,吉林省
大兴街与裕华胡同交叉口西100米,桦甸市,吉林市,126.734242,42.967671,台铃电动车,吉林省
沃皮大路1556号附近,宽城区,长春市,125.533739,44.226664,台铃电动车,吉林省
060县道与105省道交叉口北200米,公主岭市,四平市,124.605754,43.798508,台铃电动车,吉林省
长吉公路劝农段665号,二道区,长春市,125.650044,43.819132,台铃电动车,吉林省
文明路附近,东丰县,辽源市,125.485948,43.181927,台铃电动车专卖,吉林省
开拓路与004县道交叉口南100米,农安县,长春市,125.270478,44.262773,台铃电动车,吉林省
辽河大路76号附近,龙山区,辽源市,125.138242,42.899754,台铃电动车,吉林省
米沙子镇街西中通快递旁,宽城区,长春市,125.469890,44.141728,深圳台铃电动车(米沙子专卖店),吉林省
乐山镇华中路富贵嘉缘附近,朝阳区,长春市,125.299005,43.573374,台铃电动车(富贵嘉缘店),吉林省
亨帝宾馆东(佳鑫商业大厦东南),梨树县,四平市,124.244834,43.664512,台铃电动车,吉林省
212省道西50米,榆树市,长春市,126.478858,44.605440,台铃电动车(大坡旗舰店),吉林省
023县道北50米,九台区,长春市,126.344658,44.368515,台铃电动车,吉林省
096乡道北50米,通榆县,白城市,123.047722,44.980350,台铃电动车(096乡道),吉林省
龙飞路伏龙泉镇中心小学西北100米,农安县,长春市,124.641383,44.396641,台铃电动车,吉林省
纪家镇鸡鸣山路中国邮政储蓄银行西南,九台区,长春市,125.626442,44.155209,台铃电动车,吉林省
金牛大街962-1050号附近,九台区,长春市,125.651303,43.954452,台铃电动车(东湖镇政务服务中心东南),吉林省
泗河大路东50米,榆树市,长春市,126.891966,44.977436,台铃电动车,吉林省
0025县道与023县道交叉口东南100米,九台区,长春市,126.199691,44.281101,台铃电动车,吉林省
天池大街与文化路交叉口东南150米,安图县,延边朝鲜族自治州,128.129769,42.434806,台铃电动车爱玛电动车(长白山池北区专卖),吉林省
人民路1196号附近,磐石市,吉林市,126.055071,42.945626,台铃电动车,吉林省
曙光大街433号附近,九台区,长春市,125.834667,44.153049,大运直销店淮海车辆五县总店前三名台铃电动车,吉林省
西三条路160号,西安区,牡丹江市,129.610017,44.578429,台铃电动车,黑龙江省
文昌大街275号,双城区,哈尔滨市,126.323842,45.369491,台铃电动车(双城店),黑龙江省
普阳农场,绥滨县,鹤岗市,131.363943,47.274266,台铃电动车,黑龙江省
环宇小区橡胶厂1号楼,富拉尔基区,齐齐哈尔市,123.646223,47.207008,台铃电动车(新华路店),黑龙江省
建国街道汇鑫源西门,东风区,佳木斯市,130.407561,46.820400,台铃电动车(建国街店),黑龙江省
中央大街497号,富锦市,佳木斯市,132.029876,47.247781,台铃电动车(时代奥城北),黑龙江省
朝阳路与铁民一巷交叉口西北50米,加格达奇区,大兴安岭地区,124.146168,50.423278,台铃电动车,黑龙江省
延寿镇东公安街92号,延寿县,哈尔滨市,128.338260,45.456174,台铃电动车,黑龙江省
新华街电业小区(富裕商城南150米),富裕县,齐齐哈尔市,124.467045,47.794010,台铃电动车富裕总代理,黑龙江省
二道街,绥滨县,鹤岗市,131.867664,47.291283,台铃电动车(振兴大街店),黑龙江省
明水镇西街自来水公司楼下,明水县,绥化市,125.903770,47.186474,台铃电动车,黑龙江省
前进大街与康安路交叉口东100米,同江市,佳木斯市,133.119175,47.547356,台铃电动车(旗舰店),黑龙江省
广益街6号,鸡冠区,鸡西市,130.991414,45.304501,台铃诚信电动车,黑龙江省
中央大街346附近,富锦市,佳木斯市,132.630722,47.254156,台铃电动车,黑龙江省
兴安路西50米,兴安区,鹤岗市,130.236550,47.249260,台铃电动车,黑龙江省
中心路与学府街交叉口南150米,巴彦县,哈尔滨市,127.109070,46.442589,台铃电动车,黑龙江省
中直北路与祥和东街交叉口东南50米,北林区,绥化市,126.988261,46.641293,台铃,黑龙江省
建设路与通江街交叉口东50米,同江市,佳木斯市,132.512054,47.652130,台铃电动车,黑龙江省
东升路与宏源街交叉口西50米路南,东宁市,牡丹江市,131.129135,44.062140,台铃电动车(东宁边贸大厦店),黑龙江省
中心大街与友谊路交叉口东50米,富裕县,齐齐哈尔市,124.470621,47.778097,台铃电动车(台铃一分店),黑龙江省
中兴路47号,明水县,绥化市,125.902278,47.181781,台铃电动车,黑龙江省
巨红公路与201省道交叉口西100米,林甸县,大庆市,124.690500,47.035278,台铃电动车,黑龙江省
敬夫大街与繁荣路交叉口西150米,桦川县,佳木斯市,130.725889,47.021564,台铃电动车,黑龙江省
长汀镇第二小学对面,海林市,牡丹江市,128.926540,44.469982,台铃电动车,黑龙江省
东五路与正阳大街交叉口南100米,铁力市,伊春市,128.038142,46.984746,台铃电动车,黑龙江省
新兴路288号附近,桦南县,佳木斯市,130.581199,46.242340,台铃电动车(铁东街道办事处西),黑龙江省
建设路与镇府街交叉口南50米,龙江县,齐齐哈尔市,123.185737,47.330840,台铃电动车(建设路),黑龙江省
华丰路与047县道交叉口西150米齐齐哈尔市规划局梅里斯达斡尔族区规划处附近,梅里斯达斡尔族区,齐齐哈尔市,123.758866,47.314681,台铃电动车(华丰路),黑龙江省
青冈镇北二道街创新一号楼,青冈县,绥化市,126.102841,46.688558,台铃电动车行,黑龙江省
振兴路与林业巷交叉口东北150米,汤原县,佳木斯市,129.913179,46.731513,台铃云电动车,黑龙江省
南三道街宏达小区楼下,望奎县,绥化市,126.483701,46.830052,台铃电动车行,黑龙江省
政府街与西三道街交叉口西100米,青冈县,绥化市,126.103544,46.688609,魏三车行,黑龙江省
人民街,拜泉县,齐齐哈尔市,126.087141,47.613539,台铃电动车,黑龙江省
三道街劳动小区十四号楼,杜尔伯特蒙古族自治县,大庆市,124.449327,46.863132,台铃电动车配件修理部,黑龙江省
芳华路850号,浦东新区,上海市,121.567018,31.196782,台铃电动车(芳华路),上海市
城丰路50号,浦东新区,上海市,121.689825,31.191157,台铃电动车(城丰路店),上海市
泗泾镇古楼公路642号,松江区,上海市,121.258630,31.105989,台铃电动车(古楼公路店),上海市
文宇路126号,松江区,上海市,121.186507,31.045539,台铃电动车,上海市
华漕镇纪翟路95号,闵行区,上海市,121.296334,31.206464,台铃电动车(纪翟路店),上海市
孙桥孙农路420号,浦东新区,上海市,121.625662,31.176013,台铃电动车(孙农路),上海市
桃浦镇银杏路82号,普陀区,上海市,121.346095,31.286878,台铃电动车(银杏路店),上海市
博兴路903号,浦东新区,上海市,121.592153,31.265673,台铃电动车,上海市
梅陇镇春申路1898号,闵行区,上海市,121.422402,31.112260,台铃电动车,上海市
浦东南码头临沂路7号,浦东新区,上海市,121.517054,31.200379,台铃电动车(临沂路店),上海市
盘古路973号(铁力路口),宝山区,上海市,121.462341,31.401353,台铃电动车,上海市
永泰路1466号,浦东新区,上海市,121.532097,31.144124,台铃电动车(永泰路),上海市
德川路341-400号,浦东新区,上海市,121.669254,31.192684,台铃电动车(德川路店),上海市
昌里东路399号,浦东新区,上海市,121.512717,31.177735,台铃电动车,上海市
九亭大街1039号,松江区,上海市,121.315348,31.126111,台铃电动车(九亭大街),上海市
沪宜公路4566号,嘉定区,上海市,121.225011,31.368325,台铃电动车,上海市
石化学府路731号,金山区,上海市,121.321990,30.731702,台铃电动车(学府路店),上海市
曹安公路2118号嘉莲华国际商业广场步行街1层,嘉定区,上海市,121.343948,31.260334,台铃,上海市
曹路镇海鸣路74号,浦东新区,上海市,121.670975,31.283354,台铃电动车,上海市
梅岭北路1202号,普陀区,上海市,121.393432,31.242724,台铃电动车(梅岭北路店),上海市
龙茗路1389号小杨车行,闵行区,上海市,121.384263,31.145608,台铃电动车,上海市
季景北路738-740号,浦东新区,上海市,121.581539,31.346701,台铃云电动车(季景北路),上海市
叶榭镇思源路1-1号,松江区,上海市,121.313648,30.947539,台铃电动车(思源公路店),上海市
西环路与闸航路交叉口西北100米,闵行区,上海市,121.529025,31.019987,台铃电动车(浦江镇闸航路2826号店),上海市
卧龙路与海波路交叉口东50米,嘉定区,上海市,121.311869,31.269300,台铃电动车,上海市
新桥镇新庙三路1032号,松江区,上海市,121.286306,31.059859,台铃电动车,上海市
颛桥镇颛建路8号,闵行区,上海市,121.399324,31.070530,台铃电动车(颛建路店),上海市
剑河路与清池路交叉口东南50米,长宁区,上海市,121.368541,31.221195,台铃电动车,上海市
徐泾镇诸光路光联一路71号,青浦区,上海市,121.315786,31.165888,台铃电动车(光联一路店),上海市
谷阳北路255-6号,松江区,上海市,121.236138,31.012946,台铃电动车(谷阳北路店),上海市
龙华机场丰谷路180弄3号,徐汇区,上海市,121.453693,31.168417,台铃电动车,上海市
高东镇光明路789号,浦东新区,上海市,121.625322,31.325827,台铃电动车(兴盛车行店),上海市
长临路1089号附近,宝山区,上海市,121.434348,31.327194,台铃电动车,上海市
南桥镇光明镇光明路420号,奉贤区,上海市,121.511346,30.905644,台铃电动车(光明路店),上海市
灵山路1868号,浦东新区,上海市,121.572386,31.242235,台铃电动车(灵山路店),上海市
荣乐西路622号,松江区,上海市,121.200691,31.016463,台铃电动车,上海市
吴泾镇广南路321号,闵行区,上海市,121.467880,31.037618,台铃电动车(广南路),上海市
赵巷镇赵华路(522号农夫果园水果大卖场后),青浦区,上海市,121.195774,31.151043,台铃电动车(赵重公路),上海市
新北街420-1号-临附近,松江区,上海市,121.313134,31.064973,台铃电动车(松江店),上海市
凤星路1262号,青浦区,上海市,121.230659,31.202996,台铃电动车(凤星路店),上海市
罗店镇月罗公路2380号大润发超市一楼,宝山区,上海市,121.350361,31.409775,台铃电动车,上海市
七宝镇沪松公路465号,闵行区,上海市,121.343704,31.151789,台铃电动车,上海市
北青公路9551号附近,青浦区,上海市,121.126589,31.186640,台铃(德力西生活区西北),上海市
沪南公路556号附近,浦东新区,上海市,121.761185,31.041507,台铃,上海市
中泽村中泽路126号(中泽农贸市场南面),青浦区,上海市,121.168767,31.139537,台铃电动车(中泽路),上海市
泰和西路3499弄47-1号-临附近,宝山区,上海市,121.402615,31.350094,台铃电动车,上海市
兴仓路36-38号,松江区,上海市,121.208407,31.006921,台铃电动车(兴仓路),上海市
富航路54号,浦东新区,上海市,121.597289,31.031120,台铃电动车,上海市
南桥镇解放西路484号,奉贤区,上海市,121.443305,30.910759,台铃电动车(解放西路),上海市
松卫北路1280弄20号,松江区,上海市,121.263432,31.009558,台铃电动车(中山东路),上海市
三林镇林恒路1163号,浦东新区,上海市,121.522035,31.125038,台铃电动车(林礼路),上海市
曹路镇民春路498号,浦东新区,上海市,121.667095,31.275283,台铃电动车,上海市
大团镇下塘107号(近三宣路)西南方向123米,浦东新区,上海市,121.752336,30.996050,台铃电动车,上海市
荣乐中路382号附近,松江区,上海市,121.223316,31.017032,台铃电动车,上海市
宣中支路与宣中路交叉口西150米(欣兰苑南),浦东新区,上海市,121.703030,31.022018,台铃电动车,上海市
奉浦社区沪杭公路1083号,奉贤区,上海市,121.444085,30.959387,台铃(弯弯新村西南),上海市
东川公路7258号,浦东新区,上海市,121.723771,31.223536,台铃电动车(浦东旗舰店),上海市
奉城镇头桥镇新奉公路4691号,奉贤区,上海市,121.646423,30.945615,台铃电动车(头桥东路),上海市
南桥镇南奉公路9300号,奉贤区,上海市,121.466666,30.912865,台铃云电动车(古华南区953号楼西),上海市
罗泾镇陈川路175-177号,宝山区,上海市,121.340446,31.479995,台铃电动车,上海市
奉城镇南奉公路399号,奉贤区,上海市,121.630520,30.912594,台铃电动车,上海市
彭镇彭平东路1088弄13幢1号楼,浦东新区,上海市,121.796499,30.907058,台铃电动车(彭镇店),上海市
老港镇中港鑫旺路29号,浦东新区,上海市,121.837409,31.037960,台铃电动车,上海市
外高桥花山路199号,浦东新区,上海市,121.566522,31.345514,台铃电动车(花山路专卖店),上海市
高桥镇江东路1612号,浦东新区,上海市,121.548168,31.363719,台铃电动车(江东路),上海市
杨东路与顾曹公路交叉口西北50米,浦东新区,上海市,121.664306,31.292532,台铃电动车(杨东路),上海市
一新街140号,奉贤区,上海市,121.396775,30.906884,台铃电动车(一新街店),上海市
新场镇申江南路5172号,浦东新区,上海市,121.645898,31.071156,台铃电动车,上海市
工业路与金钱公路交叉口北50米,奉贤区,上海市,121.498639,30.991457,台铃电动车,上海市
广玉路与珠港街交叉口东50米,金山区,上海市,121.344241,30.847064,台铃电动车(珠港街),上海市
平庄东路与彭平公路交叉口西南50米,奉贤区,上海市,121.762863,30.907648,台铃电动车(天和园西北),上海市
张堰镇金张公路148号,金山区,上海市,121.288800,30.807230,台铃电动车,上海市
亭枫公路1795号附近,金山区,上海市,121.246424,30.894213,台铃电动车(松前公路),上海市
朱家角镇沈巷沈砖公路678号,青浦区,上海市,121.059759,31.076399,台铃电动车(康园路店),上海市
沪杭公路389号,奉贤区,上海市,121.434244,30.985751,台铃电动车(沪杭公路辅路),上海市
川南奉公路9547号附近,奉贤区,上海市,121.656039,30.914811,台铃电动车(奉城东街),上海市
奉柘公路3215号,奉贤区,上海市,121.542107,30.868766,台铃电动车(文新路店),上海市
下沙新街62号附近,浦东新区,上海市,121.592830,31.050486,台铃,上海市
小白路1415号附近,浦东新区,上海市,121.717193,31.237368,台铃电动车(小白路店),上海市
安中路15-17号附近,奉贤区,上海市,121.401274,30.957988,台铃电动车(汇南小区店),上海市
金汇镇泰青公路58号,奉贤区,上海市,121.564085,30.986732,台铃,上海市
平原街928号附近,松江区,上海市,121.120387,31.030158,台铃电动车,上海市
潮阳港公路与辕门路交叉口西50米路北,松江区,上海市,121.282199,30.929942,台铃电动车(辕门路),上海市
新宅路28号附近,松江区,上海市,121.142523,31.070285,台铃电动车,上海市
四团镇鹏程街75号,奉贤区,上海市,121.722776,30.937736,台铃电动车(鹏程街店),上海市
白石公路与纪鹤公路交叉口东南50米,青浦区,上海市,121.139746,31.246962,台铃电动车,上海市
漕泾镇中一西路543号,金山区,上海市,121.405729,30.796238,台铃,上海市
柘林镇乐道教育沪杭公路3269号联业路路口,奉贤区,上海市,121.472742,30.833315,台铃电动车,上海市
三鲁路长清路跨线桥与长清路交叉口西50米,浦东新区,上海市,121.500058,31.135231,台铃电动车大卖场,上海市
高东镇高宝路385号387号389号,浦东新区,上海市,121.623891,31.290309,台铃电动车专卖店(高宝路店),上海市
康定东路41号,静安区,上海市,121.456377,31.237343,通达车行台铃电动车,上海市
东港公路与大沙路交叉口西北50米,浦东新区,上海市,121.812253,31.092869,台玲电动车专卖,上海市
共江路206-2号附近,宝山区,上海市,121.456380,31.330999,台铃电动车体验馆,上海市
周浦镇周泰路96号,浦东新区,上海市,121.603019,31.099238,台玲电动车,上海市
三林路250号,浦东新区,上海市,121.498168,31.137968,台铃电动车大卖场,上海市
建韵路与横桥路交叉口东北50米,浦东新区,上海市,121.566795,31.106593,美可达电动车&台铃电动车,上海市
枫泾镇枫阳路63号,金山区,上海市,121.026228,30.892261,台铃电动车行,上海市
彭平东路1038号附近,浦东新区,上海市,121.800512,30.906965,新大洲电动车(彭平东路店),上海市
朱枫公路与枫泾·枫阳路交叉口西南100米,金山区,上海市,121.012180,30.894802,老兴车行,上海市
康定东路69号,静安区,上海市,121.456379,31.237400,通达车行(世德里西),上海市
古浪路142号,普陀区,上海市,121.398071,31.281865,台铃电动车,上海市
东林街33弄5号附近,金山区,上海市,121.169054,30.893538,台铃电动车,上海市
沪光路与都庄路交叉口北150米,闵行区,上海市,121.417860,31.081041,台铃云电动车,上海市
"汾西路148-150号(汾西路桥,近江杨南路)",静安区,上海市,121.465331,31.313623,永久台铃电动车(际流公司),上海市
小木桥路379号,徐汇区,上海市,121.460288,31.194284,台铃电动车(装修中),上海市
上元大街620号,江宁区,南京市,118.850718,31.955281,台铃,江苏省
建国东路405号三印车行,云龙区,徐州市,117.192207,34.257820,台铃,江苏省
沙湾北路1001号,广陵区,扬州市,119.497518,32.422578,台铃,江苏省
太湖新城镇横扇镇菀坪创业路9号,吴江区,苏州市,120.604648,31.064629,台铃,江苏省
范公堤南路57号附近,如东县,南通市,121.198443,32.314074,台铃,江苏省
孩儿巷南路60号,崇川区,南通市,120.852495,32.013490,台铃,江苏省
人民西路兴海宾馆东66米,兴化市,泰州市,120.131118,32.723703,台铃,江苏省
长盛路20号附近,常熟市,苏州市,120.653581,31.528215,台铃,江苏省
永进路与120村道交叉口西100米,张家港市,苏州市,120.699146,31.805756,台铃,江苏省
海安镇丹凤路46号,海安市,南通市,120.451340,32.560194,台铃,江苏省
兴隆路与曙光路交叉口西150米,广陵区,扬州市,119.537420,32.372706,台铃,江苏省
夹河街东50米,姜堰区,泰州市,119.915505,32.574957,台铃,江苏省
天王镇天鹅路天王中心小学西南150米,句容市,镇江市,119.207700,31.748160,台铃,江苏省
黄墟村冷遹路113号,丹徒区,镇江市,119.622594,32.091539,台铃,江苏省
兴业街38号附近,溧阳市,常州市,119.280984,31.317516,台铃,江苏省
204县道附近,响水县,盐城市,119.686924,34.263087,台铃,江苏省
后白镇302县道中国农业银行西南,句容市,镇江市,119.189166,31.804848,台铃,江苏省
吴桥镇杨南路邮政局往北100米,江都区,扬州市,119.757121,32.429782,台铃,江苏省
朝阳路与正阳路交叉口西100米,大丰区,盐城市,120.575440,33.048164,台铃,江苏省
方大线,大丰区,盐城市,120.509608,32.952699,台铃,江苏省
古山河小区A区1011,宿城区,宿迁市,118.405870,33.702207,台铃,江苏省
人民北路与射阜线交叉口东50米,阜宁县,盐城市,119.890746,33.677966,台铃,江苏省
花港路轩城足浴东50米,吴江区,苏州市,120.646912,31.206200,台铃(花港路店),江苏省
周市镇青阳路与萧林东路路口向东80米,昆山市,苏州市,120.995405,31.403628,台铃(萧林东路),江苏省
中华路小学对面小杨家巷17号,润州区,镇江市,119.441447,32.211669,台铃(东野维修中心),江苏省
伊山镇向阳大桥北首下86-8号,灌云县,连云港市,119.259690,34.304358,台铃(向阳路),江苏省
通湖路119-6号,高邮市,扬州市,119.438691,32.787812,台铃(佳禾路),江苏省
334省道北50米,如东县,南通市,120.820500,32.351199,台铃(富士达电动车),江苏省
文化路与春晖路交叉口西北50米,溧阳市,常州市,119.329537,31.444077,台铃(春晖路店),江苏省
东盛路39栋,锡山区,无锡市,120.490723,31.592061,台铃电动车,江苏省
齐门路49-51号,姑苏区,苏州市,120.626431,31.324163,台铃电动车(齐门路店),江苏省
广建路10号,吴中区,苏州市,120.630841,31.249157,台铃电动车,江苏省
吴中东路103号,吴中区,苏州市,120.636848,31.272253,台铃电动车(吴中东路),江苏省
勤学路27-11号附近,梁溪区,无锡市,120.302061,31.568398,台铃电动车,江苏省
三条巷小区27号,秦淮区,南京市,118.800155,32.034989,台铃电动车,江苏省
越湖路168号香雪海购物中心F1,吴中区,苏州市,120.616111,31.231772,台铃电动车,江苏省
新市路93号,姑苏区,苏州市,120.621867,31.291594,台铃电动车(新市路),江苏省
金港镇长江中路141号,张家港市,苏州市,120.425941,31.955980,台铃电动车,江苏省
长虹路与南湖东路交叉口长虹大市场北门,建邺区,南京市,118.766535,32.026436,台铃电动车(南湖东路),江苏省
陆步桥街西2号附近,姑苏区,苏州市,120.542410,31.362700,台铃电动车,江苏省
青年北路16号附近,海陵区,泰州市,119.913363,32.484873,台铃电动车,江苏省
萨家湾23-104号,鼓楼区,南京市,118.760513,32.083249,台铃电动车,江苏省
大庆中路156号,亭湖区,盐城市,120.131867,33.369016,台铃电动车,江苏省
工农北路与矿山路交叉口东100米,泉山区,徐州市,117.151047,34.265311,台铃电动车,江苏省
建国东路与民主南路交叉口南100米,云龙区,徐州市,117.197422,34.257799,台铃电动车,江苏省
南浦路与江山路交叉口北100米,浦口区,南京市,118.737904,32.129809,台铃电动车,江苏省
梁溪区,梁溪区,无锡市,120.305538,31.619048,台铃电动车,江苏省
建国东路39-3号,云龙区,徐州市,117.189246,34.257388,台铃电动车,江苏省
甪直风景区东方大道优乐幼稚园旁,吴中区,苏州市,120.838996,31.264737,台铃电动车,江苏省
工农路432号北50米,崇川区,南通市,120.880557,32.028751,台铃电动车,江苏省
开城路79号附近,江宁区,南京市,118.926969,32.052034,台铃电动车,江苏省
幕府西路88-6附近,鼓楼区,南京市,118.770818,32.105986,台铃电动车,江苏省
龙栖路406号附近,新北区,常州市,119.986157,31.846308,台铃电动车,江苏省
水澄路龙塘家园283-9,梁溪区,无锡市,120.279333,31.626397,台铃电动车,江苏省
公园东巷与青年路交叉口西50米,海州区,连云港市,119.176463,34.597843,台铃电动车,江苏省
新华西路盘金华府一号门,浦口区,南京市,118.733848,32.203148,台铃电动车,江苏省
东山镇洞庭路20号附近,吴中区,苏州市,120.413961,31.081214,台铃电动车,江苏省
香缇湾花园9-3号,天宁区,常州市,119.963768,31.798674,台铃电动车,江苏省
上海路84附近,清江浦区,淮安市,119.010333,33.595114,台铃电动车,江苏省
宿黄运路18号正东方向42米,宿城区,宿迁市,118.302810,33.951307,台铃电动车,江苏省
开元大道与008乡道交叉口西50米,海安市,南通市,120.426441,32.531465,台铃电动车,江苏省
宜山路与黄河东路交叉口东150米锦珑湾24号商铺,新北区,常州市,120.002148,31.832875,台铃电动车,江苏省
新堂路111号附近,天宁区,常州市,119.981710,31.790282,台铃电动车,江苏省
凤凰街道塘湾实验小学向东500米帆布厂对面,海陵区,泰州市,119.956293,32.443362,台铃电动车,江苏省
开放大道115号附近,亭湖区,盐城市,120.143555,33.404375,台铃电动车,江苏省
关河西路173号附近,钟楼区,常州市,119.935474,31.794018,台铃电动车,江苏省
怀德中路290-4号附近,钟楼区,常州市,119.910973,31.773776,台铃电动车,江苏省
小米山路与焦山路交叉口西北150米,京口区,镇江市,119.481602,32.206069,台铃电动车,江苏省
淮城镇楚州大道139-3号,淮安区,淮安市,119.155701,33.505399,台铃电动车,江苏省
丽华北路与竹林东路交叉口东50米,天宁区,常州市,119.987878,31.775178,台铃电动车,江苏省
陆桥陆东大街17号,江阴市,无锡市,120.452786,31.790166,台铃电动车,江苏省
汾湖国道路与浦南路交叉口东南50米,吴江区,苏州市,120.841902,31.015433,台铃电动车(汾湖国道路店),江苏省
虞山镇花园浜路65-1号,常熟市,苏州市,120.746050,31.635615,台铃电动车(花园浜路店),江苏省
开发区瑞兴路288号,崇川区,南通市,120.941276,31.908226,台铃电动车,江苏省
洋河镇富康路104号富康路派出所对面,宿城区,宿迁市,118.282993,33.947907,台铃电动车,江苏省
三海线东50米,海门市,南通市,121.091078,31.971593,台铃电动车,江苏省
新兴西巷与406乡道交叉口东北200米,亭湖区,盐城市,120.082950,33.446793,台铃电动车,江苏省
334省道(环镇农经楼东南),如东县,南通市,121.121490,32.314162,深圳台铃(环镇农经楼东南),江苏省
东坎街道向阳大道89号,滨海县,盐城市,119.839478,33.993586,台铃电动车,江苏省
杨舍镇乘航西路中国电信对面,张家港市,苏州市,120.579946,31.841762,台铃电动车(乘航西路),江苏省
汉中门大街298号,鼓楼区,南京市,118.740748,32.039934,台铃电动车(汉中门大街店),江苏省
郭墅镇(澳洋工业园),阜宁县,盐城市,119.709327,33.818754,台铃电动车(郭墅专卖店),江苏省
常胜南路43号,太仓市,苏州市,121.149802,31.455477,台铃电动车,江苏省
苏州工业园区工业园区东环路1500号大润发F1,苏州工业园区,苏州市,120.649300,31.318733,台铃电动车,江苏省
程新路与编钟路交叉口西南50米,六合区,南京市,118.729464,32.383381,台铃电动车(程桥专卖店),江苏省
太湖新城镇鲈乡北路289号,吴江区,苏州市,120.639393,31.165216,台铃电动车,江苏省
崇川路27-1-3号附近,崇川区,南通市,120.879615,31.972745,台铃电动车,江苏省
光明路1069号,昆山市,苏州市,121.093471,31.298517,台铃电动车,江苏省
栈泾路界新园北50米,昆山市,苏州市,121.090427,31.379330,台铃车行,江苏省
梅李赵市小学,常熟市,苏州市,120.845753,31.740206,台铃电动车,江苏省
青祁路308号,滨湖区,无锡市,120.269473,31.551255,台铃电动车(青祁路店),江苏省
东环路东50米,丰县,徐州市,116.649501,34.699872,台铃电动车,江苏省
梁溪区盛岸路172号,梁溪区,无锡市,120.270016,31.592762,台铃电动车(盛岸路店),江苏省
胜利村小二房一组塔东路国家电网东,泰兴市,泰州市,120.245810,32.248536,台铃电动车,江苏省
东风路11号,沛县,徐州市,116.935669,34.733487,台铃电动车,江苏省
光华路四方新村,秦淮区,南京市,118.839484,32.016997,台铃电动车,江苏省
大白路68号杉童玩具斜对面,大丰区,盐城市,120.309135,33.071293,台铃电动车,江苏省
三淞路883号附近,吴江区,苏州市,120.666632,31.183464,台铃电动车,江苏省
建设路187号,兴化市,泰州市,119.844136,32.938257,台铃电动车(建设路店),江苏省
新吴区新安镇南湖园路1号,新吴区,无锡市,120.389929,31.483935,台铃电动车,江苏省
万安北路300附近,江宁区,南京市,118.877574,31.967763,台铃电动车,江苏省
甪直镇凌港村甪胜路,吴中区,苏州市,120.821126,31.287085,台铃电动车,江苏省
龙群路246号,六合区,南京市,118.810152,32.322713,台铃电动车,江苏省
中凉二村20栋十号,天宁区,常州市,119.945971,31.746375,台铃电动车,江苏省
寰庆路1230号附近,昆山市,苏州市,120.940470,31.412317,台铃电动车,江苏省
经济技术开发区杨中路城南花苑568号,吴江区,苏州市,120.657244,31.116472,台铃电动车,江苏省
台港路5-11附近,溧阳市,常州市,119.479443,31.412192,台铃电动车(溧阳华新配件总经销),江苏省
东方广场路与人民东路交叉口东100米,沭阳县,宿迁市,118.784521,34.126282,台铃电动车,江苏省
阳澄湖中路108号附近,相城区,苏州市,120.630166,31.363852,台铃电动车,江苏省
解放西路170号附近,丰县,徐州市,116.604616,34.699153,台铃电动车,江苏省
新城镇,仪征市,扬州市,119.237793,32.285141,台铃电动车,江苏省
万象路52号,崇川区,南通市,120.853219,32.017376,台铃电动车,江苏省
鲍九路中段31号,海陵区,泰州市,119.888672,32.448267,台铃电动车,江苏省
云青路与曙明路交叉口西北100米,天宁区,常州市,120.010923,31.769899,台铃电动车,江苏省
锡澄路655-7号附近,江阴市,无锡市,120.247849,31.854455,台铃电动车,江苏省
春惠路438号附近,惠山区,无锡市,120.350894,31.675793,台铃电动车,江苏省
204县道东50米,铜山区,徐州市,117.261652,34.149483,台铃电动车,江苏省
中山北路1535号附近,吴江区,苏州市,120.648289,31.187334,台铃电动车,江苏省
明澄路298号附近,昆山市,苏州市,120.884055,31.383750,台铃电动车,江苏省
桂五南路83号,盱眙县,淮安市,118.519698,32.863708,台铃电动车,江苏省
义乌商贸城七街10553号,宿城区,宿迁市,118.279891,33.936660,台铃电动车,江苏省
无,吴江区,苏州市,120.669025,31.182864,台铃电动车,江苏省
朱明桥5号楼台铃电动车,武进区,常州市,119.933417,31.626766,台铃电动车,江苏省
金华路98附近,常熟市,苏州市,120.822319,31.617236,台铃电动车,江苏省
民主路,邳州市,徐州市,117.780240,34.298328,台铃电动车,江苏省
平陵西路184号附近,溧阳市,常州市,119.468265,31.428274,台铃电动车,江苏省
东环一路8号7附近,金坛区,常州市,119.581788,31.747180,台铃电动车,江苏省
宝兴路,盐都区,盐城市,120.102978,33.346023,台铃电动车,江苏省
无,六合区,南京市,118.909121,32.223840,台铃电动车,江苏省
常福路1174附近,常熟市,苏州市,120.745348,31.705248,台铃电动车,江苏省
G328(振兴路),海陵区,泰州市,119.823128,32.483023,台铃电动车,江苏省
迎宾东路85号附近,江阴市,无锡市,120.046677,31.870963,台铃电动车,江苏省
河滨东路9号附近,江阴市,无锡市,120.221742,31.751229,台铃电动车,江苏省
城关路,赣榆区,连云港市,119.090592,34.888028,台铃电动车,江苏省
无,淮阴区,淮安市,119.033657,33.687975,台铃电动车,江苏省
无,昆山市,苏州市,121.030311,31.407514,台铃电动车,江苏省
无,启东市,南通市,121.786306,31.905806,台铃电动车,江苏省
邮堂庙路116号附近,金坛区,常州市,119.558457,31.754876,台铃电动车,江苏省
榆河路132号,亭湖区,盐城市,120.157849,33.399565,台铃电动车,江苏省
人民中路343号附近,姜堰区,泰州市,120.151286,32.497351,台铃电动车,江苏省
吴陵路泰九路交叉口西北门面房5-1,海陵区,泰州市,119.888492,32.478962,台铃电动车,江苏省
镇南西路23附近,新北区,常州市,119.827131,31.945449,台铃电动车,江苏省
西街30-5号附近,江阴市,无锡市,120.348923,31.917024,台铃电动车,江苏省
东方中路167附近,吴江区,苏州市,120.664116,30.906775,台铃电动车,江苏省
青年北路95号附近,海陵区,泰州市,119.912522,32.491167,台铃电动车,江苏省
振兴路,东海县,连云港市,118.763185,34.386235,台铃电动车,江苏省
长寿周南花苑长和街28号,江阴市,无锡市,120.391078,31.809957,台铃电动车,江苏省
洋河中路,泗阳县,宿迁市,118.674256,33.721011,台铃电动车,江苏省
学府路74附近,京口区,镇江市,119.486931,32.193855,台铃电动车,江苏省
东洲路与梨园路交叉口西北50米,海门市,南通市,121.174105,31.891943,台铃电动车,江苏省
塘泾浜路27号附近,江阴市,无锡市,120.226982,31.802528,台铃电动车,江苏省
中心路二华快捷宾馆旁,海州区,连云港市,119.119589,34.641513,台铃电动车,江苏省
常熟街与温州路交叉口东100米,江宁区,南京市,118.878186,31.937794,台铃电动车,江苏省
人民北路与建凌中路交叉口东100米,泗阳县,宿迁市,118.685581,33.725408,台铃电动车,江苏省
花溪路5号附近,溧水区,南京市,118.888474,31.565838,台铃电动车,江苏省
美丰路214附近,昆山市,苏州市,120.907911,31.342636,台铃电动车,江苏省
双楼路西50米,海安市,南通市,120.352875,32.528678,台铃电动车,江苏省
中兴路东150米,泰兴市,泰州市,120.022977,32.018289,台铃电动车,江苏省
华山北路东50米,新北区,常州市,119.972661,31.868543,台铃电动车,江苏省
公园路与花厅路交叉口南100米,新沂市,徐州市,118.347237,34.359621,台铃电动车,江苏省
李渔路20附近,如皋市,南通市,120.594737,32.389196,台铃电动车,江苏省
万寿路与新北路交叉口西南100米,如皋市,南通市,120.575775,32.409164,台铃电动车,江苏省
农药厂路与崔横南路交叉口西北50米,武进区,常州市,120.123879,31.722631,台铃电动车,江苏省
海晏镇农民街,通州区,南通市,121.288092,32.135311,台铃电动车,江苏省
市场路36号附近,如皋市,南通市,120.686804,32.139446,台铃电动车,江苏省
东湖北路25附近,溧水区,南京市,119.118390,31.703024,台铃电动车,江苏省
柘宁东路104附近,溧水区,南京市,118.924981,31.753468,台铃电动车,江苏省
金牛南路131号附近,溧水区,南京市,118.986271,31.604215,台铃电动车,江苏省
如港路西50米,如皋市,南通市,120.568248,32.332295,台铃电动车,江苏省
经四路272号附近,淮安区,淮安市,119.143156,33.541238,台铃电动车,江苏省
信陵路186号南50米,江宁区,南京市,118.861001,31.770681,台铃电动车,江苏省
青班线北50米,赣榆区,连云港市,118.947728,34.921333,台铃电动车,江苏省
人民路与镇北路交叉口东南150米,江都区,扬州市,119.710216,32.371820,台铃电动车,江苏省
008乡道与711乡道交叉口西北50米,如东县,南通市,120.855434,32.546645,台铃电动车,江苏省
人民路44号附近,如皋市,南通市,120.388923,32.255560,台铃电动车,江苏省
幸福路1号附近,宿城区,宿迁市,118.244074,33.812550,台铃电动车,江苏省
黄浩线与229省道交叉口东200米附近,泰兴市,泰州市,120.250030,32.254350,台铃电动车,江苏省
红旗路2号30北90米,常熟市,苏州市,120.694726,31.707096,台铃电动车,江苏省
新大街西50米,海州区,连云港市,119.232746,34.570014,台铃电动车,江苏省
众兴镇淮海中路原水电路大转盘向西100米,泗阳县,宿迁市,118.689002,33.712279,台铃电动车(泗阳店),江苏省
张浦镇(南港)望江路望江桥东侧,昆山市,苏州市,120.882487,31.274652,台铃电动车,江苏省
发茂路5号附近,淮安区,淮安市,119.221297,33.453726,台铃电动车,江苏省
胡埭镇人民西路58号,滨湖区,无锡市,120.116355,31.546005,台铃电动车,江苏省
酒家路373号附近,宿城区,宿迁市,118.381655,33.772523,台铃电动车,江苏省
菜北路与菜市街交叉口东100米,东海县,连云港市,118.766687,34.520717,台铃电动车,江苏省
新林路53号附近,阜宁县,盐城市,119.767393,33.778237,台铃电动车,江苏省
敬安镇红绿灯路西,沛县,徐州市,116.930598,34.492739,台铃电动车,江苏省
043乡道与237省道交叉口东50米,淮安区,淮安市,119.156357,33.466219,台铃电动车,江苏省
陈桥街道仁和锦居29号楼底楼附近,港闸区,南通市,120.796900,32.090882,台铃电动车,江苏省
君山路21-1号附近,江阴市,无锡市,120.262550,31.912257,台铃电动车(君山路),江苏省
云南线与猫山路交叉口西南100米,海州区,连云港市,119.275800,34.582587,台铃电动车,江苏省
渚镇路53号附近,虎丘区,苏州市,120.401329,31.334638,台铃电动车,江苏省
王集镇蚕桑路,睢宁县,徐州市,117.756800,33.993023,台铃电动车,江苏省
通安镇华通路3号,虎丘区,苏州市,120.463952,31.374755,台铃电动车,江苏省
陆家镇合丰和谊路宜家花园北门,昆山市,苏州市,121.004269,31.341980,台铃电动车,江苏省
合兴路靠近中国工商银行424号(昆山柏庐支行),昆山市,苏州市,120.968741,31.366432,台铃电动车,江苏省
南京路汉锦城底商,新沂市,徐州市,118.354374,34.373757,台铃电动车,江苏省
广场东路12附近,东海县,连云港市,118.681811,34.605357,台铃电动车,江苏省
遥观镇塘桥麦当当对面,武进区,常州市,120.057344,31.681232,台铃电动车,江苏省
X030(溧淳线),溧水区,南京市,119.014497,31.735198,台铃电动车,江苏省
十戴公路与205国道交叉口东南100米,沭阳县,宿迁市,118.805451,34.055257,台铃电动车,江苏省
城南二路北50米,如皋市,南通市,120.605874,32.351292,台铃电动车,江苏省
溧水开发区乌山集镇社区,溧水区,南京市,118.972596,31.725791,台铃电动车,江苏省
溧城镇罗庄路62-4号,溧阳市,常州市,119.497681,31.406817,台铃电动车,江苏省
浦湾路与百怡路交叉口东南100米,东海县,连云港市,118.847030,34.543759,台铃电动车,江苏省
张浦镇新吴街49号,昆山市,苏州市,120.949427,31.285003,台铃电动车,江苏省
皂伊线,睢宁县,徐州市,117.894194,34.111441,台铃电动车,江苏省
七章路,沭阳县,宿迁市,118.887910,34.135030,台铃电动车,江苏省
南湾路106号附近,昆山市,苏州市,120.999231,31.270722,台铃电动车,江苏省
人民路与育贤路交叉口南50米,如皋市,南通市,120.551320,32.199362,台铃电动车,江苏省
小泉路与迎湖路交叉口东北100米,东海县,连云港市,118.851384,34.455305,台铃电动车,江苏省
822乡道西50米,沭阳县,宿迁市,118.831203,34.256154,台铃电动车,江苏省
平安西路与005乡道交叉口西南100米,宿城区,宿迁市,118.506038,33.695250,台铃电动车,江苏省
唐店镇卫生院,新沂市,徐州市,118.352395,34.300770,台铃电动车,江苏省
巴城镇君子亭东路488号,昆山市,苏州市,120.863366,31.372978,台铃电动车,江苏省
S253(汉源大道),沛县,徐州市,116.908896,34.797344,台铃电动车,江苏省
鼓楼南路428附近,海陵区,泰州市,119.925204,32.467731,台铃电动车,江苏省
红星路锦安花园南大门,崇川区,南通市,120.879882,31.991167,台铃电动车(红星路店),江苏省
富福北路赵阳水电批发旁,淮安区,淮安市,119.386571,33.460929,台铃电动车,江苏省
人民北路235号附近,江阴市,无锡市,120.136590,31.896101,台铃电动车,江苏省
富华路爱的宝岛食品对面,昆山市,苏州市,120.997299,31.354944,台铃电动车,江苏省
富康大道与深圳路交叉口北150米,宿城区,宿迁市,118.282652,33.922031,台铃电动车,江苏省
X101(坎滩淤线),滨海县,盐城市,120.080565,34.147452,台铃电动车,江苏省
301县道南150米,沛县,徐州市,116.832349,34.834131,台铃电动车,江苏省
北京西路8西北70米,泗阳县,宿迁市,118.656450,33.727946,台铃电动车,江苏省
方大线,大丰区,盐城市,120.430910,33.376856,台铃电动车,江苏省
玉山镇朝阳西路287号,昆山市,苏州市,120.951139,31.374594,台铃电动车,江苏省
新建街与解放南路交叉口北50米,靖江市,泰州市,120.266060,32.021560,台铃电动车,江苏省
曲阳乡城头中学西面,东海县,连云港市,118.716030,34.449017,台铃电动车,江苏省
湖东最大超市(202县道西),沭阳县,宿迁市,118.974571,34.311405,台铃电动车,江苏省
幸福路与港城路交叉口东南50米,宝应县,扬州市,119.390973,33.237776,台铃电动车,江苏省
横塘河东路与竹林北路交叉口东100米,天宁区,常州市,120.014896,31.792835,台铃电动车,江苏省
太滆东路与太滆北路交叉口东100米,宜兴市,无锡市,119.821964,31.368336,台铃电动车,江苏省
人民东路与金明路交叉口西北50米,沭阳县,宿迁市,118.997828,33.936291,台铃电动车,江苏省
二环路100号附近,连云区,连云港市,119.386380,34.542344,台铃电动车,江苏省
丹延路99号附近,丹阳市,镇江市,119.553375,31.981079,台铃电动车,江苏省
晨丰路292附近,昆山市,苏州市,120.862934,31.330787,台铃电动车,江苏省
卫泾大街与振石路交叉口东北50米,昆山市,苏州市,121.049259,31.256695,台铃电动车,江苏省
下淀路瑞博医院东100米,鼓楼区,徐州市,117.214716,34.282790,台铃电动车(下淀路),江苏省
黑龙江南路,昆山市,苏州市,120.982963,31.361641,台铃电动车,江苏省
东风北路与石字街交叉口西北100米,阜宁县,盐城市,119.806594,33.784080,台铃电动车,江苏省
花拖路与335省道交叉口北150米,通州区,南通市,120.998367,32.046461,台铃电动车,江苏省
洋郑路东50米,宿城区,宿迁市,118.465732,33.788492,台铃电动车,江苏省
前进路与101县道交叉口西南100米,泗阳县,宿迁市,118.716275,33.498190,台铃电动车,江苏省
圩伊线南50米,灌云县,连云港市,119.412964,34.416703,台铃电动车,江苏省
南京路与小康街交叉口南150米,泗阳县,宿迁市,118.728966,33.944119,台铃电动车,江苏省
新广线西50米,靖江市,泰州市,120.264635,32.071153,台铃电动车,江苏省
团结街与建新路交叉口东50米,启东市,南通市,121.666591,31.805005,台铃电动车,江苏省
204县道西50米,睢宁县,徐州市,117.954174,33.959635,台铃电动车,江苏省
塍东路与高桥路交叉口东100米,张家港市,苏州市,120.470252,31.909749,台铃电动车,江苏省
新华路87号附近,港闸区,南通市,120.821218,32.064454,台铃电动车,江苏省
城北路23号附近,滨海县,盐城市,119.862104,34.022579,台铃电动车,江苏省
涟城镇汽车客运站东大门正对面,涟水县,淮安市,119.287344,33.786773,台铃电动车,江苏省
苏州路状元里小区南门东侧287号,阜宁县,盐城市,119.784944,33.750092,台铃电动车,江苏省
五里路与021村道交叉口西南150米,宝应县,扬州市,119.304872,33.222672,台铃电动车,江苏省
潞城大道与潞横路交叉口南100米,武进区,常州市,120.094706,31.765268,台铃电动车,江苏省
金沙镇新金东路22号,通州区,南通市,121.084169,32.080294,台铃电动车(新金东路店),江苏省
八新线与江河南路交叉口东南50米,靖江市,泰州市,120.081766,32.001085,台铃电动车,江苏省
爱国路与002县道交叉口东100米,溧阳市,常州市,119.463611,31.557326,台铃电动车,江苏省
怡居苑106号,港闸区,南通市,120.845609,32.049698,台铃电动车(通生路),江苏省
官驻路与245省道交叉口西南200米,沭阳县,宿迁市,118.760836,34.222565,台铃电动车,江苏省
102县道西50米,溧阳市,常州市,119.552470,31.461727,台铃电动车,江苏省
绘园路与缘龙路交叉口东北100米,如皋市,南通市,120.403091,32.307292,台铃电动车,江苏省
中兴路328号附近,高邮市,扬州市,119.582667,32.678316,台铃电动车,江苏省
新市北路东200米,常熟市,苏州市,120.903858,31.596584,台铃电动车,江苏省
大生路与新华路交叉口南150米,港闸区,南通市,120.801285,32.054758,台铃电动车,江苏省
沿江西路63号附近,新北区,常州市,119.922785,31.970896,台铃电动车,江苏省
宝益路西200米,昆山市,苏州市,120.940205,31.340717,台铃电动车,江苏省
鹏程路20号附近,盐都区,盐城市,119.861113,33.225630,台铃电动车,江苏省
通榆路99附近,阜宁县,盐城市,119.841029,33.741675,台铃电动车,江苏省
徐巍线051乡附近,泗阳县,宿迁市,118.809676,33.864582,台铃电动车,江苏省
长乐路31号附近,江阴市,无锡市,120.391463,31.801191,台铃电动车,江苏省
大丰海堤与202县道交叉口西150米,大丰区,盐城市,120.699924,33.185362,台铃电动车,江苏省
羊蒲线与329省道交叉口西南100米,阜宁县,盐城市,119.611650,33.845509,台铃电动车,江苏省
沿河东路与沿河西路交叉口东北50米,滨海县,盐城市,120.098656,34.258190,台铃电动车,江苏省
中心路附近,高邮市,扬州市,119.761123,32.874241,台铃电动车,江苏省
阳澄南路28号西北70米,常熟市,苏州市,120.777065,31.557087,台铃电动车,江苏省
清江浦区徐杨乡大砖桥花园北门,清江浦区,淮安市,119.154393,33.577568,台铃电动车,江苏省
通榆路85号附近,阜宁县,盐城市,119.838692,33.743473,台铃电动车,江苏省
云李河南路与沿江公路交叉口南100米,通州区,南通市,120.693078,32.064695,台铃电动车,江苏省
平东镇甸北村8组(龙飞服装厂店面)附近,通州区,南通市,120.781184,32.174406,台铃电动车,江苏省
夷亭路3栋5号,苏州工业园区,苏州市,120.791384,31.357218,台铃电动车,江苏省
平五路与成龙路交叉口西北50米,通州区,南通市,120.689005,32.083465,台铃电动车,江苏省
217县道北50米,如东县,南通市,120.880365,32.278164,台铃电动车,江苏省
扬州路164号门面房东起第一间,海陵区,泰州市,119.906253,32.499017,台铃电动车(扬州路店),江苏省
永和路与914县道交叉口西北50米,高淳区,南京市,118.814333,31.328258,台铃电动车,江苏省
姚王线与306县道交叉口西100米,睢宁县,徐州市,117.856719,33.875666,台铃电动车,江苏省
宁芜公路与宁芜大道交叉口西150米,江宁区,南京市,118.550266,31.785725,台铃电动车,江苏省
府前路164号附近,宿豫区,宿迁市,118.483568,34.041942,台铃电动车,江苏省
314县道东50米,如皋市,南通市,120.475945,32.231550,台铃电动车,江苏省
汉城路110号,鼓楼区,徐州市,117.134239,34.290801,台铃电动车,江苏省
新民路283号附近,如皋市,南通市,120.586189,32.406244,台铃电动车,江苏省
临安东路147号附近,沭阳县,宿迁市,118.798330,34.104341,台铃电动车,江苏省
太平路与336省道交叉口北50米,靖江市,泰州市,120.410406,32.088847,台铃电动车,江苏省
红旗东路北50米,如皋市,南通市,120.684056,32.455921,台铃电动车,江苏省
大张线北50米,姜堰区,泰州市,120.211067,32.430117,台铃电动车,江苏省
城西街道20号南京旭坛文化传媒有限公司附近,六合区,南京市,118.812514,32.352611,台铃电动车,江苏省
工农路288号附近,靖江市,泰州市,120.294460,31.996678,台铃电动车,江苏省
新桃路与桃园路交叉口西200米,如皋市,南通市,120.605800,32.290313,台铃电动车,江苏省
中山西路59-3号,润州区,镇江市,119.440295,32.201508,台铃电动车(镇江旗舰店),江苏省
六东北路与037县道交叉口西北50米,海门市,南通市,121.490163,32.087956,台铃电动车,江苏省
渔歌南路与蒲塘桥大道交叉口西北150米,溧水区,南京市,118.992745,31.565398,台铃电动车,江苏省
康庄路与305县道交叉口南150米,句容市,镇江市,119.125544,31.805965,台铃电动车,江苏省
新安路79号附近,新沂市,徐州市,118.347370,34.375884,台铃电动车,江苏省
永阳镇后巷6号102,溧水区,南京市,119.027978,31.652272,台铃电动车,江苏省
镇北路126,江阴市,无锡市,120.414038,31.772217,台铃电动车,江苏省
148乡道与310县道交叉口东南50米,兴化市,泰州市,120.110871,32.803732,台铃电动车,江苏省
大肖线与文化路交叉口西南50米,兴化市,泰州市,120.042807,32.900342,台铃电动车,江苏省
银苑东路42号附近,张家港市,苏州市,120.641585,31.853618,台铃电动车,江苏省
市场路与204国道交叉口西50米,海州区,连云港市,119.253649,34.475342,台铃电动车,江苏省
梦溪路72-2号,京口区,镇江市,119.465720,32.211271,台铃电动车(梦溪路),江苏省
强埠村强埠大酒店附近,溧阳市,常州市,119.264066,31.416575,台铃电动车,江苏省
中山东路1号东南90米,如皋市,南通市,120.643310,32.397469,台铃电动车,江苏省
金港镇德积护漕港桥长江东路318号,张家港市,苏州市,120.491653,31.999400,台铃电动车,江苏省
双桥路1号,江都区,扬州市,119.703378,32.340072,台铃电动车,江苏省
季斜线与老姜八线交叉口东南50米,靖江市,泰州市,120.314708,32.124838,台铃电动车,江苏省
相兴太路与富升路交叉口南50米,相城区,苏州市,120.700961,31.433968,台铃电动车,江苏省
兴甸东路与001乡道交叉口北50米,海安市,南通市,120.317707,32.672702,台铃电动车,江苏省
地秀路与长兴大街交叉口东南50米,江宁区,南京市,118.604602,31.860057,台铃电动车,江苏省
五棵松路与人民路交叉口东南100米,张家港市,苏州市,120.678434,31.969458,台铃电动车,江苏省
东南路与劳动东路交叉口西北100米,天宁区,常州市,120.017143,31.741476,台铃电动车(雕庄店),江苏省
余西油厂路与030县道交叉口东北100米,通州区,南通市,121.172182,32.035061,台铃电动车,江苏省
阜城大街168号附近,阜宁县,盐城市,119.793213,33.782522,台铃电动车,江苏省
施庄镇华茂街12号,阜宁县,盐城市,119.831627,33.742081,台铃电动车,江苏省
淮海中路58之20-21,泗阳县,宿迁市,118.679789,33.713810,台铃电动车(淮海中路店),江苏省
桠溪镇桠定路8号,高淳区,南京市,119.161065,31.367046,台铃电动车,江苏省
勋兴路35号附近,海门市,南通市,121.349470,31.978765,台铃电动车,江苏省
南鹿线与沙鹿路交叉口西南50米,太仓市,苏州市,121.082153,31.693090,台铃电动车,江苏省
步凤南路34号附近,亭湖区,盐城市,120.306202,33.330075,台铃电动车,江苏省
马鞍镇202号,六合区,南京市,118.830726,32.406459,台铃电动车,江苏省
万寿路与通榆路交叉口南50米,大丰区,盐城市,120.299446,33.138137,台铃电动车,江苏省
经开区潞城老街192号(如海超市对面),武进区,常州市,120.045770,31.759957,台铃电动车,江苏省
戚墅堰街道延陵东路212号,武进区,常州市,120.062686,31.722978,台铃电动车(延陵东路),江苏省
金港北路131-1号附近,高港区,泰州市,119.878491,32.317824,台铃电动车,江苏省
海崔路与009乡道交叉口东北200米,通州区,南通市,121.347290,32.140558,台铃电动车,江苏省
苏北商业广场,海陵区,泰州市,119.963975,32.498301,台铃电动车(旗舰店),江苏省
鹿鸣路1号附近,姜堰区,泰州市,120.099528,32.649185,台铃电动车,江苏省
杨舍镇金塘中路221号,张家港市,苏州市,120.553051,31.818021,台铃电动车,江苏省
江通路袁桥村7组23号,港闸区,南通市,120.896608,32.079676,台铃电动车,江苏省
韩信路与104县道交叉口南150米,沭阳县,宿迁市,118.972462,34.229831,台铃电动车,江苏省
创业路与跃进南路交叉口北100米泰州市泰兴横垛汽车客运站附近,泰兴市,泰州市,120.274130,32.306490,台铃电动车,江苏省
临湖镇东山大道2565号,吴中区,苏州市,120.463620,31.119487,台铃电动车,江苏省
马集镇北头,六合区,南京市,118.810188,32.535795,台铃电动车,江苏省
324省道东150米附近,沭阳县,宿迁市,118.760393,34.051042,台铃电动车,江苏省
245省道与925乡道交叉口东北150米附近,沭阳县,宿迁市,118.774372,34.247845,台铃电动车,江苏省
磊达公路北50米,东台市,盐城市,120.369058,32.774389,台铃电动车,江苏省
扬州路与祥泰路交叉口东北50米,海陵区,泰州市,119.880415,32.487680,台铃电动车,江苏省
东陈镇南凌加油站东80M,如皋市,南通市,120.613735,32.440766,台铃电动车,江苏省
仙鹤路与正通路交叉口东南100米,如皋市,南通市,120.473923,32.361788,台铃电动车,江苏省
文明东路,盱眙县,淮安市,118.789372,32.978315,台铃电动车,江苏省
海洋泾路与通周南路交叉口南150米,常熟市,苏州市,120.812378,31.700745,台铃电动车,江苏省
南京路与维达路交叉口西北50米,张家港市,苏州市,120.634266,31.817277,台铃电动车,江苏省
蔷薇路与506乡道交叉口东50米,沭阳县,宿迁市,118.659149,34.183744,台铃电动车,江苏省
府前路与远洋北路交叉口北100米,东台市,盐城市,120.152193,32.657009,台铃电动车,江苏省
北新镇永安镇加油站往西50米,启东市,南通市,121.558431,31.792148,台铃电动车,江苏省
X111(掘坎公路),如东县,南通市,121.261118,32.344885,台铃电动车,江苏省
社兴中路13号,金坛区,常州市,119.459972,31.642698,台铃电动车,江苏省
兴泰大道西路北50米,姜堰区,泰州市,120.075821,32.682484,台铃电动车,江苏省
四岔河街157附近,大丰区,盐城市,120.537579,33.312205,台铃电动车,江苏省
黄海路58号,大丰区,盐城市,120.669964,33.045859,台铃电动车,江苏省
中心大街与向阳路交叉口东150米,丹阳市,镇江市,119.768054,32.102599,台铃电动车,江苏省
S226(曹华路),东台市,盐城市,120.672712,32.865128,台铃电动车,江苏省
振兴街与文卫路交叉口西南100米,溧阳市,常州市,119.436351,31.221417,台铃电动车,江苏省
高新技术产业开发区龙山大街164号,江阴市,无锡市,120.354014,31.918955,台铃电动车(益鸟店),江苏省
元府西路彩虹公寓,睢宁县,徐州市,117.943504,33.898608,台铃电动车(元府西路店),江苏省
光大南路与宿泗路交叉口东50米,泗阳县,宿迁市,118.617442,33.840065,台铃电动车,江苏省
长泰路33号附近,海陵区,泰州市,119.899969,32.412804,台铃电动车,江苏省
长江路与253省道交叉口西南50米,沛县,徐州市,117.021781,34.515147,台铃电动车,江苏省
港口西路51号附近,高港区,泰州市,119.876865,32.298052,台铃电动车,江苏省
板东线黄荡小学东50米,灌云县,连云港市,119.340691,34.303448,台铃电动车,江苏省
S340(茅东大街),金坛区,常州市,119.378111,31.722508,台铃电动车,江苏省
越城东路82号南60米,吴中区,苏州市,120.589246,31.209231,台铃电动车(越城西路),江苏省
郑马路,铜山区,徐州市,117.050045,34.436959,台铃电动车,江苏省
人民西路北200米,如东县,南通市,120.949557,32.395389,台铃电动车,江苏省
105县道东50米,沭阳县,宿迁市,118.845412,34.194271,台铃电动车,江苏省
公所桥路27-37号附近,靖江市,泰州市,120.244721,31.977476,台铃电动车,江苏省
三百弓路与纬八路交叉口西北100米,灌云县,连云港市,119.784495,34.471600,台铃电动车,江苏省
镇南路北50米,海安市,南通市,120.388979,32.506461,台铃电动车,江苏省
伯森路221号附近,射阳县,盐城市,120.037700,33.718529,台铃电动车,江苏省
东和线与人民东路交叉口北100米,启东市,南通市,121.808866,31.735438,台铃电动车,江苏省
临郑路宿郑楼镇陈圩小学北400米,宿城区,宿迁市,118.552224,33.779180,台铃电动车,江苏省
大桥镇草大线慧丰批发部东南,大丰区,盐城市,120.636043,32.997650,台铃电动车,江苏省
镇山西路与长江西路交叉口东北100米,张家港市,苏州市,120.388166,31.950233,台铃电动车,江苏省
幸福路与府前路交叉口东50米,宿豫区,宿迁市,118.389684,33.882354,台铃电动车,江苏省
S229(孤山中路),靖江市,泰州市,120.305627,32.062104,台铃电动车,江苏省
吴西路与324省道交叉口南100米,沭阳县,宿迁市,119.036413,34.204699,台铃电动车,江苏省
阜城镇阜城西大街71号,阜宁县,盐城市,119.783948,33.783177,台铃电动车(阜城西大街店),江苏省
人民街与202县道交叉口北100米,高邮市,扬州市,119.696121,32.914978,台铃电动车,江苏省
府前街42号,姜堰区,泰州市,120.028572,32.450108,台铃电动车,江苏省
054乡道东,泗洪县,宿迁市,118.393706,33.626269,台铃电动车,江苏省
范钱路49附近,江阴市,无锡市,120.458096,31.722472,台铃电动车,江苏省
迎驾中路与龙腾街交叉口东50米,高邮市,扬州市,119.307054,32.645261,台铃电动车,江苏省
直溪镇振兴南路107号,金坛区,常州市,119.457676,31.801120,台铃电动车,江苏省
丹界公路与北苑路交叉口西南100米,丹阳市,镇江市,119.623446,32.014788,台铃电动车,江苏省
徐霞客镇璜塘环西路53号,江阴市,无锡市,120.337789,31.759103,台铃电动车,江苏省
三茅街道扬中大道普济段598号,扬中市,镇江市,119.843503,32.215420,台铃电动车,江苏省
镇南路3号,宝应县,扬州市,119.410066,33.350436,台铃电动车,江苏省
东杨路与仙鹤路交叉口东北50米,如皋市,南通市,120.483812,32.363881,台铃电动车,江苏省
X305(东风路),沛县,徐州市,117.053996,34.597213,台铃电动车,江苏省
东园路与010乡道交叉口西150米,宝应县,扬州市,119.414323,33.098267,台铃电动车,江苏省
新湖大桥与迎春路交叉口西北150米,太仓市,苏州市,121.056831,31.468378,台铃电动车,江苏省
市场路与122省道交叉口西北50米,句容市,镇江市,119.121089,31.996530,台铃电动车,江苏省
吕四港镇大润发超市南,启东市,南通市,121.604668,32.050795,台铃电动车,江苏省
人民路与文化路交叉口南50米,兴化市,泰州市,120.123732,32.723989,台铃电动车,江苏省
政前路13号附近,扬中市,镇江市,119.850679,32.127961,台铃电动车,江苏省
太湖新城镇松陵镇广源路150号大润发西侧,吴江区,苏州市,120.646260,31.149284,台铃云电动车,江苏省
城西线城东镇文其之家附近,兴化市,泰州市,119.921368,32.982940,台铃电动车,江苏省
海门港新区包场镇包新街193号,海门市,南通市,121.422217,32.053406,台铃电动车,江苏省
十里亭路与212县道交叉口东南100米,兴化市,泰州市,119.840381,32.890299,台铃电动车,江苏省
浏家港龙江路73号,太仓市,苏州市,121.255767,31.556536,台铃电动车,江苏省
三阳南路与澄河南路交叉口东南100米,高邮市,扬州市,119.672851,32.761003,台铃电动车,江苏省
樊川镇好润多超市旁边,江都区,扬州市,119.693733,32.660305,台铃电动车,江苏省
正红镇尹桥村陈铸大街34号,滨海县,盐城市,119.880302,33.830878,台铃电动车,江苏省
龙游路38号附近,如皋市,南通市,120.591896,32.105975,台铃电动车,江苏省
崔五路与253省道交叉口东南150米,沛县,徐州市,116.985167,34.570370,台铃电动车,江苏省
黄桥镇致富南路,泰兴市,泰州市,120.242091,32.234412,台铃电动车,江苏省
中山路83号附近,睢宁县,徐州市,117.785078,33.766916,台铃电动车,江苏省
磨头镇西河湾桥东,如皋市,南通市,120.561984,32.281283,台铃电动车,江苏省
高阳西路南50米,如皋市,南通市,120.735525,32.289204,台铃电动车,江苏省
荷叶路与西野行路交叉口西南150米,姜堰区,泰州市,120.149818,32.495608,台铃电动车,江苏省
315县道北50米,如皋市,南通市,120.618940,32.186742,台铃电动车,江苏省
旺桥港路东150米,靖江市,泰州市,120.336131,32.028942,台铃电动车,江苏省
大泗镇府西路旺旺购物广场西北100米,高港区,泰州市,119.979515,32.356953,台铃电动车,江苏省
南丰南路与金陵东路交叉口西50米,张家港市,苏州市,120.668172,31.875989,台铃电动车,江苏省
孔桥职中旁,高港区,泰州市,119.965156,32.322494,台铃电动车,江苏省
灵顺南路197-11号,江宁区,南京市,118.986710,31.852520,台铃电动车,江苏省
十桥中路与银杏路西交叉口东50米路南,泰兴市,泰州市,120.226802,32.244882,台铃电动车,江苏省
人和路与文昌路交叉口西50米,兴化市,泰州市,119.887893,32.711008,台铃电动车,江苏省
205县道与334省道交叉口西南100米,泰兴市,泰州市,120.200481,32.224638,台铃电动车,江苏省
仁寿东路与仁寿路交叉口西南150米,如皋市,南通市,120.563306,32.403895,台铃电动车,江苏省
古溪镇古溪医院东50米,泰兴市,泰州市,120.334329,32.344348,台铃电动车,江苏省
杨巷镇新芳镇新东路39号,宜兴市,无锡市,119.640407,31.520222,台铃电动车,江苏省
建新中路140号附近,东台市,盐城市,120.725928,32.909299,台铃电动车,江苏省
三元街与盂陵路交叉口北50米,高邮市,扬州市,119.423683,33.003441,台铃电动车,江苏省
十总镇朝阳路6号,通州区,南通市,121.121837,32.189873,台铃电动车,江苏省
民主街与淮海路交叉口西北50米,大丰区,盐城市,120.457931,33.264190,台铃电动车,江苏省
斩龙涧路鑫旺服装店旁,盱眙县,淮安市,118.495914,33.008609,台铃电动车,江苏省
泾口镇加油站向南,淮安区,淮安市,119.461832,33.462355,台铃电动车,江苏省
金谷路与338省道交叉口西南100米,张家港市,苏州市,120.622960,31.861855,台铃电动车,江苏省
芦沟镇大崔路建湖县芦沟中学对面,建湖县,盐城市,119.848026,33.392958,台铃电动车,江苏省
中山路与201县道交叉口北200米,睢宁县,徐州市,118.126893,33.818882,台铃电动车,江苏省
虹桥镇振华路80号,泰兴市,泰州市,120.016542,32.074467,台铃电动车,江苏省
大桥北路与镇中路交叉口东北100米,东台市,盐城市,120.533277,32.783626,台铃电动车,江苏省
004县道南50米,海安市,南通市,120.366151,32.613696,台铃电动车,江苏省
江安路65附近,靖江市,泰州市,120.393027,32.056516,台铃电动车,江苏省
103乡道与325省道交叉口西北50米,宿城区,宿迁市,118.387172,33.773092,台铃电动车,江苏省
皇塘镇蒋墅迎宾东路9-8号家家爱超市旁,丹阳市,镇江市,119.777337,31.823091,台铃电动车,江苏省
盂陵路东50米,高邮市,扬州市,119.424785,32.970303,台铃电动车,江苏省
建设东路与005乡道交叉口西北50米,宿城区,宿迁市,118.505125,33.695795,台铃电动车,江苏省
老政府路与025县道交叉口北50米,通州区,南通市,120.891752,32.147496,台铃电动车,江苏省
城东镇姚池路韩洋初级中学东200米,海安市,南通市,120.546501,32.551850,台铃电动车,江苏省
郭板淮线与马集大街交叉口北50米,阜宁县,盐城市,119.543409,33.744646,台铃电动车,江苏省
新街镇弶富线国明批发超市,东台市,盐城市,120.779029,32.675273,台铃电动车,江苏省
长赵路北50米,灌云县,连云港市,119.461425,34.345835,台铃电动车,江苏省
园海路与方大线交叉口西北100米,大丰区,盐城市,120.478471,33.036587,台铃电动车,江苏省
砖桥北巷与米市中路交叉口北150米,东台市,盐城市,120.479233,32.679529,台铃电动车,江苏省
三厂工业园区三厂镇中华东路158号,海门市,南通市,121.257384,31.891283,台铃电动车,江苏省
东沟镇硕集中心小学对面,阜宁县,盐城市,119.706470,33.671818,台铃电动车,江苏省
平通公路西150米,海安市,南通市,120.463581,32.487383,台铃电动车,江苏省
开发大道与315县道交叉口西北50米,海安市,南通市,120.532894,32.523635,台铃电动车,江苏省
健康路与南京南路交叉口东50米,沭阳县,宿迁市,118.866393,33.980702,台铃电动车,江苏省
裕西路与黄海北路交叉口东100米,大丰区,盐城市,120.547202,33.201011,台铃电动车,江苏省
新建路35号附近,大丰区,盐城市,120.424034,33.107872,台铃电动车,江苏省
弶富线与摩天路交叉口东北50米,东台市,盐城市,120.704427,32.634133,台铃电动车,江苏省
人民路与大刘路交叉口东50米,大丰区,盐城市,120.370083,33.174025,台铃电动车,江苏省
祝塘镇景阳西路47-2,江阴市,无锡市,120.411687,31.768771,台铃电动车,江苏省
沙溪镇岳王街道岳王大街(正心网吧对面),太仓市,苏州市,121.149993,31.547657,台铃电动车,江苏省
城东镇西凌线海安壮志医院西100米,海安市,南通市,120.620044,32.494800,台铃电动车,江苏省
丰庆路与广业街交叉口西南50米,拱墅区,杭州市,120.094905,30.331763,台铃,浙江省
古墩路151、153号,西湖区,杭州市,120.100740,30.274749,台铃电动车,浙江省
建国北路与铁关路交叉口西北100米,下城区,杭州市,120.177000,30.280372,台铃电动车,浙江省
杭行路539号附近,拱墅区,杭州市,120.116872,30.332142,台铃电动车,浙江省
丰潭路31-33号,西湖区,杭州市,120.110893,30.275017,台铃电动车,浙江省
下沙六号大街316号云水苑,江干区,杭州市,120.386511,30.302881,台铃电动车,浙江省
文一西路338号附近,西湖区,杭州市,120.095938,30.286830,台铃电动车,浙江省
下沙2号大街1135号,江干区,杭州市,120.343888,30.309384,台铃电动车,浙江省
乳泉路与长江路交叉口西北100米,滨江区,杭州市,120.195498,30.168833,台铃电动车,浙江省
宁安社区332号,萧山区,杭州市,120.275254,30.210007,台铃电动车,浙江省
德胜路288号,拱墅区,杭州市,120.154553,30.293192,台铃电动车,浙江省
稠江街道戚继光路杨三村1-3栋,义乌市,金华市,120.041716,29.289435,台铃云电动车,浙江省
乔司街道永玄路30号,余杭区,杭州市,120.291061,30.356193,台铃电动车,浙江省
塘下镇赵宅村(碧海云天)西首三间,瑞安市,温州市,120.693498,27.834388,阿德车行,浙江省
杭行路融创瑷颐湾商铺13-24号,余杭区,杭州市,120.116495,30.340817,台铃电动车(万达店),浙江省
建兴路28号永达花园旁,鄞州区,宁波市,121.559267,29.843309,台铃电动车,浙江省
东洲路199号附近,义乌市,金华市,120.119548,29.310698,台铃电动车专卖店,浙江省
文华小区2074号,桐乡市,嘉兴市,120.526240,30.620551,台铃电动车(文华小区店),浙江省
灵溪镇德嘉华庭50号电动车市场,苍南县,温州市,120.397998,27.515977,台铃电动车(美庄四街店),浙江省
后城里街198号,婺城区,金华市,119.642726,29.112090,台铃电动车(后城里专卖店),浙江省
凤起路177号6附近,鄞州区,宁波市,121.587853,29.825499,台铃电动车,浙江省
南街382-384号,吴兴区,湖州市,120.099492,30.860767,台铃专卖店,浙江省
坝头路43号,北仑区,宁波市,121.811089,29.887533,台铃(北仑店),浙江省
沿荣路1号西90米,鹿城区,温州市,120.588282,28.069063,台铃电动车,浙江省
城东街道新桥路198-6号,定海区,舟山市,122.132260,30.016602,台铃电动车,浙江省
惊驾路88号,鄞州区,宁波市,121.573158,29.876482,台铃电动车,浙江省
当湖东路33号,平湖市,嘉兴市,121.011960,30.686359,台铃电动车(当湖东路店),浙江省
王店镇百乐路148号,秀洲区,嘉兴市,120.721470,30.617629,台铃电动车专卖店,浙江省
小学路与舜江路交叉口北50米,柯桥区,绍兴市,120.677731,29.786489,台铃电动车,浙江省
新华中路22-138号附近,平湖市,嘉兴市,121.007473,30.705065,台铃电动车,浙江省
城南路与建新路交叉口东南50米,文成县,温州市,120.097556,27.785576,台铃电动车,浙江省
乍浦镇外环路465号(中山花苑北大门),平湖市,嘉兴市,121.087089,30.615910,台铃电动车,浙江省
新湾街道盛凌路162号,萧山区,杭州市,120.551658,30.281332,台铃电动车(新湾专卖店),浙江省
兴平二路与北站路交叉口东北100米,平湖市,嘉兴市,120.999484,30.707516,台铃电动车(白马店),浙江省
丰乐路与吉蚂路交叉口西南50米,秀洲区,嘉兴市,120.742417,30.685433,台铃电动车,浙江省
公园路67号附近,吴兴区,湖州市,120.260482,30.874644,台铃电动车,浙江省
524县道南150米,东阳市,金华市,120.319141,29.041429,台铃电动车,浙江省
练市镇中吉北路108号一109号,南浔区,湖州市,120.412260,30.711194,台铃电动车,浙江省
兴平二路227号,平湖市,嘉兴市,120.998077,30.729637,台铃电动车,浙江省
东海路222号附近,北仑区,宁波市,121.748183,29.950420,台铃电动车,浙江省
天目北路西50米,安吉县,湖州市,119.699251,30.644407,台铃电动车,浙江省
乍秦线与杭沪路交叉口西北200米,海盐县,嘉兴市,121.009207,30.577728,台铃电动车,浙江省
江北街道上卢文化街,东阳市,金华市,120.282801,29.304431,台铃电动车,浙江省
月山路261号,磐安县,金华市,120.441921,29.046361,台铃电动车(月山路),浙江省
金瓯路317号,金东区,金华市,119.685276,29.113155,台铃电动车(金瓯路),浙江省
七里小学公交站旁边,浦江县,金华市,119.923515,29.465107,台铃电动车,浙江省
白马街80号附近,衢江区,衢州市,118.832777,28.872301,台铃电动车,浙江省
新建路与217省道交叉口东北50米,东阳市,金华市,120.233749,29.143376,台铃电动车,浙江省
姜新线附近,婺城区,金华市,119.590600,29.055686,台铃电动车(吕塘下分店),浙江省
金衢路589号,婺城区,金华市,119.613808,29.070570,台铃电动车(秋滨店),浙江省
文化西路与渡磬中路交叉口东南100米,义乌市,金华市,120.012925,29.199436,台铃电动车,浙江省
新埭镇新南路12-16号,平湖市,嘉兴市,121.090291,30.817154,台铃电动车,浙江省
五云街道电力路95号,缙云县,丽水市,120.078133,28.648539,台铃云电动车(电力路),浙江省
华丰路与清和街交叉口东50米,金东区,金华市,119.899969,29.236007,台铃电动车(清和街店),浙江省
蓬莱路680附近,秀洲区,嘉兴市,120.616875,30.796056,台铃电动车,浙江省
广场路与盐丰北路交叉口西北50米,南湖区,嘉兴市,120.926532,30.703533,台铃电动车,浙江省
闻川路西50米,秀洲区,嘉兴市,120.713035,30.873934,台铃电动车,浙江省
秀溪路226号,桐乡市,嘉兴市,120.514185,30.677917,台铃电动车,浙江省
工贸街61附近,武义县,金华市,119.886524,28.982896,台铃电动车(东山路店),浙江省
新农路1659号附近,秀洲区,嘉兴市,120.637565,30.749944,台铃专卖店,浙江省
建设路与百禾路交叉口西南50米,海盐县,嘉兴市,120.778439,30.538364,台铃电动车,浙江省
红建路尚景花园1828号,平湖市,嘉兴市,120.996375,30.765233,台铃电动车,浙江省
西丁公路108号附近,嘉善县,嘉兴市,120.891988,30.975553,台铃电动车,浙江省
罗阳镇泰庆南路27号,泰顺县,温州市,119.710413,27.557134,台铃电动车,浙江省
亚鑫街与新兴街交叉口西北50米,平湖市,嘉兴市,121.207071,30.758346,台铃,浙江省
独广公路东150米,平湖市,嘉兴市,121.157793,30.668993,台铃,浙江省
三贞路与振兴大道交叉口南100米,长兴县,湖州市,119.657194,30.901037,台铃电动车,浙江省
新兴街50号,磐安县,金华市,120.378622,28.944725,台铃电动车,浙江省
枫孤溪超市(田乐店)北60米,秀洲区,嘉兴市,120.712359,30.947685,台铃,浙江省
广陈镇前港集镇佳阳路107号义乌百货直销店,平湖市,嘉兴市,121.081030,30.751657,台铃电动车,浙江省
长和线附近,长兴县,湖州市,119.908249,30.831564,台铃电动车,浙江省
公园路95号,德清县,湖州市,120.185280,30.644939,台铃电动车,浙江省
西文桥路375号,秀洲区,嘉兴市,120.580536,30.820083,台铃电动车,浙江省
庆丰北路与文昌路交叉口西北50米,桐乡市,嘉兴市,120.551467,30.636783,桐乡市庆丰北路台铃电动车旗舰店,浙江省
春晓路56-66号,天台县,台州市,121.016187,29.144121,天台台铃电动车,浙江省
禹航路1024号御景城西区12幢3-5底商,余杭区,杭州市,119.941884,30.274272,杭州市余杭区台铃电动车专卖店,浙江省
天阳尚景国际二期萍水街122号,拱墅区,杭州市,120.117474,30.307001,台铃菲利普电动车专卖,浙江省
五常大道170-2号附近,余杭区,杭州市,120.024938,30.243567,五常台铃电动车旗舰店,浙江省
环城西路129号附近,松阳县,丽水市,119.482470,28.445723,台铃电动车店,浙江省
横店镇繁荣街367号,东阳市,金华市,120.263177,29.162952,台铃电动车生华车行,浙江省
坦坑路与靖海路交叉口西150米,宁海县,宁波市,121.436626,29.293387,台玲电动车,浙江省
二环西路与长决线交叉口西南50米,黄岩区,台州市,121.248591,28.651287,阿阳车行,浙江省
巍山镇渼沙西路7号,东阳市,金华市,120.430813,29.323265,台铃电动车店,浙江省
南溪西路2788号,南湖区,嘉兴市,120.798985,30.753004,台铃电动车专卖店(嘉兴南溪商贸中心西北),浙江省
飞云街道渡口大厦6至7号台铃电动车,瑞安市,温州市,120.618094,27.771288,台铃(电动车),浙江省
西城街道黄轴路58号,黄岩区,台州市,121.248629,28.651352,台铃电动车,浙江省
俞家圩路174号附近,拱墅区,杭州市,120.122801,30.295032,台铃电动车,浙江省
三衢路258-5号,柯城区,衢州市,118.879285,28.944151,台铃电动车,浙江省
池华街与金昌路交叉口东150米,余杭区,杭州市,120.084809,30.339180,台铃电动车,浙江省
昙花庵路与景昙路交叉口西南50米,江干区,杭州市,120.203353,30.270307,台铃电动车,浙江省
浦沿街道东冠公寓8号楼5单元101室台铃电动车,滨江区,杭州市,120.162732,30.165986,台铃电动车,浙江省
干欣路与望童路交叉口西150米,海曙区,宁波市,121.474071,29.875279,台铃电动车,浙江省
星光街1117号附近,余杭区,杭州市,120.314074,30.432194,台铃电动车,浙江省
稻乐路415附近,桐乡市,嘉兴市,120.567212,30.647519,台铃电动车,浙江省
鼓山中路185号台铃电动车,新昌县,绍兴市,120.890301,29.503398,台铃电动车,浙江省
无,嵊州市,绍兴市,120.834350,29.586245,台铃电动车,浙江省
星碧大道,浦江县,金华市,119.946560,29.452331,台铃电动车,浙江省
崇贤街道橄榄树花园南区21-11,余杭区,杭州市,120.164278,30.381596,台铃电动车,浙江省
阳光路103号附近,新昌县,绍兴市,120.910676,29.500099,台铃电动车,浙江省
勤学路,平湖市,嘉兴市,121.184444,30.724303,台铃电动车,浙江省
甲来路15号,西湖区,杭州市,120.066940,30.336923,老百姓台铃电动车,浙江省
乌桥路与由拳路交叉口南150米,南湖区,嘉兴市,120.788150,30.728490,电玛台铃电动车,浙江省
人民北路湖滨公园城一层,田家庵区,淮南市,117.019600,32.648278,台铃,安徽省
屯溪路235号,包河区,合肥市,117.287750,31.848093,台铃电动车(东方广场B座东南),安徽省
银湖中路梅苑新村门面房,镜湖区,芜湖市,118.375191,31.351933,台铃,安徽省
桃园路北50米,泗县,宿州市,117.895218,33.476740,台铃,安徽省
万桂山南路41栋附近,广德县,宣城市,119.423333,30.886145,台铃,安徽省
合欢路与濉永公路交叉口西150米,濉溪县,淮北市,116.742355,33.906820,台铃,安徽省
G206(烟汕线),埇桥区,宿州市,117.062183,33.895484,台铃,安徽省
016县道与019县道交叉口西50米,裕安区,六安市,116.142036,31.671193,台铃,安徽省
淮河大道北段270号(近铜陵市工商行政管理局),铜官区,铜陵市,117.813850,30.933206,台铃(淮河大道北段),安徽省
繁阳镇安定西路21号,繁昌县,芜湖市,118.196892,31.083376,台铃(繁昌店),安徽省
上海路与天柱山西路交叉口北200米,宜秀区,安庆市,117.074078,30.540414,台铃科技馆,安徽省
绿怡中路商铺14,蜀山区,合肥市,117.241364,31.820028,台铃电动车(荷叶地路),安徽省
狮子山北路与青霞路交叉口西100米,铜官区,铜陵市,117.890241,30.925113,台铃(青霞路店),安徽省
蜀山新产业园区蜀峰路与湖光路交叉口博威香山丽舍36栋104门面,蜀山区,合肥市,117.167986,31.861824,台铃电动车(湖光路),安徽省
碱河路,濉溪县,淮北市,116.772507,33.931459,台铃（明杰电动车维修）,安徽省
茂荫路116号附近,蜀山区,合肥市,117.212868,31.805771,台铃电动车,安徽省
西二环路524号附近,蜀山区,合肥市,117.214696,31.845810,台铃电动车,安徽省
临泉路与站西路交叉口名发世家旁,瑶海区,合肥市,117.305582,31.883186,台铃电动车,安徽省
汇林中路2号南50米,蜀山区,合肥市,117.220137,31.823196,台铃电动车,安徽省
红旗中路72号,雨山区,马鞍山市,118.492897,31.693878,台铃电动车,安徽省
相山北路桓潭小区9号楼,相山区,淮北市,116.800367,33.963366,台铃电动车(桓潭小区店),安徽省
滨湖世纪城福州路徽昌苑南门36栋,包河区,合肥市,117.300234,31.744266,台铃电动车,安徽省
七里铺路与永昌路交叉口东北100米,颍州区,阜阳市,115.832250,32.881314,台铃电动车,安徽省
信义街52号附近,界首市,阜阳市,115.354128,33.260030,界首台铃电动车,安徽省
祁门路望湖东苑南大门15栋,包河区,合肥市,117.297640,31.811378,台铃电动车(祁门路),安徽省
广丽花园岳西路与贵池路交叉口往南20米,蜀山区,合肥市,117.225466,31.844658,台铃电动车,安徽省
七里塘街道龙门岭路兴华苑,瑶海区,合肥市,117.325720,31.902430,台铃电动车,安徽省
南一环屯溪路233号(八一宾馆旁),包河区,合肥市,117.288548,31.848151,台铃电动车(南一环路辅路),安徽省
北京路与长春街交叉口南100米,包河区,合肥市,117.324188,31.795730,台铃电动车,安徽省
烈山路金色水乡斜对面佳慧超市80米,濉溪县,淮北市,116.773072,33.917669,台铃电动车,安徽省
延安路与珠塘巷交叉口西北50米,屯溪区,黄山市,118.306787,29.709241,台铃电动车,安徽省
状元中路法瑞滋隔壁,宣州区,宣城市,118.755887,30.947860,台铃电动车(六中巷店),安徽省
009县道与011县道交叉口东50米附近,桐城市,安庆市,116.938335,30.883550,台铃电动车,安徽省
皋城东路与经二路交叉口北150米,金安区,六安市,116.549320,31.769490,台铃电动车,安徽省
官陡街道云从路城市之光第三街区,鸠江区,芜湖市,118.420899,31.356557,台铃电动车(云从路),安徽省
西城河路与鼓楼街交叉口南100米,来安县,滁州市,118.431814,32.448529,台铃电动车,安徽省
当涂支路与皖江东路交叉口西南50米,包河区,合肥市,117.307387,31.822738,台铃电动车,安徽省
合巢路与合巢路三巷交叉口西50米,包河区,合肥市,117.291257,31.825324,台铃电动车(合巢路特约服务站),安徽省
琅琊东路221-225号附近,琅琊区,滁州市,118.316445,32.302649,台铃电动车,安徽省
铜陵路与大通路和平苑大门口,瑶海区,合肥市,117.321730,31.859048,台铃电动车(铜陵路),安徽省
双清路海阔天空西100米,颍州区,阜阳市,115.809858,32.886584,台铃电动车(双清路店),安徽省
振华路1栋附近,裕安区,六安市,116.492759,31.734442,台铃电动车,安徽省
仙女路桃花社区b2-116号,肥西县,合肥市,117.218558,31.764787,台铃电动车,安徽省
新建路与解放路交叉口北200米,临泉县,阜阳市,115.254246,33.063528,台铃电动车,安徽省
嵇康路103附近,谯城区,亳州市,115.782621,33.822180,台铃电动车,安徽省
井岗镇长江西路与西二环路交叉口福乐门国际广场向东40M,蜀山区,合肥市,117.216451,31.858201,台铃电动车,安徽省
龙湖路117附近,萧县,宿州市,116.946867,34.181112,台铃电动车,安徽省
贯清路与颍上南路交叉口东南50米,颍州区,阜阳市,115.829962,32.867434,台铃电动车(贯清路),安徽省
恺帆路与渡江路交叉口西150米,无为县,芜湖市,117.930960,31.277075,台铃电动车,安徽省
奎湖路与陵阳路交叉口北50米,南陵县,芜湖市,118.346851,30.924323,台铃电动车,安徽省
潜口路与龙图路交叉口西100米,包河区,合肥市,117.280216,31.805497,台铃电动车,安徽省
阜阳北路348号附近,庐阳区,合肥市,117.287616,31.888935,台铃电动车,安徽省
颍河西路237号附近,颍泉区,阜阳市,115.823597,32.899518,台铃电动车(颍河西路店),安徽省
环城南路130号,埇桥区,宿州市,116.978507,33.636388,台铃电动车(环城南路),安徽省
祥盛路东100米,鸠江区,芜湖市,118.402165,31.370700,台铃电动车,安徽省
青年路恒信车业旁(青年路与人民北路交叉口),田家庵区,淮南市,117.020328,32.656755,台铃电动车,安徽省
解放西路125号,灵璧县,宿州市,117.549082,33.542282,台铃电动车(解放西路店),安徽省
利辛路与幸福路交叉口东北50米,谯城区,亳州市,115.776153,33.867850,台铃电动车,安徽省
双凤开发区蒙城北路与金梅路力高共和城西区日之惠超市东五十米,长丰县,合肥市,117.251808,31.974882,台铃电动车,安徽省
上派镇站前路芮祠家园,肥西县,合肥市,117.161853,31.700784,台铃电动车,安徽省
解放北路上院小区11号楼108铺,裕安区,六安市,116.499984,31.769860,台铃电动车(上院小区店),安徽省
明珠路288附近,肥西县,合肥市,117.163581,31.803760,台铃电动车,安徽省
人民南路325号,利辛县,亳州市,116.207088,33.130124,台铃电动车,安徽省
明月路与石台路交叉口东南150米,贵池区,池州市,117.474544,30.653587,台铃电动车(石台路),安徽省
华阳镇东门桥头,绩溪县,宣城市,118.601681,30.071404,台铃电动车,安徽省
北城世纪城1期世纪东路与滁河路交叉口东100米,长丰县,合肥市,117.245952,32.000850,台铃电动车,安徽省
宁阳东路,宁国市,宣城市,118.984767,30.621466,台铃电动车(宁国旗舰店),安徽省
徽城镇河西印象徽州37幢1001号,歙县,黄山市,118.431297,29.861545,台铃电动车,安徽省
芙蓉社区管理委员会经开区繁华大道与松林路交口翰林府邸门口,蜀山区,合肥市,117.201162,31.780580,台铃电动车(翰林府邸特约服务站),安徽省
大杨镇北二环与四里河路交口明发商业广场C区苏宁易购后门,庐阳区,合肥市,117.236620,31.897583,台铃电动车,安徽省
幕桥路228号,泾县,宣城市,118.414800,30.693521,台铃电动车,安徽省
文苑路176号附近,宜秀区,安庆市,117.091966,30.543652,台铃电动车,安徽省
天桥北路84号老火车站旁,铜官区,铜陵市,117.816274,30.941025,台铃电动车(铜官大道北段),安徽省
红旗路新大润发西门对面,雨山区,马鞍山市,118.488053,31.683470,台铃电动车,安徽省
郎溪路曹冲菜市场对面,瑶海区,合肥市,117.360110,31.863795,台铃电动车,安徽省
四里河路与砀山路交叉口西北100米,庐阳区,合肥市,117.233611,31.896374,台铃电动车,安徽省
东二环路236号附近,瑶海区,合肥市,117.338718,31.864004,台铃电动车(东二环路特约服务站),安徽省
南含山路与红星路交叉口西50米,庐阳区,合肥市,117.293430,31.860552,台铃电动车(红星路特约服务站),安徽省
石岗路与雨山东路交叉口南150米,花山区,马鞍山市,118.519916,31.672145,台铃电动车,安徽省
磨子潭路华龙新村,裕安区,六安市,116.487192,31.740623,台铃电动车,安徽省
樊洼路北50米,蜀山区,合肥市,117.212812,31.864584,台铃电动车(樊洼路),安徽省
鹿城镇焦阳路296号附近,阜南县,阜阳市,115.594395,32.643107,台铃电动车(焦阳路),安徽省
塔山东路与越城北路交叉口南100米,庐江县,合肥市,117.288795,31.254151,台铃电动车,安徽省
天海路与宝城路交叉口东200米,肥西县,合肥市,117.178874,31.743039,台铃电动车,安徽省
佛子岭路和谐名城北区商铺116,金安区,六安市,116.527889,31.735432,台铃电动车,安徽省
人民东路与清龙潭路交叉口东200米附近,肥西县,合肥市,117.177712,31.715543,台铃电动车,安徽省
烈山路与碱河路交叉口西150米,濉溪县,淮北市,116.776451,33.931486,台铃电动车,安徽省
江东大道1701号附近,花山区,马鞍山市,118.523146,31.683576,台铃电动车,安徽省
交通西路与健康北路交叉口东150米,萧县,宿州市,116.944770,34.180461,台铃电动车(萧县盐务管理局东北),安徽省
枞阳镇渡江路86号,枞阳县,铜陵市,117.220330,30.706266,台铃电动车,安徽省
笔峰路与石笋路交叉口北50米,蜀山区,合肥市,117.208544,31.795119,台铃电动车,安徽省
国泰路友好医院往北80米,太和县,阜阳市,115.612977,33.164250,台铃电动车,安徽省
蒙城路2号城隍庙站牌对面,庐阳区,合肥市,117.276389,31.864513,台铃电动车,安徽省
东风大道东150米,肥东县,合肥市,117.419858,31.836193,台铃电动车,安徽省
105国道与312国道交叉口西南200米,裕安区,六安市,116.477056,31.713552,台铃电动车,安徽省
银湖小区,鸠江区,芜湖市,118.382808,31.395123,台铃电动车,安徽省
城关镇古城路中段21号中国人民银行旁,舒城县,六安市,116.953097,31.464573,台铃电动车,安徽省
嘉山路与凤台路交口向西30米路南,瑶海区,合肥市,117.291102,31.892453,台铃电动车(凤台路店),安徽省
船厂路3号东70米,包河区,合肥市,117.326008,31.840260,台铃电动车,安徽省
牛群商贸城,蒙城县,亳州市,116.563680,33.251137,台铃电动车,安徽省
店埠镇桂王路御景花园107-108号,肥东县,合肥市,117.445373,31.879150,肥东台铃电动车,安徽省
义安区天门镇皖韵大市场,义安区,铜陵市,117.838266,30.829184,台铃电动车,安徽省
浩翔路与青年路交叉口东北50米,利辛县,亳州市,116.199087,33.142433,台铃电动车,安徽省
浍水东路百度KTV东10米,埇桥区,宿州市,116.983243,33.626884,台铃电动车,安徽省
东方红郡35栋门面房,鸠江区,芜湖市,118.433254,31.357474,台铃电动车(宇业东方红郡商业步行街),安徽省
新风街与荆山路交叉口南100米,当涂县,马鞍山市,118.486058,31.495692,台铃电动车,安徽省
环峰南路34号,含山县,马鞍山市,118.108819,31.717776,台铃电动车,安徽省
儒林路与内环南路交叉口东南150米,全椒县,滁州市,118.276813,32.079609,台铃电动车,安徽省
迎驾大道北50米,霍山县,六安市,116.340932,31.400369,台铃电动车,安徽省
经三路402附近,颍州区,阜阳市,115.859062,32.857089,台铃电动车,安徽省
029县道与306省道交叉口西南200米,淮上区,蚌埠市,117.546861,32.987241,台铃电动车,安徽省
天门山西路17号5附近,镜湖区,芜湖市,118.363066,31.368170,台铃电动车,安徽省
复兴街132号,广德县,宣城市,119.419269,30.897054,台铃电动车,安徽省
环峰西路272号附近,含山县,马鞍山市,118.102840,31.719784,台铃电动车,安徽省
国防路与淮河路交叉口西南50米,五河县,蚌埠市,117.891975,33.144824,台铃电动车,安徽省
凤山南路与迎宾大道交叉口北200米,灵璧县,宿州市,117.544440,33.535094,台铃电动车,安徽省
建平镇珠光国际西大门,郎溪县,宣城市,119.200283,31.140211,台铃电动车,安徽省
桃花潭西路142号北园新村对面,泾县,宣城市,118.410503,30.680363,台铃电动车,安徽省
健康路与湖东北路交叉口东北50米,花山区,马鞍山市,118.510071,31.706717,台铃电动车,安徽省
万春湖路与纬一次路交叉口西南100米万春街道创业园附近,鸠江区,芜湖市,118.499111,31.361032,台铃电动车,安徽省
大南门街与登云坡交叉口东50米,迎江区,安庆市,117.041988,30.502610,台铃电动车,安徽省
临湖社区管理管委会经开区习友路与紫蓬路交接处御景前城,包河区,合肥市,117.271468,31.747474,台铃电动车(紫蓬路),安徽省
贵池路与陈村路交叉口西100米,蜀山区,合肥市,117.236891,31.845490,台铃电动车,安徽省
庙山路638号门面,怀远县,蚌埠市,117.191444,32.959397,台铃电动车,安徽省
人民路与棋盘山路交叉口东100米,迎江区,安庆市,117.067646,30.504242,台铃电动车(人民路),安徽省
013乡道与203省道交叉口东50米,金安区,六安市,116.522329,31.785718,台铃电动车,安徽省
寿六路大圆盘南30米路西侧,寿县,淮南市,116.783994,32.560542,台铃电动车,安徽省
幸福西路12栋附近,颍东区,阜阳市,115.851047,32.907887,台铃电动车,安徽省
规划路附近,贵池区,池州市,117.516265,30.683425,台铃电动车,安徽省
新蚌埠路128号东北80米,瑶海区,合肥市,117.309827,31.893421,台铃电动车,安徽省
天山路146号附近,包河区,合肥市,117.297298,31.735674,台铃电动车,安徽省
渡江大道南327-345号附近,繁昌县,芜湖市,118.202238,31.084612,台铃电动车,安徽省
玉琳路与白云巷交叉口西北50米,大观区,安庆市,117.031453,30.505121,台铃电动车,安徽省
马衙街道碧慧苑小区33-109,贵池区,池州市,117.559035,30.631474,台铃电动车,安徽省
001县道北50米,义安区,铜陵市,117.844766,30.829604,台铃电动车,安徽省
095县道南50米,庐江县,合肥市,117.322350,31.084302,台铃电动车,安徽省
020县道创亿家电商场少阳商贸北50米路西,含山县,马鞍山市,117.998887,31.655869,台铃电动车,安徽省
滨河路1008-1010号附近,东至县,池州市,117.025693,30.106285,台铃电动车,安徽省
合作化南路安大西门A39-A40,蜀山区,合肥市,117.251503,31.845007,台铃电动车,安徽省
青铜路145号附近,南陵县,芜湖市,118.330740,30.911529,台铃电动车,安徽省
沿江快速公路与红星路交叉口西北100米,义安区,铜陵市,117.945960,30.943551,台铃电动车,安徽省
富丰路110号,歙县,黄山市,118.420236,29.864253,台铃电动车,安徽省
023县道北,颍泉区,阜阳市,115.630386,33.061475,台铃电动车,安徽省
袁寨镇,颍东区,阜阳市,115.942665,32.848813,台铃电动车,安徽省
006县道光武中心卫生院旁,界首市,阜阳市,115.378808,33.378739,台铃电动车,安徽省
012县道与062乡道交叉口西200米,当涂县,马鞍山市,118.509166,31.496995,台铃电动车,安徽省
无,肥西县,合肥市,117.220732,31.775777,台铃电动车,安徽省
合马路附近,肥东县,合肥市,117.476530,31.812523,台铃电动车,安徽省
上清大道枯河街西139号,泗县,宿州市,117.982186,33.527187,台铃电动车,安徽省
天堂寨路与洪家河路交叉口东150米金鑫国际佳园附近,金寨县,六安市,115.934910,31.716617,台铃电动车,安徽省
闸北路134号附近,涡阳县,亳州市,116.217036,33.522187,台铃电动车,安徽省
籍山镇南翔路香江花园高层1栋,南陵县,芜湖市,118.337097,30.908740,台铃电动车,安徽省
越城中路1-5号附近,庐江县,合肥市,117.286808,31.248696,台铃电动车,安徽省
世纪社区滨湖世纪城徽昌苑37栋,包河区,合肥市,117.298833,31.746949,台铃云电动车(万泉河路店),安徽省
马陋室西街148号,和县,马鞍山市,118.362500,31.719458,台铃电动车,安徽省
阜南路222号附近,庐阳区,合肥市,117.273253,31.871681,台铃电动车,安徽省
津河西路151附近,宁国市,宣城市,118.978752,30.624024,台铃电动车,安徽省
荆山镇南大街金厦小区8-9号之间裙房,怀远县,蚌埠市,117.199349,32.951287,台铃电动车,安徽省
湾沚镇环城南路大塘新村门口,芜湖县,芜湖市,118.576913,31.141410,台铃电动车(环城南路店),安徽省
广教路与拱极路交叉口东北50米,宣州区,宣城市,118.750179,30.966742,台铃电动车,安徽省
市府巷与高桥路交叉口东100米,宁国市,宣城市,119.012435,30.639804,台铃电动车,安徽省
海恒街105号附近,蜀山区,合肥市,117.260263,31.776109,台铃电动车,安徽省
G206(烟汕线),怀宁县,安庆市,116.919801,30.614356,台铃电动车,安徽省
谷河东路375号附近,阜南县,阜阳市,115.598752,32.638333,台铃电动车,安徽省
岩寺镇永佳大道311号,徽州区,黄山市,118.344541,29.820567,台铃电动车,安徽省
南纬一路金石新城附近,弋江区,芜湖市,118.380072,31.188513,台铃电动车,安徽省
无,蜀山区,合肥市,117.245414,31.805972,台铃电动车,安徽省
无,瑶海区,合肥市,117.361276,31.875034,台铃电动车,安徽省
籍山镇083县道南陵县九连信用社,南陵县,芜湖市,118.385263,30.953512,台铃电动车,安徽省
庐巢路39号附近,庐江县,合肥市,117.300275,31.249121,台铃电动车,安徽省
山袁路附近,肥西县,合肥市,116.872003,31.624348,台铃电动车,安徽省
长江西路893附近,蜀山区,合肥市,117.202158,31.855135,台铃电动车,安徽省
046县道与307省道交叉口东南150米,怀远县,蚌埠市,116.880684,33.103745,台铃电动车,安徽省
鲲鹏西路与齐山路交叉口东150米,蒙城县,亳州市,116.544085,33.251362,台铃电动车,安徽省
无,瑶海区,合肥市,117.370307,31.867964,台铃电动车,安徽省
和平路198号附近,瑶海区,合肥市,117.323527,31.855314,台铃电动车,安徽省
双庙集镇县道x021与075乡道交叉口向西50米,寿县,淮南市,116.875442,32.179219,台铃电动车,安徽省
007县道与047乡道交叉口北50米,砀山县,宿州市,116.393610,34.330300,台铃电动车,安徽省
下塘路与吴山路交叉口南100米,长丰县,合肥市,117.164124,32.482150,台铃电动车,安徽省
兴贸路与158乡道交叉口西南200米,霍邱县,六安市,115.996831,32.505460,台铃电动车,安徽省
博望镇建设中路博望汽车站西南,博望区,马鞍山市,118.849411,31.563474,台铃电动车,安徽省
019县道北50米,涡阳县,亳州市,116.325801,33.468599,台铃电动车,安徽省
无,包河区,合肥市,117.258950,31.821564,台铃电动车,安徽省
凤行路21号,宁国市,宣城市,118.960824,30.623550,台铃电动车,安徽省
合瓦路附近,长丰县,合肥市,117.189466,31.946472,台铃电动车,安徽省
无,瑶海区,合肥市,117.313220,31.862814,台铃电动车,安徽省
生态大道商G-14号附近,贵池区,池州市,117.565602,30.694012,台铃电动车,安徽省
利民路与322省道交叉口西北150米,宣州区,宣城市,118.790616,31.230768,台铃电动车,安徽省
302省道附近,灵璧县,宿州市,117.708410,33.760408,台铃电动车,安徽省
岩寺镇中央丽园小区15幢,徽州区,黄山市,118.325650,29.832618,台铃电动车,安徽省
024县道西50米,郎溪县,宣城市,119.122795,31.222000,台铃电动车,安徽省
024县道与214省道交叉口东南200米,郎溪县,宣城市,119.127813,31.225164,台铃电动车,安徽省
平安街,界首市,阜阳市,115.345028,33.126694,台铃电动车,安徽省
S105(裕溪路),肥东县,合肥市,117.466802,31.818412,台铃电动车,安徽省
苏埠镇戚家桥,裕安区,六安市,116.448460,31.635025,台铃电动车,安徽省
045县道与319省道交叉口西北50米,鸠江区,芜湖市,118.180906,31.354371,台铃电动车,安徽省
紫薇路,巢湖市,合肥市,117.903603,31.627121,台铃电动车,安徽省
尖山路城北公寓二期104号,鸠江区,芜湖市,118.392308,31.454343,台铃电动车,安徽省
丰乐北街与丰乐南街交叉口西50米,和县,马鞍山市,118.290191,31.772113,台铃电动车,安徽省
纬二路与经三路交叉口南50米,颍州区,阜阳市,115.864958,32.860511,台铃电动车,安徽省
木镇路114号附近,青阳县,池州市,117.865831,30.638061,台铃电动车,安徽省
健民路38号附近,广德县,宣城市,119.430502,30.880574,台铃电动车,安徽省
093县道与215省道交叉口东北150米扬溪镇人民政府附近,绩溪县,宣城市,118.647192,30.151793,台铃电动车,安徽省
047县道东50米,灵璧县,宿州市,117.646567,33.711422,台铃电动车,安徽省
高新大道与151乡道交叉口南100米,无为县,芜湖市,117.932967,31.185655,台铃电动车,安徽省
公吉寺集东西大道路北66号附近,涡阳县,亳州市,116.082001,33.474936,台铃电动车,安徽省
037县道西50米,五河县,蚌埠市,117.637618,33.232080,台铃电动车,安徽省
009乡道与018县道交叉口西南150米洪镇工商所附近,怀宁县,安庆市,116.852557,30.528861,台铃电动车,安徽省
无,宣州区,宣城市,118.500168,30.899395,台铃电动车,安徽省
龙池路,桐城市,安庆市,116.974641,31.031875,台铃电动车,安徽省
019乡道与214省道交叉口东北150米,郎溪县,宣城市,119.135257,30.982192,台铃电动车,安徽省
龟山路32-8号附近,巢湖市,合肥市,117.859021,31.611538,台铃电动车,安徽省
013乡道与301省道交叉口东北50米,萧县,宿州市,116.859701,34.222353,台铃电动车,安徽省
010县道西50米,镜湖区,芜湖市,118.474312,31.206831,台铃电动车,安徽省
袁寨镇朱小集,颍东区,阜阳市,115.944696,32.847005,台铃电动车(朱小集),安徽省
019县道与595乡道交叉口东100米,裕安区,六安市,116.287645,31.562023,台铃电动车,安徽省
腾云路与104省道交叉口东100米,宣州区,宣城市,118.965330,30.794416,台铃电动车,安徽省
高新大道与高沟镇环镇公路交叉口北150米,无为县,芜湖市,117.950715,31.084253,台铃电动车,安徽省
009县道与016县道交叉口南100米,裕安区,六安市,116.353776,31.927317,台铃电动车,安徽省
宝纶路,徽州区,黄山市,118.283521,29.922771,台铃电动车,安徽省
029乡道与201省道交叉口西200米附近,灵璧县,宿州市,117.473764,33.416703,台铃电动车,安徽省
102省道北50米,颍州区,阜阳市,115.625597,32.932781,台铃电动车,安徽省
津河西路58号附近,宁国市,宣城市,118.972912,30.624311,台铃电动车,安徽省
华阳镇雷阳路371号,望江县,安庆市,116.691390,30.130983,台铃电动车,安徽省
139乡道东50米,鸠江区,芜湖市,118.271913,31.365331,台铃电动车,安徽省
固镇路,庐阳区,合肥市,117.242708,31.893051,台铃电动车,安徽省
007乡道东50米,颍东区,阜阳市,116.071026,32.916228,台铃电动车,安徽省
016乡道与018县道交叉口南100米,烈山区,淮北市,116.912216,33.775477,台铃电动车,安徽省
010乡道与301省道交叉口东南150米,杜集区,淮北市,117.011552,34.152472,台铃电动车,安徽省
九华北路中国移动旁,鸠江区,芜湖市,118.413369,31.465382,台铃电动车,安徽省
037县道与046乡道交叉口西北50米,贵池区,池州市,117.302330,30.349246,台铃电动车,安徽省
宁阳西路86号,宁国市,宣城市,118.964498,30.595757,台铃电动车,安徽省
蒙凤路231号附近,蒙城县,亳州市,116.550502,33.140824,台铃电动车,安徽省
024县道与027县道交叉口南100米,颍东区,阜阳市,115.962508,33.001895,台铃电动车,安徽省
金凤路与084乡道交叉口东北150米,南陵县,芜湖市,118.307658,30.842725,台铃电动车,安徽省
黄塘路丹阳镇政府东100米,博望区,马鞍山市,118.718359,31.624983,台铃电动车,安徽省
祖楼镇吴楼桥国家电网斜对面,萧县,宿州市,116.698310,34.367728,台铃电动车,安徽省
淝南镇105国道中段路东,谯城区,亳州市,115.885980,33.972393,台铃电动车,安徽省
六王路,阜南县,阜阳市,115.722962,32.753518,台铃电动车,安徽省
046县道与049县道交叉口西南100米,颍州区,阜阳市,115.793534,32.822166,台铃电动车,安徽省
灵壁路与蒙城北路交叉口东南150米,庐阳区,合肥市,117.275340,31.900951,台铃摩托车电动车,安徽省
芜屯路171-173号附近,芜湖县,芜湖市,118.547694,31.239791,台铃电动车,安徽省
201省道西50米,灵璧县,宿州市,117.509546,33.612170,台铃电动,安徽省
蟠龙新街与003县道交叉口南100米,巢湖市,合肥市,117.834173,31.707295,台铃电动车,安徽省
216省道西50米,繁昌县,芜湖市,118.152084,31.133571,台铃电动车,安徽省
祖楼镇中心小学旁,萧县,宿州市,116.714869,34.059411,台铃电动车,安徽省
阳德中路与018县道交叉口西南50米,宣州区,宣城市,118.807100,30.953682,台铃电动车,安徽省
G105(京珠线),颍泉区,阜阳市,115.728782,33.007090,台铃电动车,安徽省
318国道南150米,宣州区,宣城市,118.592161,30.921634,台铃电动车,安徽省
318国道西50米,贵池区,池州市,117.413010,30.524854,台铃电动车,安徽省
206国道东50米,埇桥区,宿州市,117.149644,34.057171,台铃电动车,安徽省
淠河路2号附近,蜀山区,合肥市,117.260194,31.845317,台铃电动车,安徽省
平湖路与001县道交叉口西北50米,迎江区,安庆市,117.198443,30.558213,台铃电动车,安徽省
海口镇,大观区,安庆市,116.963837,30.484909,台铃电动车,安徽省
栏坝街6号,怀宁县,安庆市,116.788493,30.659783,台铃电动车,安徽省
乌江镇项羽南路225号,和县,马鞍山市,118.462928,31.850241,台铃电动车,安徽省
徐集镇六梅路,裕安区,六安市,116.361485,31.827315,台铃电动车,安徽省
014县道附近,当涂县,马鞍山市,118.665065,31.313434,台铃电动车,安徽省
上联超市北侧,怀宁县,安庆市,116.858354,30.619757,台铃电动车,安徽省
050县道与051县道交叉口东北100米,颍州区,阜阳市,115.459753,32.880840,台铃电动车,安徽省
035县道与307省道交叉口南150米,蒙城县,亳州市,116.431282,33.339886,台铃电动车,安徽省
百合旅馆西90米(025县道北),灵璧县,宿州市,117.562684,33.390559,台铃电动车,安徽省
向阳北路154号附近,颍东区,阜阳市,115.866053,32.911710,台铃电动车(向阳北路),安徽省
013乡道南50米,颍上县,阜阳市,116.361535,32.774453,台铃电动车,安徽省
037县道与206国道交叉口东150米,埇桥区,宿州市,117.029724,33.441171,台铃电动车,安徽省
徽州大道1150号附近,包河区,合肥市,117.284929,31.822265,台铃电动车(银杏苑店),安徽省
徽城镇经济开发区财富广场1幢附近,歙县,黄山市,118.457610,29.895579,台铃电动车(财富广场店),安徽省
328省道北50米,阜南县,阜阳市,115.542880,32.699778,台铃电动车,安徽省
南源口村五里牌附近,歙县,黄山市,118.503308,29.855643,台铃电动车,安徽省
026县道东50米,颍东区,阜阳市,116.076680,32.835539,台铃电动车,安徽省
056县道与201省道交叉口南150米,灵璧县,宿州市,117.483218,33.903038,台铃电动车,安徽省
105乡道与202省道交叉口西南150米,涡阳县,亳州市,116.426814,33.706322,台铃电动车,安徽省
215省道东50米,歙县,黄山市,118.498820,29.951026,台铃电动车,安徽省
姥桥镇新南街319号,和县,马鞍山市,118.302441,31.603979,台铃电动车,安徽省
朝阳镇X042天池网吧对面,灵璧县,宿州市,117.593540,33.944189,台铃电动车,安徽省
053县道与321省道交叉口西100米,繁昌县,芜湖市,118.114618,31.052498,台铃电动车,安徽省
口孜路与004乡道交叉口东100米,颍东区,阜阳市,116.144212,32.814015,台铃电动车,安徽省
043县道南50米,埇桥区,宿州市,117.301699,33.678376,台铃电动车,安徽省
316省道西150米,巢湖市,合肥市,117.618055,31.420270,台铃电动车,安徽省
宁国大道与慈安路交叉口西南100米,宁国市,宣城市,118.980591,30.651690,台铃电动车,安徽省
安定西路13号,繁昌县,芜湖市,118.199516,31.084581,台铃电动车,安徽省
034县道与053县道交叉口东北150米,蒙城县,亳州市,116.479314,33.097289,台铃电动车,安徽省
049县道与065乡道交叉口北200米,三山区,芜湖市,118.228424,31.234610,台铃电动车,安徽省
洛九路与002县道交叉口西南50米,大通区,淮南市,117.093278,32.675462,台铃电动车,安徽省
潘集镇天柱山路田集派出所向南100米,潘集区,淮南市,116.818050,32.772194,台铃电动车,安徽省
035县道与043县道交叉口西南100米,颍上县,阜阳市,116.198545,32.499073,台铃电动车,安徽省
024县道西50米,涡阳县,亳州市,116.034985,33.639676,台铃电动车,安徽省
026县道与105乡道交叉口南200米,埇桥区,宿州市,117.176739,33.792133,台铃电动车,安徽省
宝塔路116号附近,蒙城县,亳州市,116.564081,33.260437,台铃电动车,安徽省
318国道南50米,贵池区,池州市,117.350129,30.472744,台铃电动车,安徽省
南山西路与山门南路交叉口东北50米,宁国市,宣城市,118.980152,30.609568,台铃电动车,安徽省
045县道东50米,鸠江区,芜湖市,118.181286,31.327176,台铃电动车,安徽省
001乡道附近,潘集区,淮南市,116.992952,32.712367,台铃电动车,安徽省
303省道东50米,濉溪县,淮北市,116.555575,33.847447,台铃电动车,安徽省
025县道南50米,颍东区,阜阳市,115.974125,32.919777,台铃电动车,安徽省
307省道附近,蒙城县,亳州市,116.472144,33.313838,台铃电动车,安徽省
318国道东50米,贵池区,池州市,117.721089,30.628940,台铃电动车,安徽省
040县道与049县道交叉口西南150米,宁国市,宣城市,118.916949,30.724426,台铃电动车,安徽省
龙山镇加油站南50米(龙山镇实验学校西),涡阳县,亳州市,116.312335,33.581287,台铃电动车,安徽省
056县道北50米,阜南县,阜阳市,115.390668,32.603661,台铃电动车,安徽省
齐山路68-1号附近,蒙城县,亳州市,116.485864,33.362281,台铃电动车,安徽省
澄江路261号附近,宣州区,宣城市,118.756660,30.960287,台铃电动车,安徽省
太湖山路与翰林路交叉口西100米,含山县,马鞍山市,117.962038,31.546101,台铃电动车,安徽省
013乡道与042县道交叉口西南200米,灵璧县,宿州市,117.587683,33.679068,台铃电动车,安徽省
巢湖中路143-147号,巢湖市,合肥市,117.871366,31.598225,台铃电动车(巢湖中路店),安徽省
057县道与104国道交叉口北150米,泗县,宿州市,117.894007,33.378249,台铃电动车,安徽省
迎江大道141号附近,鸠江区,芜湖市,118.236471,31.460129,台铃电动车(沈巷卫生院东北),安徽省
005乡道与044县道交叉口西南200米,灵璧县,宿州市,117.705283,33.827401,台铃电动车,安徽省
富康路118号,宿松县,安庆市,116.121277,30.162322,台铃电动车,安徽省
纬五路与经二路交叉口东北100米,颍州区,阜阳市,115.841837,32.858294,台铃电动车(经二路),安徽省
龙川大道泰康人寿保险旁,绩溪县,宣城市,118.586312,30.061414,台铃电动车(龙川大道),安徽省
010县道北200米,太和县,阜阳市,115.583330,33.491787,台铃电动车(洪山店),安徽省
高河镇新安路50号,怀宁县,安庆市,116.830648,30.722370,台铃电动车(怀宁店),安徽省
亳州路与肥西路交叉口,庐阳区,合肥市,117.254543,31.882849,台铃电动车(肥西路),安徽省
056县道南50米,阜南县,阜阳市,115.508496,32.609652,台铃电动车(公桥店),安徽省
淮海东路144号附近,杜集区,淮北市,116.889476,33.972053,台铃电动车(朱北社区卫生服务站西),安徽省
松萝路与萝宁街交叉口东南50米,休宁县,黄山市,118.181792,29.789863,台铃电动车(新宁广场店),安徽省
河沥溪河沥中学旁,宁国市,宣城市,119.016338,30.635487,台铃电动车(八里社区卫生服务站西),安徽省
318国道547号怀宁县独秀人民医院附近,怀宁县,安庆市,116.756409,30.597757,台铃电动车(怀宁县独秀人民医院南),安徽省
高岳路101号东渡苑13幢,杜集区,淮北市,116.832171,33.989662,台铃电动车(开渠西路),安徽省
凤栖路与康庄大道交叉口东南100米,贵池区,池州市,117.567073,30.681039,台铃电动车(凤栖路),安徽省
南岳路与潜阳路交叉口西50米,潜山市,安庆市,116.576270,30.630402,台铃电动车(潜阳路店),安徽省
淮凤路东100米,八公山区,淮南市,116.806051,32.677804,台铃电动车(南村社区卫生室西南),安徽省
烔忠路71号附近,巢湖市,合肥市,117.581726,31.620312,台铃电动车(黄麓店),安徽省
五里岗路166-6号附近,泾县,宣城市,118.423647,30.678202,泾县台铃电动车,安徽省
泉山街道化肥厂五工地青苹果幼儿园对面,田家庵区,淮南市,116.966483,32.630328,台铃电动车(淮化集团供销大楼东南),安徽省
平安大道与040县道交叉口西100米附近,蒙城县,亳州市,116.641230,33.106351,台铃电动车(柳林专卖店),安徽省
胜利东路2号东60米,涡阳县,亳州市,116.215060,33.505080,台铃电动车(胜利路店),安徽省
307省道北50米,谯城区,亳州市,115.981299,33.634433,台铃电动车(城父专卖店),安徽省
徽州花苑21幢,歙县,黄山市,118.433149,29.868208,台铃服务中心,安徽省
渠沟镇真棒超市对面,相山区,淮北市,116.746506,33.974437,台铃电动车(淮北直营店),安徽省
蔡新北路东50米,八公山区,淮南市,116.843045,32.625159,台铃电动车(洗云居小区东),安徽省
白泽湖乡双龙路与张圩路交叉路口南100米,宜秀区,安庆市,117.124356,30.604844,台铃电动车(白泽湖农技站西),安徽省
率水路与玉玑山路交叉口西南50米,休宁县,黄山市,118.192019,29.787708,台铃电动车(金诚阳光店),安徽省
高河镇稼先路170号,怀宁县,安庆市,116.832610,30.729288,台铃电动车(稼先路),安徽省
襄河镇吴敬梓路街心花园200米新日电动车旁花园浴室门口,全椒县,滁州市,118.274529,32.098682,台铃电动车(吴敬梓路店),安徽省
宁芜路30号,郎溪县,宣城市,119.190145,31.127696,台铃电动车(中港路),安徽省
中心西街240附近,颍上县,阜阳市,116.256419,32.632825,台铃电动车(中心路店),安徽省
淝河南路与046县道交叉口西南50米,利辛县,亳州市,116.207050,33.119474,台铃电动车(光明专卖店),安徽省
051县道与113乡道交叉口南150米,利辛县,亳州市,116.026691,33.091387,台铃电动车(永兴专卖店),安徽省
五里墩立交桥与淠河路交叉口西南50米,蜀山区,合肥市,117.250473,31.856628,台铃电动车(淠河路店),安徽省
梅龙办事处街上附近(近321省道),贵池区,池州市,117.641944,30.762275,台铃电动车(滨江国际东),安徽省
043县道与201省道交叉口南100米,灵璧县,宿州市,117.494052,33.669314,台铃电动车(杨瞳卫生院南),安徽省
淝河镇北京路与梁园路向东10米,包河区,合肥市,117.317430,31.818941,台铃电动车专卖,安徽省
许镇镇国道路111号,南陵县,芜湖市,118.409876,31.060854,台铃电动车(许镇镇许镇村卫生室东北),安徽省
利民大街与042县道交叉口西北150米,灵璧县,宿州市,117.608688,33.793388,台铃电动车(大路专卖店),安徽省
石梁东路688号,天长市,滁州市,119.024203,32.682787,台铃电动车专卖(天长旗舰店),安徽省
328省道北50米,阜南县,阜阳市,115.692558,32.641212,台铃电动车(阜南县苗集镇卫生院东),安徽省
府井路东200米,灵璧县,宿州市,117.580061,33.858602,台铃电动车(徽山路),安徽省
国庆东路与068县道交叉口西南100米,大通区,淮南市,117.156222,32.722423,台铃电动车(大通区上窑社区卫生服务站东北),安徽省
三元路与011乡道交叉口北50米,南陵县,芜湖市,118.260712,30.774175,台铃电动车(011乡道店),安徽省
019乡道与105国道交叉口东南200米,霍邱县,六安市,115.993853,32.194322,台铃电动车(霍邱县龙潭镇人民政府北),安徽省
公仆路与095乡道交叉口南150米,埇桥区,宿州市,117.328334,33.776883,台铃电动车(公仆路),安徽省
104省道西50米,宣州区,宣城市,118.653200,31.028604,台铃电动车(古泉镇人民政府南),安徽省
201省道与302省道交叉口西50米,灵璧县,宿州市,117.462750,33.767042,台铃电动车(尹集专卖店),安徽省
303省道三友超市旁,濉溪县,淮北市,116.676707,33.780100,台铃电动车(百善镇人民代表大会西南),安徽省
夹溪路南50米,休宁县,黄山市,118.172348,29.783432,台铃电动车(夹溪路店),安徽省
渔亭路与碧阳大道交叉口西50米,黟县,黄山市,117.945485,29.917649,台铃电动车(渔亭路),安徽省
赛口镇永镇街,望江县,安庆市,116.799720,30.333680,赛口台铃专卖店,安徽省
004乡道与324省道交汇处,歙县,黄山市,118.716070,29.981427,台铃电动车(苏村方龙车业),安徽省
001县道与005县道交叉口西北50米,歙县,黄山市,118.406628,29.753222,台铃电动车(王村专卖店),安徽省
无为大堤长松美发旁,无为县,芜湖市,117.652966,31.045398,台铃电动车(牛埠专卖店),安徽省
岩寺镇永佳大道313-315号,歙县,黄山市,118.383190,29.853898,台铃电动车(010县道店),安徽省
009乡道东50米,界首市,阜阳市,115.399981,33.209180,田营台铃电动车专卖店,安徽省
新安江路郎溪路交叉口保利东郡台铃三期北门台铃电动车,瑶海区,合肥市,117.361580,31.858172,台铃电动车,安徽省
宁芜路站北村40栋,花山区,马鞍山市,118.503624,31.716879,台铃锂电池电动车,安徽省
城毛公路东50米,舒城县,六安市,116.853502,31.218886,台铃电动车专卖店,安徽省
015乡道附近,颍州区,阜阳市,115.917001,32.801251,台铃电动车海尔电器,安徽省
公路街,三山区,芜湖市,118.235727,31.229597,台铃电动车专卖店,安徽省
022县道与101省道交叉口东100米,萧县,宿州市,116.625434,34.221887,台铃电动车专卖,安徽省
新华街新华宾馆向北100米,颍东区,阜阳市,115.896566,32.962979,台铃电动车.小伍车行,安徽省
无,蒙城县,亳州市,116.489509,33.274738,台铃电动车专卖店,安徽省
311国道(十八里镇卫生院西南),谯城区,亳州市,115.662227,33.868969,十八里台铃电动车专卖,安徽省
318国道西50米,贵池区,池州市,117.274415,30.484485,台铃电动车专卖,安徽省
山余巷东50米,谢家集区,淮南市,116.917646,32.602484,台铃电动车老九专卖,安徽省
襄河路与龙岗路交叉口东南50米,瑶海区,合肥市,117.376798,31.863358,龙岗台铃电动车,安徽省
孔雀路与独秀大道交叉口西北50米,怀宁县,安庆市,116.830102,30.743349,台铃云电动车,安徽省
021县道附近,颍东区,阜阳市,116.132597,32.922023,新车电动台铃电动车,安徽省
303省道北50米,泗县,宿州市,117.660117,33.524348,台铃电动车金彭三轮车,安徽省
陵阳西路298号附近,南陵县,芜湖市,118.327044,30.916218,南陵县西门台铃专卖店,安徽省
014县道东50米,裕安区,六安市,116.244962,31.629016,台铃电动车广宝车业,安徽省
旭日天都四组团门面,鸠江区,芜湖市,118.415672,31.363334,星文车行台铃电动车,安徽省
经济技术开发区望城岗,宣州区,宣城市,118.683180,30.933663,台铃电动车望城岗(小管车行),安徽省
008县道西150米,谯城区,亳州市,115.776644,33.967419,台铃电动车小奈集总经销,安徽省
308省道,太和县,阜阳市,115.831957,33.322335,三堂台铃电动车专卖店,安徽省
026县道南50米,颍上县,阜阳市,116.199147,32.793133,台铃电动车江口经销商,安徽省
阮桥镇009乡道,太和县,阜阳市,115.675791,33.390058,彬彬台铃电动车专卖店,安徽省
鹤翔湖路388号附近,长丰县,合肥市,117.263827,32.003463,台铃电动车双墩专卖店,安徽省
王店镇十二里刘大桥台铃电动车专卖店,颍州区,阜阳市,115.736107,32.853804,十二里刘大桥台铃电动车专卖店,安徽省
水利局楼下,定远县,滁州市,117.685878,32.529194,定远铂金车行台铃电动车旗舰店,安徽省
042县道东50米,灵璧县,宿州市,117.568294,33.644830,台铃电动车金彭电动三轮车,安徽省
环峰南路与环峰路交叉口南150米,含山县,马鞍山市,118.108834,31.709441,台铃电动车小李车行,安徽省
黄岗镇酒家西南侧80米,阜南县,阜阳市,115.818287,32.618881,台铃电动车专卖店,安徽省
无,临泉县,阜阳市,114.950280,33.006803,电动车维修店,安徽省
孙湾东三路与孙湾中心路交叉口西150米,谯城区,亳州市,115.794872,33.851092,台玲电动车,安徽省
迎宾路309北70米,宜秀区,安庆市,117.051547,30.551670,台羚电动车,安徽省
东风路19号航宝贝生活园旁,固镇县,蚌埠市,117.323837,33.317874,台玲电动车,安徽省
周谷堆路与淝河路交叉口北50米,包河区,合肥市,117.308740,31.842947,台玲电动车,安徽省
淮九路与321省道交叉口南150米,繁昌县,芜湖市,118.207667,31.123555,台玲电动车,安徽省
阊江北路38号附近,祁门县,黄山市,117.720731,29.859824,台玲电动车(滨河路店),安徽省
西柯镇同集中路潘涂山头里10号,同安区,厦门市,118.141360,24.640643,台铃,福建省
六一南路169号(汇达广场公交车站往东20米),仓山区,福州市,119.322349,26.041199,台铃(汇达广场店),福建省
八七路1484号附近,石狮市,泉州市,118.631816,24.728407,台铃,福建省
马巷镇同美社区山头9号,翔安区,厦门市,118.216609,24.665365,台铃,福建省
无,福安市,宁德市,119.635504,27.095704,台铃,福建省
浮桥街469,鲤城区,泉州市,118.550953,24.915207,台铃(全顺达4S店),福建省
镇海街道梅园东路862号,荔城区,莆田市,119.020877,25.432307,台铃(总店),福建省
公益路12号店,鼓楼区,福州市,119.311339,26.104885,台铃电动车(华林店),福建省
杨桥路157-8号武夷花园,鼓楼区,福州市,119.290877,26.084589,台铃电动车(杨桥东路),福建省
金山洪湾路建新镇江边幼儿园,仓山区,福州市,119.253353,26.024127,台铃电动车(高宅店),福建省
金山大道171号(民生银行往西20米),仓山区,福州市,119.263890,26.051614,台铃电动车(金山店),福建省
悦华路龙腾花园一期163号,湖里区,厦门市,118.116265,24.515079,台铃电动车(马垅店),福建省
华光路与新华街交叉口西北50米,晋江市,泉州市,118.582488,24.814649,台铃电动车(特约经销店),福建省
莲前东路687号福满山庄,思明区,厦门市,118.165252,24.475093,台铃电动车(莲前东路),福建省
五通村西头社28号,湖里区,厦门市,118.187139,24.512491,台铃电动车,福建省
上浦路26号,鼓楼区,福州市,119.280414,26.064656,台铃电动车,福建省
建新镇金港路136号金辉枫尚30座04店,仓山区,福州市,119.283550,26.035908,台铃电动车,福建省
厦禾路532号,思明区,厦门市,118.090945,24.462479,台铃电动车(厦禾路),福建省
湖滨南路294号附106号,思明区,厦门市,118.109433,24.473420,台铃电动车(湖东店),福建省
东升街道上三路246号柏联花园4号楼一层12店面,仓山区,福州市,119.321720,26.035325,台铃电动车(上三路),福建省
金山街道金桔路162号,仓山区,福州市,119.239930,26.042802,台铃电动车(金桔路店),福建省
兴霞路与大华路交叉口东北100米,晋江市,泉州市,118.577448,24.882808,台铃电动车,福建省
宝珊花园正对面,丰泽区,泉州市,118.632806,24.876575,台铃电动车,福建省
城厢镇新安路356-358号,安溪县,泉州市,118.190524,25.062073,台铃电动车,福建省
建新中路与金祥路交叉口东北100米,仓山区,福州市,119.257617,26.047076,台铃电动车(金祥路店),福建省
仙岳路出口西200米,湖里区,厦门市,118.180158,24.510333,台铃电动车,福建省
丰泽街道刺桐南路置富大厦旁,丰泽区,泉州市,118.606109,24.889604,台铃电动车(刺桐南路店),福建省
鞋都路159号附近,晋江市,泉州市,118.613676,24.793501,台铃电动车,福建省
龙院路79号附近,仓山区,福州市,119.338485,26.032566,台铃电动车,福建省
枋湖北二路坂上社510号,湖里区,厦门市,118.150718,24.521316,台铃电动车(尚忠店),福建省
湄洲大道与莲池路交叉口东北150米,秀屿区,莆田市,119.131995,25.082678,台铃电动车,福建省
禾山路41之8号,湖里区,厦门市,118.133032,24.500118,台铃电动车(仙岳路辅路),福建省
小金星幼儿园楼下,南安市,泉州市,118.422999,24.802992,台铃电动车,福建省
上渡路33-13号,仓山区,福州市,119.303322,26.039080,台铃电动车,福建省
孙坂北路789号附近,集美区,厦门市,118.042245,24.628807,台铃电动车,福建省
杏林街道杏西路39号,集美区,厦门市,118.032874,24.564759,台铃电动车(杏林店),福建省
崇文街与雅泰路交叉口北100米,鲤城区,泉州市,118.550048,24.858242,台铃电动车,福建省
华园北路与城环路交叉口北50米,丰泽区,泉州市,118.639725,24.930459,台铃电动车,福建省
国货东路285号,晋安区,福州市,119.328090,26.065309,台铃电动车(国货东路店),福建省
福峰路与象峰一路交叉口西南200米,晋安区,福州市,119.333020,26.142220,台铃电动车,福建省
新阳工业区新埯村东片447号二号路,海沧区,厦门市,118.000208,24.520320,台铃电动车,福建省
马巷镇山亭村山亭路50号附近,翔安区,厦门市,118.219619,24.643040,台铃电动车,福建省
水头镇鸿星街3栋105-106号,南安市,泉州市,118.429888,24.707878,台铃电动车,福建省
下官巷与大坪路交叉口西北50米,仓山区,福州市,119.323262,26.040806,台铃电动车,福建省
儒江东路18-78号,马尾区,福州市,119.416901,26.017481,台铃电动车,福建省
树兜社区奇树路1号,鲤城区,泉州市,118.528148,24.917206,台铃电动车,福建省
六一中路与雁塔四巷交叉口东北50米,台江区,福州市,119.320455,26.063493,台铃电动车(六一路店),福建省
福飞南路213号榕信二区1座店面,鼓楼区,福州市,119.299311,26.119132,台铃电动车(福飞店),福建省
江滨路12幢104号附近,梅列区,三明市,117.633220,26.263125,台铃电动车,福建省
永安东路与虹桥北路交叉口西北100米,福安市,宁德市,119.681015,26.964703,台铃电动车,福建省
贵府苑商业5-7段43号,连江县,福州市,119.403608,26.252957,台铃电动车,福建省
儒江西路234号附近,马尾区,福州市,119.390983,26.021046,台铃电动车,福建省
石蚶大道与龙珠大道交叉口北50米,石狮市,泉州市,118.669571,24.765215,台铃电动车,福建省
十字亭路东100米,仓山区,福州市,119.283565,26.029278,台铃电动车,福建省
鲤南镇柳安街256号,仙游县,莆田市,118.702716,25.352532,台铃电动车,福建省
港尾镇太武路159号博澜坊专业祛斑祛痘斜对面,龙海市,漳州市,118.007981,24.318110,台铃电动车,福建省
泉安北路491号附近,晋江市,泉州市,118.579776,24.859619,台铃电动车,福建省
灵石路南150米,晋江市,泉州市,118.559553,24.732699,台铃电动车,福建省
仙岳路1429号,湖里区,厦门市,118.131477,24.500198,台铃电动车(兴山花园南),福建省
长安路58号附近,仓山区,福州市,119.308813,26.031967,台铃电动车,福建省
湖滨路25-27,永安市,三明市,117.359188,25.974166,台铃电动车,福建省
南洋东大道459号,荔城区,莆田市,119.085175,25.378123,台铃电动车,福建省
中洲路与308省道交叉口东50米,安溪县,泉州市,118.171133,25.072377,台铃电动车,福建省
大宇东街与大宇南街交叉口东南50米,南安市,泉州市,118.285374,25.027032,台铃电动车,福建省
柳安街与金华街交叉口西150米,仙游县,莆田市,118.701842,25.338258,台铃电动车,福建省
兴建弄98号,霞浦县,宁德市,120.011799,26.886763,台铃电动车,福建省
鞋都路1410附近,晋江市,泉州市,118.600831,24.810813,台铃电动车,福建省
后溪大道与新村中里交叉口西南150米,集美区,厦门市,118.026014,24.642188,台铃电动车,福建省
小港北路17-2号附近,龙文区,漳州市,117.738871,24.509613,台铃电动车,福建省
滨海大道与201省道交叉口南150米,南安市,泉州市,118.415361,24.663509,台铃电动车,福建省
边贸商城西外17号,福鼎市,宁德市,120.216865,27.315382,台铃电动车,福建省
大桥头路101号附近,龙海市,漳州市,117.651574,24.484531,台铃电动车,福建省
省新镇省东村太林街中国电信旁,南安市,泉州市,118.385623,25.029437,台铃电动车,福建省
201省道与203乡道交叉口西北50米,漳浦县,漳州市,117.804689,24.066998,台铃电动车,福建省
九鲤南街,仙游县,莆田市,118.749877,25.417281,台铃电动车,福建省
喷泉巷与熙春东路交叉口西50米,邵武市,南平市,117.497840,27.331987,台铃电动车,福建省
人民西路与208省道交叉口西南100米,龙海市,漳州市,117.797209,24.447561,台铃电动车,福建省
滨江东路753号附近,延平区,南平市,118.181681,26.646265,台铃电动车,福建省
甘洪路南50米,闽侯县,福州市,119.186568,26.125429,台铃电动车,福建省
宝山路146号,大田县,三明市,117.853296,25.691716,台铃电动车,福建省
城南中路110号附近,顺昌县,南平市,117.808214,26.785765,台铃电动车,福建省
石亭镇北斗工业园金闽路金闽公寓13号店面君达专业维修,芗城区,漳州市,117.624535,24.560374,台铃电动车,福建省
罗星街道君竹路1号台铃电动车,马尾区,福州市,119.454132,25.986232,台铃电动车,福建省
王厝路与秀峰路交叉口西北100米,晋安区,福州市,119.313853,26.128543,台铃电动车,福建省
厦坊路与西凤路交叉口南100米,晋安区,福州市,119.323205,26.119612,台铃电动车(西园店),福建省
无,云霄县,漳州市,117.328148,23.958712,台铃电动车,福建省
荔港大道东50米,秀屿区,莆田市,119.096051,25.303701,台铃电动车,福建省
无,仓山区,福州市,119.329286,26.041501,台铃电动车,福建省
无,诏安县,漳州市,117.345529,23.764052,台铃电动车,福建省
无,漳浦县,漳州市,117.799497,24.068335,台铃电动车,福建省
新塘路与江南大街交叉口西100米,鲤城区,泉州市,118.517976,24.918572,台铃电动车,福建省
306省道附近,仙游县,莆田市,118.834159,25.299509,台铃电动车,福建省
金阵路1-11号,仓山区,福州市,119.252220,26.066620,台铃电动车,福建省
西营路与解放北路交叉口东北50米,永安市,三明市,117.370366,25.983064,台铃电动车,福建省
平和路与涵永公路交叉口北100米,涵江区,莆田市,119.079055,25.500514,台铃电动车,福建省
江辉路68号附近,云霄县,漳州市,117.339852,23.960048,台铃电动车,福建省
保生路114号附近,龙海市,漳州市,117.949661,24.483983,台铃电动车,福建省
207省道附近,平和县,漳州市,117.015097,24.242762,台铃电动车,福建省
石狮永宁镇石永大道旁子英医院西侧豪美楼附近,石狮市,泉州市,118.674441,24.701062,台铃电动车,福建省
083乡道与203省道交叉口东150米,永春县,泉州市,118.165040,25.382396,台铃电动车,福建省
金井镇政通路西98号,晋江市,泉州市,118.599740,24.573560,台铃电动车,福建省
度尾镇海峡工艺城,仙游县,莆田市,118.559891,25.420963,台铃电动车,福建省
新圩镇新霞南路222-224号,翔安区,厦门市,118.256842,24.736203,台铃电动车,福建省
117乡道与208省道交叉口西北50米,龙海市,漳州市,117.859431,24.403342,台铃电动车,福建省
英龙路171-173号,晋江市,泉州市,118.586758,24.635920,台铃电动车,福建省
漳华中路与益华路交叉口西150米,芗城区,漳州市,117.684400,24.522690,台铃电动车,福建省
万顺路与海坛西路交叉口西南150米,平潭县,福州市,119.783407,25.505414,台铃电动车,福建省
上街镇国宾大道格林之星酒店旁边鸿瑞宾馆楼下,闽侯县,福州市,119.195190,26.071004,台铃电动车(国宾大道店),福建省
九龙大道与朝阳西路交叉口东150米,龙文区,漳州市,117.710035,24.532504,台铃电动车,福建省
白塘镇周墩村新港市场往里150米,涵江区,莆田市,119.089126,25.455563,台铃电动车,福建省
518县道中国电信东20米,龙海市,漳州市,117.817008,24.491316,台铃电动车,福建省
324国道,云霄县,漳州市,117.387720,23.849104,台铃电动车,福建省
G324(福昆线),仙游县,莆田市,118.861788,25.249177,台铃电动车,福建省
杏林杏西路27号,集美区,厦门市,118.034976,24.564698,台铃电动车(厦门日东花园酒店西北),福建省
东城小学(202乡道),漳浦县,漳州市,117.881679,24.099007,台铃电动车,福建省
凤城镇祥云路346号,安溪县,泉州市,118.180755,25.064642,台铃电动车,福建省
漳华路东50米,芗城区,漳州市,117.640055,24.544501,台铃电动车,福建省
鹤塘镇鹤兴街26号,古田县,宁德市,119.121586,26.655675,台铃电动车,福建省
民安路与307省道交叉口西北150米附近,南安市,泉州市,118.360692,25.115291,台铃电动车,福建省
桂林街道和平南路90号,漳平市,龙岩市,117.420600,25.285096,台铃电动车,福建省
337县道南50米,南安市,泉州市,118.275609,25.001318,台铃电动车,福建省
诗山镇诗山街748号,南安市,泉州市,118.291895,25.185610,台铃电动车,福建省
蕉芗路107号附近,芗城区,漳州市,117.569736,24.585554,台铃电动车,福建省
八一路150号,邵武市,南平市,117.486840,27.336673,台铃电动车,福建省
兴国强厨具日杂百货城(英瑶路北),集美区,厦门市,118.106655,24.600197,台铃电动车(英瑶路店),福建省
永宁镇永石路125号,石狮市,泉州市,118.690823,24.684331,台铃电动车,福建省
591县道东50米,长泰县,漳州市,117.794486,24.655625,台铃电动车,福建省
华丰镇大同西路20号,华安县,漳州市,117.524706,25.002818,台铃电动车,福建省
建新镇冠浦路147号(必来客)旁,仓山区,福州市,119.267720,26.020709,台铃电动车(红江路店),福建省
迎宾大道366号,龙文区,漳州市,117.706291,24.510140,台铃电动车(迎宾大道),福建省
绥中路与龙泉路交叉口东南150米,漳浦县,漳州市,117.614804,24.119281,台铃电动车(漳浦县政协东),福建省
登云路83号鹤林景秀园,晋安区,福州市,119.331306,26.103245,台铃电动车(登云路店),福建省
峡南村祥宏北路2-3号,闽侯县,福州市,119.400196,25.954313,台铃电动车(峡南店),福建省
人民东路与港林路交叉口东50米,龙海市,漳州市,117.822298,24.439776,台铃电动车(人民东路店),福建省
下尾村灵川东大道3463-3467号,城厢区,莆田市,119.007398,25.291191,台铃电动车(成东电动车行),福建省
新华南路101-6-7号,芗城区,漳州市,117.657967,24.504847,台铃电动车(龙师附小店),福建省
三宝路与新华路交叉口西50米,平和县,漳州市,117.318835,24.368501,台铃电动车(新华路店),福建省
新兴路97-99号,翔安区,厦门市,118.245767,24.611632,台铃电动车(翔安店),福建省
国贸东路福祥花园公寓5栋1层6号店面(连潘高架桥往西100米),晋安区,福州市,119.333061,26.065322,台铃电动车(国贸店),福建省
红星农场义序路盘屿农贸市场仁山仓库台铃电动车,仓山区,福州市,119.297429,25.998842,台铃电动车(盘屿总店),福建省
圳南三路与西福路交叉口东北100米(近圳南三路),同安区,厦门市,118.138174,24.664531,台铃电动车(西柯路口),福建省
环城北路695号附近,同安区,厦门市,118.157603,24.734701,台铃电动车(同顺东),福建省
西埔镇东环路东海嘉园,东山县,漳州市,117.435967,23.696740,台铃电动车(东海嘉园北),福建省
常丰新市场32号,云霄县,漳州市,117.386193,23.838425,台铃电动车(常山分店),福建省
中兴街辅路,泉港区,泉州市,118.910724,25.125713,台铃电动车(南通车行),福建省
溪潭镇中建中央公园10号楼店面,福安市,宁德市,119.629234,27.040411,台铃电动车(中央公园店),福建省
华光路(亿民购物广场西),惠安县,泉州市,118.900959,24.979667,台铃电动车(福德龙购物广场西),福建省
福峡路与龙江路交叉口东南50米,仓山区,福州市,119.379644,25.979376,台铃电动车(龙江路),福建省
齐安路767号B区12-13号店,仓山区,福州市,119.293046,25.998629,台铃电动车(盘屿总店),福建省
201省道北100米,漳浦县,漳州市,117.610310,23.946520,台铃电动车(杜浔店),福建省
洪山镇杨桥西路268号太阳城综合楼3号楼22号店面(金牛山公园西),鼓楼区,福州市,119.254998,26.079337,台铃电动车(太阳城店),福建省
东山街东50米,南安市,泉州市,118.255970,24.965696,台铃电动车(英都店),福建省
池店镇晋江机场连接线康波鞋业公司,晋江市,泉州市,118.591449,24.860098,台铃电动车(福塘路),福建省
三官堂阳光大酒店楼下,沙县,三明市,117.785809,26.396547,台铃专卖店,福建省
入城路移动营业厅旁27号,闽侯县,福州市,119.154289,26.146546,台铃电动车(甘蔗店),福建省
华亭镇紫山东路,城厢区,莆田市,118.896485,25.381536,台铃华亭站,福建省
涵华西路1432号,涵江区,莆田市,119.102285,25.454418,台铃电动车(荔洲别墅东),福建省
双桥路与灌口大道交叉口北50米,集美区,厦门市,117.986835,24.607641,台铃电动车(国铃车行灌口店),福建省
人民路141-12号附近,南靖县,漳州市,117.374387,24.507963,台铃电动车(南靖专卖店),福建省
苏厝村一片区1号,石狮市,泉州市,118.643745,24.760398,台铃电动车(飘逸商务大厦东北),福建省
石庭西路288号北70米,涵江区,莆田市,119.161384,25.477319,台铃电动车(登基路),福建省
岩溪镇锦昌路325号,长泰县,漳州市,117.776360,24.743920,台铃电动车(清辉车行店),福建省
同集南路凤麟花园二之6号,集美区,厦门市,118.101378,24.584303,台铃电动车(同集南路辅路),福建省
北峰工业区西埔路口,丰泽区,泉州市,118.569522,24.939019,台铃电动车(招丰路),福建省
环城北路333号,同安区,厦门市,118.147087,24.735479,台铃电动车(环城北路),福建省
环城西路1号,漳浦县,漳州市,117.620530,24.118970,台铃电动车(印石路),福建省
城门镇城门街123号,仓山区,福州市,119.360282,25.995528,台铃电动车(城门店),福建省
祥平街道集中工业区建材园7楼,同安区,厦门市,118.133235,24.688452,台铃电动车(梧侣路店),福建省
顺祥路东50米,长泰县,漳州市,117.739928,24.634551,台铃电动车(顺祥路),福建省
国宾大道与邱阳西路交叉口西北150米,闽侯县,福州市,119.185439,26.077172,台铃电动车(沙墩村西北),福建省
盘屿路854号1号20号店面,仓山区,福州市,119.287665,26.001610,台铃电动车(盘屿路店),福建省
殿前一路2244号-3号,湖里区,厦门市,118.108870,24.525148,台铃电动车(殿前店),福建省
龙崛路与423县道交叉口西100米,翔安区,厦门市,118.235860,24.640707,台铃电动车(龙崛路店),福建省
八七路1540-1546号,石狮市,泉州市,118.630760,24.728223,台铃电动车(八七路店),福建省
龙祥公寓3,古田县,宁德市,118.750016,26.576059,台铃电动车(龙祥公寓店),福建省
仁和路与花园路交叉口西北50米,晋江市,泉州市,118.469732,24.652402,台铃电动车(仁和路店),福建省
坂南路67附近,海沧区,厦门市,117.927337,24.553567,台铃电动车(海沧区东孚镇卫生院西南),福建省
建设南街11-116号,惠安县,泉州市,118.802266,25.029876,台铃电动车(中新花园店),福建省
同盛路与新民大道交叉口西200米,同安区,厦门市,118.126793,24.711469,台铃电动车(心有灵犀店),福建省
汀州镇幸福花园对面环城东路9号,长汀县,龙岩市,116.366218,25.832439,台铃电动车(农资大厦东北),福建省
中山街与靖海路交叉口西南150米,晋江市,泉州市,118.628870,24.671435,台铃电动车(中山街店),福建省
鹤祥路B栋12号,福安市,宁德市,119.641504,27.084356,台铃电动车(鹤祥路),福建省
324国道西50米,龙海市,漳州市,117.646472,24.436364,台铃电动车(九湖专卖店),福建省
丹霞路东南商贸城西区17幢11-14号,芗城区,漳州市,117.671799,24.508595,台铃电动车(漳州直营总店),福建省
中山南路471-473号,鲤城区,泉州市,118.587649,24.901973,深圳台铃(泉州台铃总店),福建省
山城镇建设路31-33号,南靖县,漳州市,117.371500,24.518951,台铃电动车(建设大街店),福建省
通济路20号,建瓯市,南平市,118.319959,27.032844,台铃电动车(通济路),福建省
南洋路468号,石狮市,泉州市,118.617394,24.726954,台铃电动车(南洋路店),福建省
安海镇鸿江中路53号55号,晋江市,泉州市,118.469483,24.718533,台铃电动车(安海成功店),福建省
人民西路与侨村路交叉口西北50米,龙海市,漳州市,117.812622,24.446815,台铃电动车(人民西路店),福建省
建设北路27-31号附近,长泰县,漳州市,117.761556,24.624362,台铃电动车(长泰永斌车行),福建省
胜利西路260号,芗城区,漳州市,117.630574,24.518619,台铃电动车(金峰专卖店),福建省
北大东路38号附近,连城县,龙岩市,116.761550,25.709866,台铃电动车(北大东路),福建省
海天路6之6号,湖里区,厦门市,118.093959,24.504284,台铃电动车店(湖里店),福建省
新将路与龟山西路交叉口东50米,将乐县,三明市,117.469921,26.735716,台铃电动车(龟山东路店),福建省
角美润福商城3-5号,龙海市,漳州市,117.903180,24.527926,台铃电动车(角美直营店),福建省
大同家园D幢22～23号店,芗城区,漳州市,117.655378,24.524424,台铃电动车(漳华路),福建省
国优路与金安西路交叉口南100米,连江县,福州市,119.533477,26.207039,台铃电动车(金安西路),福建省
泉安南路与社马路交叉口西南150米,晋江市,泉州市,118.551560,24.767063,台铃电动车(金福泰大厦南),福建省
