address,area,city,lat,lng,name,province
拉青东二路与波玛路交叉口西150米,堆龙德庆区,拉萨市,90.991418,29.628526,小刀电动车,西藏自治区
南郝庄瑞明路12号,昌平区,北京市,116.220001,40.214156,小刀电动车,北京市
建材城西路25号,海淀区,北京市,116.352270,40.061627,小刀电动车,北京市
崔各庄镇京旺家园四区北门底商,朝阳区,北京市,116.531152,40.012204,小刀电动车,北京市
朝内大街131-1号,东城区,北京市,116.425903,39.924704,小刀电动车(朝阳门店),北京市
梨园新华联南区怡乐北街底商12号,通州区,北京市,116.641916,39.888453,小刀电动车,北京市
狼垡村长丰园小区商业街,大兴区,北京市,116.286823,39.781946,小刀电动车(狼垡东路),北京市
潞苑南大街494号小刀车行(荟友居旁边),通州区,北京市,116.676787,39.929440,小刀电动车(通州区潞苑南大街分店),北京市
广渠门外大街北50米,朝阳区,北京市,116.453678,39.893881,小刀电动车,北京市
东四北大街与东四十三条交叉口西50米,东城区,北京市,116.416828,39.936262,小刀电动车,北京市
新华南路43号,通州区,北京市,116.657752,39.904766,小刀电动车通州总店,北京市
古城南路2号附近,石景山区,北京市,116.194062,39.913033,小刀电动车,北京市
冷泉路东50米,海淀区,北京市,116.223852,40.037515,小刀电动车,北京市
三间房高碑店双桥路康惠园5号院2号楼,朝阳区,北京市,116.578061,39.904043,小刀电动车(双桥路),北京市
立汤路511号附近,昌平区,北京市,116.414540,40.085061,小刀电动车,北京市
金盏乡金盏大街7号金榆商务楼附近(京客隆西),朝阳区,北京市,116.576609,40.002438,小刀电动车(金盏路店),北京市
沙河镇巩华城大街44号,昌平区,北京市,116.268261,40.125141,小刀电动车,北京市
沙河镇星星幼儿园旁,昌平区,北京市,116.325607,40.126692,小刀电动车,北京市
北苑东路与太歇路交叉口东150米,昌平区,北京市,116.443869,40.072602,小刀电动车,北京市
东大街与平沿路交叉口南50米,顺义区,北京市,116.700495,40.101461,小刀电动车,北京市
尚上路北50米,昌平区,北京市,116.321603,40.147556,小刀电动车,北京市
前街西一条5号东80米,顺义区,北京市,116.497872,40.171288,小刀电动车,北京市
宋庄村委会对面小刀电动车店,通州区,北京市,116.730080,39.947971,小刀电动车,北京市
天竺路与铁东街交叉口南50米,顺义区,北京市,116.567684,40.099179,小刀电动车,北京市
京密路与新南路交叉口北100米,密云区,北京市,116.843978,40.369995,小刀电动车(密云专卖店),北京市
拱辰南大街85号院附近,房山区,北京市,116.141886,39.727094,小刀电动车,北京市
漷县镇镇政府西行200米红绿灯,通州区,北京市,116.658186,39.831369,小刀电动车,北京市
中心东街与610乡道交叉口东50米,顺义区,北京市,116.642755,40.063665,小刀电动车,北京市
漷城路与漷马路交叉口西50米,通州区,北京市,116.789447,39.777616,小刀电动车,北京市
张采路旧线二与瓜厂路交叉口北150米,通州区,北京市,116.705019,39.845741,小刀电动车(瓜厂路),北京市
顺密路南50米,顺义区,北京市,116.779375,40.245175,小刀电动车(木林镇林业工作站西南),北京市
李桥镇南半壁店西一街112号,顺义区,北京市,116.631110,40.029995,小刀电动车,北京市
兴寿镇兴寿村731号,昌平区,北京市,116.415574,40.220255,小刀电动车,北京市
吴各庄路与窑管路交叉口东南50米,通州区,北京市,116.614425,40.024431,小刀电动车,北京市
李遂镇政府东,顺义区,北京市,116.758118,40.089694,小刀电动车,北京市
李桥镇沿河村邮局东侧50米,顺义区,北京市,116.716873,40.040087,小刀电动车,北京市
城关街道农林路祺兴缘底商1单元102号,房山区,北京市,115.984621,39.688065,小刀电动车(房山店),北京市
青礼路与黄徐路交叉口东北100米,大兴区,北京市,116.492861,39.617767,小刀电动车,北京市
文明大街与王家场西长街交叉口东100米,顺义区,北京市,116.710291,40.077485,小刀电动车,北京市
兴隆商业街143号附近,延庆区,北京市,115.901013,40.375079,小刀电动车,北京市
顾郑路东50米,房山区,北京市,115.964161,39.614480,小刀电动车(赵各庄路店),北京市
觅子店北口南200米,通州区,北京市,116.882122,39.715673,小刀电动车(觅子店店),北京市
房易路东50米,房山区,北京市,115.908741,39.611571,小刀电动车,北京市
府前街1-2附近,平谷区,北京市,117.124117,40.139533,小刀电动车,北京市
南湖一街与南湖二街交叉口东150米,顺义区,北京市,116.565515,40.134304,小刀电动车,北京市
长沟中学对面,房山区,北京市,115.903189,39.583454,小刀电动车,北京市
魏善庄镇天和利民农贸市场小刀电动车,大兴区,北京市,116.407086,39.667638,小刀电动车,北京市
北法信信中路五号,顺义区,北京市,116.612886,40.137608,小刀电动车,北京市
南开五马路41号,南开区,天津市,117.169898,39.129747,小刀电动车(南开五马路旗舰店),天津市
周牛路北50米,宝坻区,天津市,117.300125,39.523926,小刀电动车,天津市
华昌大街22号东盈园8号,河东区,天津市,117.229720,39.139716,小刀电动车(华昌道),天津市
津沽公路与雅润路交叉口东南200米,津南区,天津市,117.375976,39.003445,小刀电动车,天津市
盈江路盈江东里7号楼底商,南开区,天津市,117.136279,39.099095,小刀电动车(盈江路),天津市
无,河东区,天津市,117.225897,39.126753,小刀电动车,天津市
振华西道1号附近,武清区,天津市,117.056736,39.374870,小刀电动车,天津市
二纬二支路与杨北公路交叉口北150米,东丽区,天津市,117.389035,39.177531,小刀电动车(华明镇),天津市
西青道229号冬云里1号楼底商,西青区,天津市,117.119996,39.153026,小刀电动车(西青道辅路店),天津市
305省道附近,宝坻区,天津市,117.381236,39.449370,小刀电动车,天津市
榆关道,河北区,天津市,117.181608,39.177942,小刀电动车,天津市
双街新城龙顺道160号,北辰区,天津市,117.104067,39.260007,小刀电动车总代理,天津市
碧泉商务会馆旁龙武道45号,北辰区,天津市,117.112053,39.192163,小刀电动车(龙武道店),天津市
咸阳路与嘉陵道交口咸阳北里16号楼下底商,南开区,天津市,117.139082,39.126393,小刀电动车(嘉陵道),天津市
密云路53号昔阳南里底商,南开区,天津市,117.126662,39.132484,小刀电动车,天津市
精武镇荣华道8号,西青区,天津市,117.100257,39.033851,小刀电动车,天津市
靖江路金沙江里底商安徽板面王旁,河北区,天津市,117.246052,39.167257,小刀电动车,天津市
一纬路与合兴路交叉口西南100米,东丽区,天津市,117.368629,39.074881,小刀电动车,天津市
福海园14号楼底商,津南区,天津市,117.509956,38.991162,小刀电动车(葛沽红玲),天津市
杨柳青商贸街广汇商厦D座一楼14号,西青区,天津市,117.010935,39.138358,小刀电动车,天津市
梅厂镇北王平对面底商,武清区,天津市,117.205587,39.356500,小刀电动车,天津市
昆仑路昆仑北里A区,东丽区,天津市,117.273782,39.124606,小刀电动车(昆仑路辅路),天津市
东海街道枫林路11号小刀电动车黑底红线,河西区,天津市,117.256284,39.060644,小刀电动车(黑底红线),天津市
李七庄杨楼口津涞公路与香霞路交口向西10米,西青区,天津市,117.176953,39.062100,小刀电动车,天津市
静海镇东方红路东兴菜市场南门东150米,静海区,天津市,116.949882,38.932992,小刀电动车,天津市
蓟州区别山镇大市场里中段,蓟州区,天津市,117.499556,39.957763,小刀电动车,天津市
密云一支路与延安路交叉口西南150米,南开区,天津市,117.118509,39.129598,小刀电动车(密云一支路),天津市
旭源路与梨双路交叉口西150米,西青区,天津市,117.213108,39.030467,小刀电动车,天津市
沙高路48号附近,武清区,天津市,116.883642,39.636243,小刀电动车,天津市
辛口镇当城村,西青区,天津市,116.950314,39.091238,小刀电动车,天津市
长江北道10号附近,静海区,天津市,117.066403,38.837389,小刀电动车(长江道),天津市
南淮淀路北50米,宁河区,天津市,117.572839,39.260998,小刀电动车,天津市
津塘路207号振华里3号楼底商,东丽区,天津市,117.318092,39.090227,小刀电动车(津塘路辅路),天津市
换新街粮食大楼底商,宁河区,天津市,117.831426,39.335851,小刀电动车专卖店,天津市
双塘镇东双塘,静海区,天津市,116.920518,38.871768,小刀电动车(东双塘专卖),天津市
团静路与静王路交叉口西北100米,静海区,天津市,117.000612,38.898459,小刀电动车(团静路),天津市
杨崔公路西50米,武清区,天津市,117.193781,39.529548,小刀电动车(小劳专卖),天津市
独流镇三道街,静海区,天津市,116.911125,39.023534,小刀电动车,天津市
蓟州区津围公路与玉国路交叉口西南150米,蓟州区,天津市,117.422322,39.784756,小刀电动车(玉国路),天津市
蓟州区超前手机西胡同南100米路东,蓟州区,天津市,117.413146,40.038515,小刀电动车,天津市
林钟公路附近,宝坻区,天津市,117.570889,39.691955,小刀电动车,天津市
福滨二支路东50米,津南区,天津市,117.500312,38.986587,小刀电动车,天津市
沙庄路与陈庄新村路交叉口东150米,武清区,天津市,116.958322,39.618877,小刀电动车,天津市
蔡中路38号附近,静海区,天津市,117.120211,38.688601,小刀电动车,天津市
碧野新苑北临武静线,北辰区,天津市,117.033099,39.195119,小刀电动车,天津市
商业道2号,宁河区,天津市,117.831295,39.335911,小刀电动车(沿河路店),天津市
京福公路73号附近,静海区,天津市,116.929986,38.714261,小刀电动车(小街),天津市
蓟州区淋平公路北50米,蓟州区,天津市,117.715795,40.075786,小刀电动车,天津市
王口镇津文线天津农商银行西,静海区,天津市,116.745829,38.934189,小刀电动车,天津市
马江路与高双路交叉口东150米附近,宁河区,天津市,117.648157,39.423994,小刀电动车,天津市
曹子里镇工贸街59号,武清区,天津市,117.130987,39.415137,小刀电动车,天津市
蓟州区宝平公路与白宝路交叉口西北50米附近,蓟州区,天津市,117.251673,40.009616,小刀电动车,天津市
蓟州区仓桑路南50米,蓟州区,天津市,117.256926,39.908783,小刀电动车,天津市
于槐路东50米,宁河区,天津市,117.700227,39.421929,小刀电动车(大于专卖店),天津市
西翟庄乡西翟庄医院附近,静海区,天津市,117.010710,38.769440,小刀电动车,天津市
翠贾路北50米,蓟州区,天津市,117.422765,39.996834,小刀电动车,天津市
子牙镇团大线农村商业银行东南,静海区,天津市,116.770577,38.823520,小刀电动车(陈大公路店),天津市
丰崔路与团静路交叉口东南150米,静海区,天津市,117.008114,38.895355,小刀电动车,天津市
廊良公路北50米,武清区,天津市,116.870958,39.524008,小刀电动车(博雅轩小区西南),天津市
蓟州区京哈公路与西唐路交叉口西100米,蓟州区,天津市,117.261995,39.990712,小刀电动车(西唐路),天津市
蓟州区仓台路与仓桑路交叉口西北100米,蓟州区,天津市,117.386652,39.904256,小刀电动车(仓桑路),天津市
梁台路与静霸公路交叉口西北50米,静海区,天津市,116.791660,39.021947,小刀电动车,天津市
幸福路,西青区,天津市,117.210273,39.007355,小刀电动车,天津市
向阳西街57号正东方向74米,滨海新区,天津市,117.663559,39.025939,小刀双动力电动车,天津市
南城路158号,宝坻区,天津市,117.304193,39.723691,小岛电动车,天津市
三号路12号,红桥区,天津市,117.140370,39.184768,刀xdau小刀电动车,天津市
花园路314号,滨海新区,天津市,117.506082,38.724119,电动车,天津市
爱民东道与迎春路交叉口西南50米,广阳区,廊坊市,116.700076,39.526548,小刀电动车高端体验馆,河北省
河北路街道河北路与庆南道交叉口西行50米,路北区,唐山市,118.206808,39.690919,小刀,河北省
解放东路23-1号,新华区,沧州市,116.864512,38.306133,小刀电动车(建设南大道店),河北省
东岗路与谈固大街交口西行50米路北,裕华区,石家庄市,114.562011,38.016307,小刀电动车,河北省
经济技术开发区燕郊行宫西大街316号,三河市,廊坊市,116.803563,39.947929,小刀电动车(行宫西大街店),河北省
煤机街北宋路交叉口向东行100米路北,长安区,石家庄市,114.550582,38.044738,小刀电动车,河北省
翟营大街方兴路交口东行1000米路南(安苑B区),裕华区,石家庄市,114.563710,37.989716,小刀电动车,河北省
永济西路31号附近,运河区,沧州市,116.834065,38.328873,小刀电动车,河北省
裕华东路167-2号附近,长安区,石家庄市,114.555034,38.036662,小刀电动车,河北省
槐安西路246-6号,桥西区,石家庄市,114.439104,38.024153,小刀电动车,河北省
和平路新新家园楼下,邯山区,邯郸市,114.515291,36.600477,小刀电动车,河北省
长宁道祥丰里,路北区,唐山市,118.165795,39.667151,小刀电动车,河北省
中华北大街与柏林南路交叉口西50米,新华区,石家庄市,114.478163,38.071876,小刀电动车,河北省
竞秀区七一西路602号新市场北口,竞秀区,保定市,115.454768,38.881736,小刀电动车(七一西路),河北省
长兴街珍膳坊对面南行100米路西,桥西区,石家庄市,114.408552,38.053994,小刀电动车,河北省
信誉楼大街737号琨洋购物广场B1层,黄骅市,沧州市,117.352469,38.368393,小刀电动车,河北省
冶金北路与泉南西大街交叉口西100米,桥西区,邢台市,114.473410,37.082654,小刀电动车,河北省
光明南路与谊园道交叉口东150米,路南区,唐山市,118.136656,39.608932,小刀电动车,河北省
彭后街道槐安东路1号华夏商务酒店北侧底商,桥西区,石家庄市,114.494915,38.023571,小刀电动车(大经街),河北省
红旗大街595号西北100米,桥西区,石家庄市,114.460137,37.997994,小刀电动车,河北省
莲池区裕华东路474号附近,莲池区,保定市,115.523229,38.853131,小刀电动车,河北省
兼庄乡东环路与和平路交叉路口南行二百米路东,丛台区,邯郸市,114.540248,36.597320,小刀电动车,河北省
淑阳大街46-2附近,香河县,廊坊市,117.004563,39.759916,小刀电动车(淑阳大街店),河北省
城隍庙街永华园小区底商,莲池区,保定市,115.497901,38.861247,小刀电动车(西大街),河北省
唐山高新技术产业开发区庆南道35中300米路北,路北区,唐山市,118.199434,39.690438,小刀电动车,河北省
北二环东路入口与胜利北街交叉口南50米,长安区,石家庄市,114.515038,38.078803,小刀电动车,河北省
联盟路高中街高华路南行10米,新华区,石家庄市,114.469888,38.079254,小刀电动车,河北省
陵西大街55号西70米,丛台区,邯郸市,114.481938,36.605595,小刀电动车,河北省
先锋路与建设大街交叉口东北100米,复兴区,邯郸市,114.460379,36.616404,小刀电动车,河北省
富强大街5附近,裕华区,石家庄市,114.526395,38.024176,小刀电动车(怀特店),河北省
马庄,固安县,廊坊市,116.299381,39.437813,小刀电动车,河北省
建设大街与育才路交叉口东南50米,桥西区,邢台市,114.471082,37.053791,小刀电动车,河北省
南关大街274号,涿州市,保定市,115.971101,39.471418,小刀电动车,河北省
竞秀区天威西路655号附近,竞秀区,保定市,115.456455,38.861529,小刀电动车,河北省
兴华中路98附近,定州市,保定市,114.990898,38.520571,小刀电动车(兴华中路),河北省
清真寺街与357省道交叉口东50米,隆化县,承德市,117.727698,41.316598,小刀电动车,河北省
兴盛街与海政路路口南侧,海兴县,沧州市,117.501253,38.142380,小刀电动车,河北省
复兴路与福安街交叉口西50米,涿州市,保定市,116.007369,39.488395,小刀电动车,河北省
石坊路与靖宁街交叉口西北50米,肃宁县,沧州市,115.838463,38.431578,小刀电动车,河北省
永华街道西大街84号,莲池区,保定市,115.499740,38.860750,小刀电动车(西大街),河北省
丰收路南50米,长安区,石家庄市,114.551997,38.068910,小刀电动车,河北省
健康路11-付4号附近,长安区,石家庄市,114.515605,38.050496,小刀电动车,河北省
龙华镇银城百货(福馨家园附近),景县,衡水市,116.016500,37.602309,小刀车行,河北省
高新区黄河大道98号一山摩托城B座,裕华区,石家庄市,114.606755,38.042457,小刀电动车,河北省
港欣街西100米,乐亭县,唐山市,118.983837,39.235930,小刀电动车,河北省
和平东路530附近,长安区,石家庄市,114.564170,38.054279,小刀电动车,河北省
和平西路641号附近,新华区,石家庄市,114.417240,38.069536,小刀电动车,河北省
镇宁路164号附近,鹿泉区,石家庄市,114.323190,38.087978,小刀电动车,河北省
兴广南路15附近,广宗县,邢台市,115.145771,37.075561,小刀电动车,河北省
胜利西路1403号,桃城区,衡水市,115.653264,37.734677,小刀电动车(胜利路店),河北省
大陆村大一街南行100米路东,宁晋县,邢台市,115.051840,37.670736,小刀电动车,河北省
京广北大街与京广南大街交叉口北150米,高碑店市,保定市,115.861758,39.328479,小刀电动车(高碑店市公安医院东北),河北省
工业中横街36-24号,桥东区,张家口市,114.890465,40.794293,小刀电动车(工业东街),河北省
第三大街与106国道交叉口西北100米,文安县,廊坊市,116.368829,39.002006,小刀电动车,河北省
袁庄村,大厂回族自治县,廊坊市,116.982957,39.861471,小刀电动车,河北省
建明中路与谈固东街交叉口西北50米,长安区,石家庄市,114.570031,38.040453,小刀电动车,河北省
滦河大街双兴小区1号底商,双滦区,承德市,117.740920,40.955072,小刀电动车,河北省
112国道南50米,承德县,承德市,117.714037,40.756586,小刀电动车,河北省
西大陈村,辛集市,石家庄市,115.299801,37.986532,小刀电动车,河北省
邯馆公路与073乡道交叉口西100米,肥乡区,邯郸市,114.985481,36.556230,小刀电动车,河北省
邯钢路与浴新南大街交叉口南100米路西,邯山区,邯郸市,114.477204,36.589220,小刀电动车,河北省
兴华街11附近,鹿泉区,石家庄市,114.384378,38.035769,小刀电动车,河北省
复兴路176号,路南区,唐山市,118.210933,39.620498,小刀电动车(复兴路店),河北省
站南大街与635县道交叉口西南150米,北戴河区,秦皇岛市,119.411552,39.842240,小刀电动车,河北省
光明中路151附近,南皮县,沧州市,116.710007,38.039658,小刀电动车,河北省
无,内丘县,邢台市,114.587908,37.277481,小刀电动车,河北省
无极西路与英杰巷交叉口西50米,无极县,石家庄市,114.971375,38.177426,小刀电动车,河北省
无,迁安市,唐山市,118.635847,39.936258,小刀电动车,河北省
竞秀区,竞秀区,保定市,115.366726,38.864246,小刀电动车,河北省
沙口集乡邯大公路沙口集乡政府东侧附近,魏县,邯郸市,115.025420,36.304996,小刀电动车,河北省
南开街与振兴东路交叉口东南50米,曲周县,邯郸市,114.961642,36.773892,小刀电动车,河北省
后奕连接线北50米,永清县,廊坊市,116.484182,39.229418,小刀电动车,河北省
铁西南大街29附近,复兴区,邯郸市,114.469014,36.601750,小刀电动车,河北省
恒益通讯(古遂东路南),徐水区,保定市,115.541363,39.044852,小刀电动车,河北省
邱柳线附近,丰润区,唐山市,118.133705,39.840220,小刀电动车,河北省
开泰街61号西北100米,桥西区,石家庄市,114.432090,38.058863,小刀电动车,河北省
竞秀区春台路,满城区,保定市,115.396780,38.953432,小刀电动车,河北省
G107(京深线),沙河市,邢台市,114.507506,36.985581,小刀电动车,河北省
102国道北50米,海港区,秦皇岛市,119.436435,39.936058,小刀电动车,河北省
107国道西50米,邯山区,邯郸市,114.431305,36.475661,小刀电动车,河北省
魏家庄镇附近,隆尧县,邢台市,114.751689,37.284334,小刀电动车,河北省
七沟街南50米,平泉市,承德市,118.461409,41.003287,小刀电动车,河北省
回新线与308国道交叉口西北100米,赵县,石家庄市,114.719453,37.805250,小刀电动车,河北省
马大线,青县,沧州市,116.931391,38.652139,小刀电动车,河北省
凤中路与北新街交叉口南50米,高邑县,石家庄市,114.605969,37.604171,小刀电动车,河北省
106国道与313省道交叉口西北150米附近,大名县,邯郸市,115.234194,36.222795,小刀电动车,河北省
G205(山深线),盐山县,沧州市,117.332272,37.951980,小刀电动车,河北省
无,沧县,沧州市,117.012103,38.217659,小刀电动车,河北省
永泰路9巷14附近,裕华区,石家庄市,114.509142,37.980558,小刀电动车,河北省
商品街与111国道交叉口西南200米,隆化县,承德市,117.100008,41.579960,小刀电动车,河北省
玉兰东路与905县道交叉口东50米,临西县,邢台市,115.503383,36.859250,小刀电动车,河北省
城垣西路与长卿北街交叉口西100米,河间市,沧州市,116.079034,38.444080,小刀电动车(旗舰店),河北省
006乡道南50米,沙河市,邢台市,114.541775,36.954413,小刀电动车,河北省
沧河线南50米,沧县,沧州市,116.746904,38.335467,小刀电动车,河北省
商业街东50米,正定县,石家庄市,114.506682,38.189653,小刀电动车,河北省
泰元南大街33附近,易县,保定市,115.508732,39.344927,小刀电动车,河北省
栾城区X017(商品街),栾城区,石家庄市,114.572246,37.883380,小刀电动车,河北省
凤来大街与育才路交叉口西北50米,固安县,廊坊市,116.337116,39.220075,小刀电动车,河北省
任城镇老大街279,任县,邢台市,114.683976,37.123673,小刀电动车,河北省
永福庄乡二大队,任县,邢台市,114.714740,37.205719,小刀电动车,河北省
无,乐亭县,唐山市,119.190269,39.439263,小刀电动车,河北省
274乡道附近,青县,沧州市,116.918044,38.514624,小刀电动车,河北省
保新公路附近,清苑区,保定市,115.607112,38.836421,小刀电动车,河北省
定深线,定州市,保定市,115.089909,38.348285,小刀电动车,河北省
栾城区G308(青石线),栾城区,石家庄市,114.608052,37.921833,小刀电动车,河北省
003县道与039省道交叉口北200米,晋州市,石家庄市,115.140382,38.073248,小刀电动车,河北省
021乡道附近,任丘市,沧州市,116.201998,38.661168,小刀电动车,河北省
丛峰线附近,临漳县,邯郸市,114.525902,36.189096,小刀电动车,河北省
西城路37号附近,开平区,唐山市,118.263671,39.679637,小刀电动车,河北省
272省道西100米,大城县,廊坊市,116.596828,38.516516,小刀电动车,河北省
323省道北50米,邢台县,邢台市,113.939635,37.093394,小刀电动车,河北省
邯馆公路321附近,邯山区,邯郸市,114.600888,36.585811,小刀电动车,河北省
无,赵县,石家庄市,115.037570,37.757725,小刀电动车,河北省
商贸街103号附近,沧县,沧州市,117.057764,38.340331,小刀电动车,河北省
和平大街与海阳路交叉口西南100米,海港区,秦皇岛市,119.591959,39.935130,小刀电动车(和平大街店),河北省
宫村乡道与宫苏线交叉口西北50米,固安县,廊坊市,116.188918,39.443622,小刀电动车,河北省
栾城区三言路与阳光大道交叉口西100米,栾城区,石家庄市,114.595097,37.958108,小刀电动车,河北省
156县道北50米,复兴区,邯郸市,114.320711,36.483129,小刀电动车,河北省
324省道西50米,任县,邢台市,114.781584,37.245416,小刀电动车,河北省
河北村,肃宁县,沧州市,116.006821,38.388920,小刀电动车,河北省
民得利超市(马庄店),固安县,廊坊市,116.262313,39.192272,小刀电动车,河北省
龙泉东大街1095附近,邢台县,邢台市,114.548946,37.040620,小刀电动车,河北省
月城路金聚福便利店北侧,宁晋县,邢台市,114.926198,37.622631,小刀电动车(宁晋旗舰店),河北省
浮图店乡浮东一村派出所以北,鸡泽县,邯郸市,114.774615,36.887793,小刀电动车,河北省
栾城区008县道西50米,栾城区,石家庄市,114.658154,37.932113,小刀电动车,河北省
祺光大街1211号附近,迁安市,唐山市,118.694517,40.024796,小刀电动车,河北省
兴济镇阳光幼儿园旁,沧县,沧州市,116.897385,38.466216,小刀电动车,河北省
范董线南50米,丰南区,唐山市,118.193514,39.470506,小刀电动车,河北省
先锋路与复兴大街交叉口北200米,临西县,邢台市,115.684161,36.855586,小刀电动车,河北省
二十里铺112国道北,涞水县,保定市,115.622272,39.372046,小刀电动车,河北省
发展道与开放路交叉口西50米,曹妃甸区,唐山市,118.213273,39.244302,小刀电动车,河北省
望博线南50米,博野县,保定市,115.383474,38.529016,小刀电动车,河北省
030乡道东100米,魏县,邯郸市,114.800250,36.270354,小刀电动车,河北省
京深路东50米,涿州市,保定市,115.998696,39.563991,小刀电动车,河北省
南园街与新华南路交叉口西北50米,桥东区,邢台市,114.499392,37.059254,小刀电动车(新华南路),河北省
万嘉商贸园小百批发市场1-9-1,迁安市,唐山市,118.722171,40.027634,小刀电动车,河北省
318省道北50米,永年区,邯郸市,114.524175,36.805975,小刀电动车,河北省
曲周镇光明街南桥口468号,曲周县,邯郸市,114.949310,36.766799,小刀电动车,河北省
便民道与益昌中路交叉口西北100米,永清县,廊坊市,116.497582,39.312368,小刀电动车(永清旗舰店),河北省
从峰线与159乡道交叉口西100米,磁县,邯郸市,114.221116,36.286640,小刀电动车,河北省
易州镇金台西路93号,易县,保定市,115.498649,39.355804,小刀电动车,河北省
318省道新人民旁,永年区,邯郸市,114.578487,36.818475,小刀电动车,河北省
沧河线,沧县,沧州市,116.555325,38.382195,小刀电动车,河北省
京哈公路南50米,玉田县,唐山市,117.654990,39.905174,小刀电动车,河北省
杏花路与矿市南街交叉口东北100米,井陉矿区,石家庄市,114.061926,38.059658,小刀电动车,河北省
124乡道东100米,永年区,邯郸市,114.481808,36.781685,小刀电动车,河北省
162乡道与177乡道交叉口北150米,东光县,沧州市,116.744842,37.893572,小刀电动车,河北省
014乡道与112国道交叉口西北150米,遵化市,唐山市,117.978351,40.130291,小刀电动车,河北省
龙岗西大街与321省道交叉口南100米,邢台县,邢台市,114.463440,37.130384,小刀电动车,河北省
001县道与121乡道交叉口南100米,丛台区,邯郸市,114.671989,36.638420,小刀电动车,河北省
205国道西50米,盐山县,沧州市,117.374444,37.891365,小刀电动车,河北省
博望线北50米,望都县,保定市,115.291228,38.558021,小刀电动车,河北省
102国道北50米,迁安市,唐山市,118.581986,39.866115,小刀电动车,河北省
海河路大曹庄中学,宁晋县,邢台市,114.936802,37.558841,小刀电动车,河北省
S234(东兴街),宁晋县,邢台市,114.944958,37.548779,小刀电动车,河北省
303省道南50米,玉田县,唐山市,117.581300,39.837564,小刀电动车,河北省
工农路北100米,峰峰矿区,邯郸市,114.156845,36.481357,小刀电动车,河北省
299乡道东50米,沧县,沧州市,116.551384,38.283308,小刀电动车,河北省
车站南街060乡附近,正定县,石家庄市,114.625575,38.222393,小刀电动车,河北省
京哈公路北50米,玉田县,唐山市,117.608580,39.920472,小刀电动车,河北省
庄户高楼大街高楼镇政府东50米,三河市,廊坊市,116.873686,40.002356,小刀电动车,河北省
创业路与354县道交叉口北50米,易县,保定市,115.448358,39.227350,小刀电动车,河北省
顺城路152号附近,威县,邢台市,115.266064,36.980774,小刀电动车,河北省
007县道西50米,柏乡县,邢台市,114.705085,37.528087,小刀电动车,河北省
望远北街215号附近,魏县,邯郸市,114.932360,36.367358,小刀电动车,河北省
381省道西100米,任丘市,沧州市,116.005348,38.690125,小刀电动车,河北省
323省道南50米,邢台县,邢台市,114.419527,37.047428,小刀电动车,河北省
南环路附近,蠡县,保定市,115.763916,38.517240,小刀电动车,河北省
微水镇伊凡车行,井陉县,石家庄市,114.140815,38.035855,小刀电动车,河北省
邯临公路北50米,丛台区,邯郸市,114.667907,36.671522,小刀电动车,河北省
育才路与长安街交叉口东150米,武安市,邯郸市,114.233703,36.736610,小刀电动车,河北省
393省道附近,柏乡县,邢台市,114.749780,37.599988,小刀电动车,河北省
沧河线与331省道交叉口东150米,沧县,沧州市,116.637878,38.371463,小刀电动车,河北省
桃园街与桥西路交叉口西北50米,武安市,邯郸市,114.209875,36.687083,小刀电动车,河北省
西北贸易大街与201省道交叉口西南150米,灵寿县,石家庄市,114.320950,38.457036,小刀电动车,河北省
迎宾路与034省道交叉口西150米,柏乡县,邢台市,114.656104,37.479357,小刀电动车,河北省
临水镇一矿加油站北行50米路东,峰峰矿区,邯郸市,114.212074,36.448648,小刀电动车,河北省
华兴路与聚贤街交叉口西南100米,滦平县,承德市,117.336899,40.933551,小刀电动车,河北省
141乡道与315省道交叉口东150米,邯山区,邯郸市,114.478157,36.462119,小刀电动车,河北省
牌坊路与贸易街交叉口西100米,涉县,邯郸市,113.668432,36.560766,小刀电动车,河北省
新华北路61号附近,馆陶县,邯郸市,115.287772,36.541707,小刀电动车,河北省
宁丰路218号南60米,丰宁满族自治县,承德市,116.644248,41.214276,小刀电动车,河北省
邯临公路南50米,丛台区,邯郸市,114.707782,36.673271,小刀电动车,河北省
312省道东50米,武安市,邯郸市,114.127714,36.731051,小刀电动车,河北省
邯临公路南50米邯郸经济技术开发区第三中学附近,丛台区,邯郸市,114.593619,36.663511,小刀电动车,河北省
234省道西50米,宁晋县,邢台市,115.003128,37.444593,小刀电动车,河北省
垦丰大街48-3号,曹妃甸区,唐山市,118.453909,39.272294,小刀电动车(垦丰大街),河北省
西未庄乡中医院西行500米路北,大名县,邯郸市,115.118638,36.294118,小刀电动车,河北省
兴贸路南50米,定州市,保定市,115.114287,38.602643,小刀电动车,河北省
东环街与邯临公路交叉口东北50米,丛台区,邯郸市,114.631833,36.668425,小刀电动车,河北省
人民西路与建新北街交叉口东50米,广平县,邯郸市,114.945195,36.482533,小刀电动车(广平专卖店),河北省
留楚村,饶阳县,衡水市,115.835023,38.176542,小刀电动车,河北省
从峰线与046乡道交叉口西50米,大名县,邯郸市,115.209852,36.290831,小刀电动车,河北省
顺平街9号附近,魏县,邯郸市,114.932001,36.310971,小刀电动车,河北省
宁司线,宁晋县,邢台市,115.099487,37.754466,小刀电动车,河北省
满城区燕赵北街与玉川西路交叉口北150米,满城区,保定市,115.323595,38.952927,小刀电动车,河北省
S313(团大线),大城县,廊坊市,116.679584,38.801873,小刀电动车,河北省
梁北路与382省道交叉口西50米,肃宁县,沧州市,115.976412,38.425812,小刀电动车,河北省
雾灵街天路PVC管专卖北30米路西,兴隆县,承德市,117.514760,40.439875,小刀电动车,河北省
机场路58号藁盛机动车检测站附近,藁城区,石家庄市,114.741370,38.156075,小刀电动车,河北省
复兴路南50米,徐水区,保定市,115.440163,39.060503,小刀电动车,河北省
邯邰镇信用社东邻路北58米,新乐市,石家庄市,114.845942,38.318266,小刀电动车,河北省
102国道金鼎御园小区(安馨丽景东北),大厂回族自治县,廊坊市,116.909768,39.952815,小刀电动车,河北省
283省道西50米,盐山县,沧州市,117.141165,37.859013,小刀电动车,河北省
353省道南50米,滦平县,承德市,117.000111,40.892255,小刀电动车,河北省
美好家园西南80米(大名府路南),大名县,邯郸市,115.171189,36.281295,小刀电动车,河北省
205国道东50米,抚宁区,秦皇岛市,119.289427,39.776140,小刀电动车,河北省
广平镇老工商局南288米路西,广平县,邯郸市,114.948159,36.474711,小刀电动车(广平专卖店),河北省
赵佗路菜市场A7,新华区,石家庄市,114.489313,38.094285,小刀电动车(赵佗路专卖店),河北省
新华南街206号附近,巨鹿县,邢台市,115.036334,37.212019,小刀电动车,河北省
321省道东50米,邢台县,邢台市,114.315244,37.210357,小刀电动车,河北省
建业路与装院路交叉口南150米,元氏县,石家庄市,114.405978,37.870308,小刀电动车,河北省
106国道西50米,任丘市,沧州市,116.074275,38.596319,小刀电动车,河北省
兴堡西街40号附近,魏县,邯郸市,114.830754,36.330624,小刀电动车,河北省
102国道南50米,迁安市,唐山市,118.669793,39.864983,小刀电动车,河北省
无,定州市,保定市,115.245544,38.523980,小刀电动车,河北省
贤寓镇贤寓村,定兴县,保定市,115.615364,39.177820,小刀电动车,河北省
324省道与806乡道交叉口东北100米,故城县,衡水市,116.096153,37.390296,小刀电动车,河北省
曲新公路北50米,曲阳县,保定市,114.710388,38.529953,小刀电动车,河北省
楼118楼,古冶区,唐山市,118.452607,39.716401,小刀电动车,河北省
大尚屯后街道口,霸州市,廊坊市,116.343499,39.178899,小刀电动车,河北省
郭新线西50米,玉田县,唐山市,117.538599,39.902707,小刀电动车,河北省
清州镇104国道与新华路交叉口西行20米路南(奔驰摩托车行旁),青县,沧州市,116.833152,38.579125,小刀电动车,河北省
城南大街10号,滦南县,唐山市,118.679139,39.507927,小刀电动车,河北省
102国道南50米,丰润区,唐山市,117.939489,39.875081,小刀电动车,河北省
昌泰路与107国道交叉口东北150米,正定县,石家庄市,114.656488,38.290623,小刀电动车,河北省
251省道东50米,海港区,秦皇岛市,119.529312,40.023049,小刀电动车,河北省
滦州市杨柳庄北加油站北140米(迁曹线北),滦州市,唐山市,118.385622,39.921092,小刀电动车,河北省
京华东道与城乡路交叉口西150米,古冶区,唐山市,118.488076,39.751191,小刀电动车,河北省
翠微路与裘都金街交叉口北150米,肃宁县,沧州市,115.813570,38.491238,小刀电动车,河北省
三抚线与景忠南路交叉口北150米,迁西县,唐山市,118.208758,40.214904,小刀电动车,河北省
昌盛西街与西苑北路交叉口西北150米,阳原县,张家口市,114.163733,40.115139,小刀电动车,河北省
帮宽线北50米,遵化市,唐山市,118.039249,40.184687,小刀电动车,河北省
308国道与709乡道交叉口东南150米,清河县,邢台市,115.739433,37.022361,小刀电动车,河北省
264省道东50米,遵化市,唐山市,117.891309,40.070166,小刀电动车,河北省
彭李线彭店子初级中学南400米,迁安市,唐山市,118.844257,39.918663,小刀电动车,河北省
百乐购物广场连锁店1楼,莲池区,保定市,115.499275,38.842624,小刀电动车(莲池南大街店),河北省
新开路与956县道交叉口南200米,藁城区,石家庄市,114.771587,38.099716,小刀电动车,河北省
平东线北50米,遵化市,唐山市,117.792723,40.054485,小刀电动车,河北省
京开道新华路,任丘市,沧州市,116.104054,38.704728,小刀电动车,河北省
100乡道西50米,滦南县,唐山市,118.711918,39.604175,小刀电动车,河北省
通华西街德力宏达机械北30米,遵化市,唐山市,117.911465,40.182370,小刀电动车,河北省
325省道与永泰街交叉口东100米,平乡县,邢台市,115.024668,37.062783,小刀电动车(中华小区南),河北省
318省道南50米,永年区,邯郸市,114.646648,36.838631,小刀电动车,河北省
杨柏线西50米,滦州市,唐山市,118.524671,39.791023,小刀电动车,河北省
兴华西路与民建北街交叉口东北150米,张北县,张家口市,114.710926,41.158227,小刀电动车(泰恒小区东北),河北省
302省道北50米,正定县,石家庄市,114.670303,38.156315,小刀电动车,河北省
赵各庄镇保静线澎耳湾村学校西400米,文安县,廊坊市,116.351564,38.892266,小刀电动车,河北省
团结胡同与振兴道交叉口东50米,霸州市,廊坊市,116.653570,39.145943,小刀电动车,河北省
102国道南100米,滦州市,唐山市,118.350396,39.836221,小刀电动车,河北省
三堡街与滨河西路交叉口西100米,怀来县,张家口市,115.527635,40.398128,小刀电动车,河北省
建设街58号,邱县,邯郸市,115.170436,36.818719,小刀电动车,河北省
南关西大街与铁南街交叉口西50米,玉田县,唐山市,117.757691,39.882727,小刀电动车(玉田专卖店),河北省
津保西路南50米,大城县,廊坊市,116.452358,38.705547,小刀电动车,河北省
燕赵大街与167乡道交叉口南150米,曲阳县,保定市,114.813772,38.554453,小刀电动车,河北省
荣国南大路95号,丰润区,唐山市,118.128395,39.812799,小刀电动车(大悦新城店),河北省
柴沟堡镇柴怀路盛世锦苑南150米,怀安县,张家口市,114.425905,40.660922,小刀电动车,河北省
北二环赵陵路中国工商银行对面,新华区,石家庄市,114.475043,38.095442,小刀电动车(北郡店),河北省
无,定州市,保定市,114.853823,38.474660,小刀电动车,河北省
南海西路26-6号,山海关区,秦皇岛市,119.761023,39.998610,小刀电动车,河北省
兴贸路亿客隆旁,定州市,保定市,115.052883,38.607391,小刀电动车,河北省
华山道与长江路交叉口东北50米,吴桥县,沧州市,116.390496,37.626376,小刀电动车,河北省
南园街与新华南路交叉口西北100米,桥东区,邢台市,114.498893,37.057078,小刀电动车(邢台现代生殖医院南),河北省
309国道南50米,武安市,邯郸市,114.098849,36.651192,小刀电动车,河北省
042乡道与331省道交叉口西150米,河间市,沧州市,116.493126,38.389220,小刀电动车,河北省
329省道西50米,沙河市,邢台市,114.068056,36.991731,小刀电动车,河北省
流河镇政府南80米(381省道北),青县,沧州市,116.853945,38.690314,小刀电动车,河北省
昌盛街与胜利东路交叉口北100米,藁城区,石家庄市,114.952152,37.871027,小刀电动车,河北省
迁徐线南50米,迁安市,唐山市,118.772774,40.048088,小刀电动车,河北省
杨店子镇彭李线汇丰园大酒店南150米,迁安市,唐山市,118.577850,40.007550,小刀电动车,河北省
京白路与新兴路交叉口东100米,高碑店市,保定市,115.992661,39.324772,小刀电动车,河北省
北河车站街130号,定兴县,保定市,115.764227,39.212786,小刀电动车,河北省
新凯迪购物中心(魏县双井镇政府东南)附近,魏县,邯郸市,114.978760,36.224885,小刀电动车,河北省
383省道南50米,南皮县,沧州市,116.992035,37.869430,小刀电动车,河北省
294乡道西50米,迁安市,唐山市,118.643407,40.096429,小刀电动车,河北省
蛇刘线西50米,卢龙县,秦皇岛市,118.931116,40.049732,小刀电动车,河北省
换马店村,宁晋县,邢台市,114.853323,37.686880,小刀电动车,河北省
东王镇卫生院附近,新乐市,石家庄市,114.892054,38.320912,小刀电动车,河北省
263省道南50米,丰南区,唐山市,118.338768,39.421227,小刀电动车,河北省
华燕商厦东90米(时景线南),河间市,沧州市,116.294674,38.489173,小刀电动车,河北省
平山镇冶河东路73号中山广场,平山县,石家庄市,114.203678,38.257959,小刀电动车,河北省
世纪大道与204省道交叉口南100米附近,藁城区,石家庄市,114.733120,38.009415,小刀电动车,河北省
054县道与234省道交叉口东150米,无极县,石家庄市,114.973057,38.242630,小刀电动车,河北省
涉城镇牌坊路实验小学斜对面,涉县,邯郸市,113.671428,36.559157,小刀电动车,河北省
河坡街与龙泉路交叉口东南100米附近,阳原县,张家口市,114.158132,40.105675,小刀电动车(阳原旗舰店),河北省
镇大街24,赤城县,张家口市,115.579128,40.785538,小刀电动车,河北省
新华街222号,泊头市,沧州市,116.571603,38.072850,小刀电动车(新华街),河北省
215省道(河北省魏县张二庄乡第二卫生院西南),魏县,邯郸市,114.992673,36.105241,小刀电动车,河北省
临漳镇邺都大街与南二环交叉口东行50米路南,临漳县,邯郸市,114.613985,36.331222,小刀电动车(江春苑店),河北省
454县道北100米,怀安县,张家口市,114.423797,40.667549,小刀电动车(怀安店),河北省
新北街7号附近,容城县,保定市,115.865906,39.063665,小刀电动车(新北街),河北省
燕赵南大街108号华阳东门对过,正定县,石家庄市,114.571612,38.145107,小刀电动车(燕赵南大街),河北省
裕华中路35-17号,任丘市,沧州市,116.103051,38.710758,小刀电动车(裕华中路),河北省
复兴路92号附近,复兴区,邯郸市,114.469769,36.607684,小刀电动车(复兴路店),河北省
漕河镇前进路南庞世纪新城,徐水区,保定市,115.537228,38.944307,小刀电动车(南庞村专卖店),河北省
复兴北街与复兴南街交叉口西150米,望都县,保定市,115.144912,38.709325,小刀电动车(中华西路),河北省
邯馆公路343号附近,邯山区,邯郸市,114.596196,36.586403,小刀电动车(代召店),河北省
301县道北150米,高碑店市,保定市,115.992055,39.322803,小刀电动车(方官店),河北省
S272(廊崔线),文安县,廊坊市,116.694695,39.024934,小刀电动车(劳保店),河北省
平安路60号附近,易县,保定市,115.284452,39.134216,小刀电动车(山北分店),河北省
雄白路与220乡道交叉口东150米附近,雄县,保定市,116.083456,39.021585,小刀电动车(雄白路),河北省
豪门路西100米,玉田县,唐山市,117.666551,39.849964,小刀电动车(林南仓东六小区西南),河北省
定曲路南50米,曲阳县,保定市,114.755857,38.622182,小刀电动车(大赵邱专卖店),河北省
361省道(秀伟卫生所西),丰润区,唐山市,117.955805,39.643968,小刀电动车(秀伟卫生所西),河北省
兴城镇喜峰中路骏安2号小区附近,迁西县,唐山市,118.306208,40.149761,小刀电动车(骏安2号小区店),河北省
地税内大孟税务分局,内丘县,邢台市,114.486917,37.226153,小刀电动车(大孟专卖店),河北省
高尔夫大道南50米,涿州市,保定市,115.956660,39.485125,小刀电动车(高尔夫大道),河北省
兴文道165号,文安县,廊坊市,116.469469,38.866245,小刀电动车(兴文道),河北省
新华路与809县道交叉口西100米,清河县,邢台市,115.591305,37.024821,小刀电动车(王官庄专卖店),河北省
034乡道南50米,高碑店市,保定市,115.918018,39.322842,小刀电动车(张八屯专卖店),河北省
建设东道532号,霸州市,廊坊市,116.401566,39.111825,小刀电动车(建设东道店),河北省
人民南街8号,涿鹿县,张家口市,115.216455,40.370462,小刀电动车(人民南街),河北省
韩城万都国际附近,丰润区,唐山市,118.047553,39.638261,小刀电动车(韩城专卖店),河北省
黄各庄镇胥涧线惠祥园东北400米,丰南区,唐山市,118.142270,39.488572,小刀电动车(惠祥园店),河北省
信誉楼大街737号琨洋购物广场B1层,黄骅市,沧州市,117.350979,38.365101,小刀电动车(琨洋购物广场),河北省
兴发街与新园街交叉口东南100米,晋州市,石家庄市,115.062816,38.021903,小刀电动车(兴发街店),河北省
金台西路43号,容城县,保定市,115.864020,39.051510,小刀电动车(金台西路店),河北省
258乡道南50米,丰润区,唐山市,118.102981,39.711903,小刀电动车(占山专卖店),河北省
唐王线北50米,唐县,保定市,115.008623,38.664361,小刀电动车(唐王线),河北省
新河镇新兴街,新河县,邢台市,115.244119,37.523929,小刀电动车(飞鸽三轮专卖店),河北省
383省道南50米,南皮县,沧州市,116.940742,37.851914,小刀电动车(南皮县总代理),河北省
长安路139号附近,定州市,保定市,114.887430,38.559260,小刀电动车(孟家庄店),河北省
坛山西路73号附近,赞皇县,石家庄市,114.390233,37.663993,小刀电动车(赞皇县交通运输局西南),河北省
建华大街永安里(滦县卫生学校西南200米),滦州市,唐山市,118.694497,39.748360,小刀电动车(建华大街),河北省
凤凰大街与327省道交叉口东150米,巨鹿县,邢台市,115.179912,37.360837,小刀电动车(团城专卖店),河北省
089乡道明月店村,定州市,保定市,114.898262,38.455488,小刀电动车(明月店),河北省
382省道南50米,定州市,保定市,115.223354,38.462338,小刀电动车(旭苑新村东南),河北省
世纪商贸城,任丘市,沧州市,116.095620,38.689420,小刀电动车(商贸城专卖店),河北省
王林口大街61号附近,阜平县,保定市,114.350257,38.822201,小刀电动车(205乡道店),河北省
东寺大街43附近,阜平县,保定市,114.206105,38.843875,小刀电动车(万金家园东北),河北省
葛杨线与102国道交叉口西北100米,滦州市,唐山市,118.419528,39.864138,小刀电动车(葛杨线),河北省
东华路与王快北街交叉口东南50米,邢台县,邢台市,114.571317,37.025413,小刀电动车(王快北街店),河北省
迎宾中街048号,清苑区,保定市,115.496081,38.764772,小刀电动车(迎宾中街店),河北省
蠡吾南大街323号,蠡县,保定市,115.581484,38.492001,小刀电动车(蠡吾南大街),河北省
西合营,蔚县,张家口市,114.765636,39.945092,小刀电动车(西合营小余旗舰店),河北省
南大路3号,乐亭县,唐山市,118.911656,39.424028,小刀电动车(南大路店),河北省
326省道南50米,邢台县,邢台市,114.602315,37.028376,小刀电动车(河金店),河北省
满城区保阜路与336省道交叉口东150米,满城区,保定市,115.302841,38.869781,小刀电动车(韩村天瑞专卖店),河北省
010县道东50米,元氏县,石家庄市,114.522289,37.685344,小刀电动车(东正直营店),河北省
靖远西路南50米,盐山县,沧州市,117.234283,38.056778,小刀电动车(靖远西路),河北省
东一高线与112线路交叉口东50米,高碑店市,保定市,115.948489,39.265817,小刀电动车(梁家营专卖店),河北省
南陈路南50米,泊头市,沧州市,116.404457,38.093965,小刀电动车(寺门村小刀专卖),河北省
234省道东50米,巨鹿县,邢台市,115.058414,37.343684,小刀电动车(巨鹿官亭医院南),河北省
文昌北路与文昌路交叉口西100米,清河县,邢台市,115.670403,37.063584,小刀电动车(文昌路),河北省
新华西街与新风南路交叉口西150米,大城县,廊坊市,116.636493,38.693957,小刀电动车(市场街),河北省
902乡道北50米,大城县,廊坊市,116.525069,38.625650,小刀电动车(广安专卖店),河北省
凤凰街与宋璟路交叉口北100米,沙河市,邢台市,114.500215,36.866425,小刀电动车(凤凰街),河北省
东一高线与市场街交叉口东50米,高碑店市,保定市,116.086048,39.272248,小刀电动车(辛桥店),河北省
151乡道与302省道交叉口西150米,南皮县,沧州市,116.927184,38.001168,小刀电动车(振华专卖店),河北省
天马大街中段,抚宁区,秦皇岛市,119.245439,39.885008,小刀电动车(骊城龙园店),河北省
202省道北50米,武安市,邯郸市,113.904826,36.731357,小刀电动车(阳邑镇财政所东),河北省
中兴东大街189号物美百货1层,桥东区,邢台市,114.507825,37.063582,小刀电动车(府前南街店),河北省
香港路158号,行唐县,石家庄市,114.563012,38.441989,小刀电动车(行唐专卖店),河北省
朝阳路芳兴胡同与朱家街交叉口西南50米,涞水县,保定市,115.715040,39.387707,小刀电动车(公安街),河北省
滏阳西路108号附近,峰峰矿区,邯郸市,114.182705,36.420978,小刀电动车(三和路),河北省
001乡道东50米,任丘市,沧州市,116.379230,38.740111,小刀电动车(长丰专卖店),河北省
后街与魏留线交叉口西南50米,大城县,廊坊市,116.500417,38.686885,小刀电动车(广安专卖店),河北省
饶阳镇人民东路17号,饶阳县,衡水市,115.730535,38.235519,小刀电动车(人民东路店),河北省
313省道附近,大名县,邯郸市,115.426207,36.225691,小刀电动车(北峰专卖),河北省
北门外路与滨河大街交叉口西北50米,卢龙县,秦皇岛市,118.877284,39.889810,小刀电动车(永平大街),河北省
雄昝路39号,雄县,保定市,116.107166,38.986612,小刀电动车(雄县专卖店),河北省
马陡路跃华新楼商业楼3号,开平区,唐山市,118.248548,39.705199,小刀电动车(唐马路店),河北省
站南大街与635县道交叉口西南150米,北戴河区,秦皇岛市,119.413140,39.843807,小刀电动车(站南大街),河北省
通华西街46号附近,遵化市,唐山市,117.961307,40.187647,小刀电动车(遵化旗舰店),河北省
鲜虞街35号,新乐市,石家庄市,114.691468,38.345571,小刀电动车(鲜虞街),河北省
孙禄堂东街与永禄大街交叉口东北50米,顺平县,保定市,115.140021,38.845235,小刀电动车(永禄大街店),河北省
326省道北50米,平乡县,邢台市,114.915612,36.976773,小刀电动车(平乡镇人民政府南),河北省
长大线北50米,滦南县,唐山市,118.509598,39.443273,小刀电动车(长大线),河北省
363省道北50米,卢龙县,秦皇岛市,118.935109,40.109005,小刀电动车(中共卢龙县刘家营乡委员会东),河北省
永兴路徐水小学东行50米路南,徐水区,保定市,115.654184,39.018385,小刀电动车(仁昌胡同),河北省
保大北路与保大南路交叉口南100米,武强县,衡水市,115.968399,38.038994,小刀电动车(武强店),河北省
永安大街45号,深州市,衡水市,115.550185,38.008877,小刀电动车(永安大街),河北省
人民中街与西关路交叉口南50米,涿鹿县,张家口市,115.216096,40.371772,小刀电动车(人民南街),河北省
鑫泽小区(张家口市万全区中医院东),万全区,张家口市,114.732858,40.756934,小刀电动车(万全旗舰店),河北省
冀州镇和平西路65号美食节南口,冀州区,衡水市,115.576314,37.546666,小刀电动车(美食街店),河北省
市场北路县医院北300米,平泉市,承德市,118.694537,41.010572,小刀电动车(榆州中路),河北省
昌盛大路和景福街的交叉口附近,迁安市,唐山市,118.697239,40.012520,小刀电动车(昌盛大路),河北省
新开路与采留线交叉口东南150米,霸州市,廊坊市,116.493094,39.039118,小刀电动车(汇丰街),河北省
胜利东街与胜利街交叉口东南150米,丰宁满族自治县,承德市,116.648142,41.210887,小刀电动车(宁丰路),河北省
272省道西50米,文安县,廊坊市,116.690554,39.009594,小刀电动车(安里屯专卖店),河北省
天使大道与昝西大街交叉口南100米,雄县,保定市,116.199712,39.054283,小刀电动车(昝西大街店),河北省
槐阳镇蟠龙路56-11号,元氏县,石家庄市,114.535031,37.758534,小刀电动车(蟠龙路),河北省
赵州镇建设路宝宝秀双语幼儿园北100米,赵县,石家庄市,114.769072,37.751125,小刀电动车(赵县店),河北省
邯邢路与政府街交叉口处南行,永年区,邯郸市,114.485484,36.775679,小刀电动车(豪雅花园西北),河北省
兴华中路与兴华西路交叉口西100米,定兴县,保定市,115.791231,39.271557,小刀电动车(兴华西路店),河北省
兴阳路204附近,高阳县,保定市,115.777349,38.689478,小刀电动车(高阳专卖店),河北省
桥西路69附近,武安市,邯郸市,114.206565,36.688439,小刀电动车(桥西路),河北省
葛仙庄镇嵩山路滨江花园南,清河县,邢台市,115.675568,37.053134,小刀电动车售后,河北省
石清路南50米,鹿泉区,石家庄市,114.349566,38.197945,小刀电动车(李村专卖店),河北省
中山西路100-2号,磁县,邯郸市,114.380199,36.360645,小刀电动车(中山西路),河北省
无,沧县,沧州市,116.757107,38.301388,小刀电动车专卖店,河北省
南街与051乡道交叉口南100米,邢台县,邢台市,114.609579,37.121846,小刀电动车专卖店,河北省
小北线与李杜线交叉口东50米,沧县,沧州市,117.009704,38.485395,小刀电动车专卖店,河北省
丰登路西50米,丰润区,唐山市,117.923125,39.696498,小刀电动车专卖(唐山丰润店),河北省
西曾线附近,滦南县,唐山市,118.527231,39.304670,小刀电动车专卖(柏各庄分店),河北省
财神庙商业区西区1楼,宣化区,张家口市,115.061572,40.610987,科迅小刀电动车,河北省
386乡道西150米,丰南区,唐山市,118.084818,39.268617,小刀电动车专卖,河北省
308国道与403乡道交叉口东南150米,宁晋县,邢台市,115.074633,37.518648,小刀电动车艾(辛庄专卖店),河北省
东一高线附近,高碑店市,保定市,115.973218,39.248098,小刀电动车新城店(江苏宗申电动三轮车专卖新城店),河北省
大马圈村文明路39号,赵县,石家庄市,115.012536,37.841647,小刀电动车经销处,河北省
006乡道南50米,沙河市,邢台市,114.553642,36.954792,小刀电动车三轮车,河北省
兴华北街3-1号附近,博野县,保定市,115.460547,38.457702,小刀双电动车,河北省
东大线束城镇政府西100米,河间市,沧州市,116.389799,38.537617,小刀电动车景路车业(第4s旗舰店),河北省
新华路56号,黄骅市,沧州市,117.354749,38.369918,小刀电动车旗舰店,河北省
河渠镇,宁晋县,邢台市,114.833748,37.596759,河渠小刀电动车专卖店,河北省
119乡道北50米,泊头市,沧州市,116.359657,38.149316,小刀电动车营子专卖店,河北省
兴隆道附近,丰润区,唐山市,118.040171,39.639256,云海车业小刀电动车专卖,河北省
312省道和西环路交叉口西南角,武安市,邯郸市,114.162874,36.713380,小刀电动车金彭三轮车,河北省
457县道北50米,涿鹿县,张家口市,115.443592,40.220787,小刀双动力电动车,河北省
钢铁南路附近,沙河市,邢台市,114.470726,36.988125,李飞车业洛阳小刀电动车,河北省
建明镇洪火线圣地亚购物广场西北,遵化市,唐山市,118.114728,40.191139,小刀双动力电动车,河北省
古遂西路与张华路交叉口东150米,徐水区,保定市,115.528430,39.046179,小刀双动力电动车(强玛电动车),河北省
临漳镇邺都大街与南二环交叉口东行50米路南,临漳县,邯郸市,114.614657,36.331555,小刀城市休闲车,河北省
东兴南大街与光明中路交叉口东100米,南皮县,沧州市,116.712023,38.039201,小刀双动力电动车,河北省
和阳镇建设大街上园宾馆(怡和花园附近),南和县,邢台市,114.692700,37.007882,小刀双动力电动车(建设大街),河北省
魏城镇望远北街101号,魏县,邯郸市,114.932648,36.364177,小刀双动力电动车(魏县专卖店),河北省
更新大街28号附近,玉田县,唐山市,117.863262,39.752201,小刀双动力电动车,河北省
人民东路113号,灵寿县,石家庄市,114.392059,38.309500,小刀双动力电动车(人民东路店),河北省
板城大街与板城东大街交叉口东北150米,承德县,承德市,118.184180,40.776514,喜子小刀电动车宏达专卖,河北省
牌楼北大街与鼓楼后街交叉口南150米,蔚县,张家口市,114.571892,39.842560,大江电动三轮小刀专卖店,河北省
城南街22号附近,丛台区,邯郸市,114.486703,36.605445,小刀电动车售后服务中心,河北省
袁庄村271省道东利华家具城旁边,大厂回族自治县,廊坊市,116.982992,39.861444,兴达车行,河北省
光明路与语录街交叉口东北200米,承德县,承德市,118.192296,40.779389,豪爵铃木小刀电动车专卖店,河北省
围村北路与204省道交叉口南150米,藁城区,石家庄市,114.743120,38.219277,小刀电动车福乐美电动三轮车,河北省
234省道西50米,宁晋县,邢台市,114.992545,37.450785,万达车业宁晋旗舰店,河北省
232省道下河乡政府,曲阳县,保定市,114.755462,38.692609,明亮车业小刀电动车,河北省
325省道北50米,邢台县,邢台市,114.607537,37.077453,小刀电动车专卖店(邢台改平医院东),河北省
东赵路与尧都路交叉口东北150米,尧都区,临汾市,111.514189,36.065585,小刀电动车(福利路店),山西省
永泰南路东信国际8栋,平城区,大同市,113.301735,40.050976,小刀电动车(东信国际店),山西省
和平南路325号附近,晋源区,太原市,112.504859,37.817020,小刀电动车,山西省
延和路与昌荣街交叉口西100米,平城区,大同市,113.279282,40.054446,小刀电动车,山西省
王村南街电动车大卖场北通道,小店区,太原市,112.569321,37.831139,小刀电动车,山西省
东大街与荣军南街交叉口西北50米,小店区,太原市,112.592936,37.780232,小刀电动车,山西省
长风街68号33附近,小店区,太原市,112.582321,37.817263,小刀电动车,山西省
太榆路82号附近,小店区,太原市,112.592928,37.798129,小刀电动车,山西省
南沙河北沿岸与郝庄兴业路交叉口西50米,迎泽区,太原市,112.592524,37.848563,小刀电动车,山西省
五龙口街与黑土巷中横马路交叉口西100米,迎泽区,太原市,112.594117,37.864767,小刀电动车,山西省
昌盛西街与真武路交叉口北100米,小店区,太原市,112.575871,37.736087,小刀电动车,山西省
步行街与纺织东巷交叉口东南100米,侯马市,临汾市,111.383264,35.623986,小刀电动车,山西省
真武路158号附近,小店区,太原市,112.575445,37.728761,小刀电动车,山西省
新市西街1367号金厦银座,城区,晋城市,112.839922,35.499696,小刀电动车,山西省
环城北路与西大街交叉口西北50米,榆次区,晋中市,112.671565,37.759213,小刀电动车,山西省
同泉里后街16号楼,平城区,大同市,113.273528,40.090507,小刀电动车,山西省
新建路16号附近,昔阳县,晋中市,113.706230,37.602749,小刀电动车,山西省
建设北路与西街交叉口西150米,襄垣县,长治市,113.046102,36.534369,小刀电动车,山西省
西峪街17号北堰综合市场,晋源区,太原市,112.504384,37.809654,小刀电动车,山西省
建设路人民医院北200米,高平市,晋城市,112.928696,35.788776,小刀电动车,山西省
003乡道南50米,榆次区,晋中市,112.664973,37.706228,小刀电动车,山西省
朝阳北巷与郝家沟街交叉口东100米,迎泽区,太原市,112.598827,37.858822,小刀电动车,山西省
郭家堡乡花园路9号(亨得利往南20米),榆次区,晋中市,112.745491,37.683542,小刀电动车(花园路),山西省
凤仪街与通湖路交叉口东北50米,清徐县,太原市,112.362502,37.603099,小刀电动车,山西省
开发南路5号山附近,朔城区,朔州市,112.435803,39.325036,小刀电动车,山西省
府东南路107号,潞城区,长治市,113.230480,36.327670,小刀电动车,山西省
大同路302附近,尖草坪区,太原市,112.525118,37.946474,小刀电动车,山西省
朝阳路与通达西街交叉口东南50米,小店区,太原市,112.561677,37.730197,小刀电动车,山西省
和谐街与220省道交叉口东100米,襄垣县,长治市,112.977552,36.436724,小刀电动车,山西省
司令部街与武定街交叉口南150米,平城区,大同市,113.302015,40.095855,小刀电动车(武定街),山西省
迎太路西200米,盐湖区,运城市,111.024446,35.051195,小刀电动车,山西省
新建街与龙山路交叉口东北100米,离石区,吕梁市,111.154261,37.518452,小刀电动车,山西省
北外环路与汾东路交叉口东50米,尧都区,临汾市,111.538245,36.101668,小刀电动车,山西省
涧河路19号,杏花岭区,太原市,112.583175,37.896639,小刀电动车,山西省
凤山路与袁家庄七巷交叉口东北50米,离石区,吕梁市,111.142580,37.545436,小刀电动车,山西省
中心街北50米,城区,晋城市,112.903760,35.561475,小刀电动车,山西省
福苑小区1号9厅,平城区,大同市,113.260033,40.061137,小刀电动车(大庆路店),山西省
凤凰南路72号,盐湖区,运城市,110.996433,35.014661,小刀电动车(凤凰路店),山西省
双塔南路696号附近,临猗县,运城市,110.777581,35.137614,小刀电动车,山西省
孝义梧桐新区43号楼,孝义市,吕梁市,111.800321,37.104409,小刀电动车,山西省
环城南路与527县道交叉口西南200米,尧都区,临汾市,111.531293,36.054282,小刀电动车,山西省
云中镇仁里路2号,怀仁市,朔州市,113.098406,39.827196,小刀电动车,山西省
柏杨树北二巷与柏杨树北二街交叉口西北50米,杏花岭区,太原市,112.570285,37.921844,小刀电动车,山西省
唐城公路北50米,晋源区,太原市,112.493167,37.742491,小刀电动车,山西省
从龙中路227附近,临县,吕梁市,110.996433,37.961349,小刀电动车,山西省
金牛大街22号太原市金锦绣贸易有限公司,古交市,太原市,112.168280,37.913417,小刀电动车,山西省
安阳路252号附近,孝义市,吕梁市,111.767581,37.143344,小刀电动车,山西省
民胜街南50米,云冈区,大同市,113.162709,40.032866,小刀电动车,山西省
梧桐新区(西区)89号楼251商铺,孝义市,吕梁市,111.795283,37.105513,小刀电动车,山西省
龙山大街44号附近,尖草坪区,太原市,112.446330,38.007262,小刀电动车,山西省
人民南路与通达街交叉口北100米,小店区,太原市,112.568741,37.730708,小刀电动车(人民南路),山西省
庙上北街十字口南,临猗县,运城市,110.556192,35.088620,小刀电动车,山西省
龙泉镇西城路土产日杂小区117号,壶关县,长治市,113.204227,36.109256,小刀电动车,山西省
汾酒大道307国道城北加油站对面,汾阳市,吕梁市,111.799568,37.292819,小刀电动车,山西省
后所村后所小学正对面,山阴县,朔州市,112.851498,39.307713,小刀电动车,山西省
丁陶大道丁陶大卖场4层附近,襄汾县,临汾市,111.427352,35.881974,小刀电动车,山西省
五台山南路(忻府区环境保护局北),忻府区,忻州市,112.741025,38.403565,小刀电动车(光明东街),山西省
X260(故西线),阳曲县,太原市,112.740654,38.083956,小刀电动车,山西省
政府街与长青街交叉口西北50米,阳高县,大同市,113.753690,40.364717,小刀电动车,山西省
北大街与南大街交叉口西150米附近,天镇县,大同市,114.088684,40.420139,小刀电动车,山西省
牌楼西街西100米,闻喜县,运城市,111.215230,35.348320,小刀电动车,山西省
新建南路与槐荫街交叉口西北50米,祁县,晋中市,112.330422,37.348843,小刀电动车,山西省
乾鑫佳园8号楼附近,小店区,太原市,112.635220,37.781390,小刀电动车(郑村店),山西省
民福西街与煤源路交叉口南50米,平鲁区,朔州市,112.282336,39.515764,小刀电动车,山西省
前进东街764附近,原平市,忻州市,112.729638,38.728895,小刀电动车,山西省
商业街与红旗路交叉口西南50米,尧都区,临汾市,111.469383,36.089323,小刀电动车,山西省
迎春南路65号附近,榆社县,晋中市,112.972452,37.062685,小刀电动车,山西省
希望路与相如路交叉口东南50米,古县,临汾市,111.915860,36.259939,小刀车行,山西省
南大街南50米,娄烦县,太原市,111.803741,38.069561,小刀电动车,山西省
小牛线东50米,小店区,太原市,112.537997,37.633537,小刀电动车,山西省
舜都大道248号附近,永济市,运城市,110.448094,34.875244,小刀电动车,山西省
广场东街34号附近,静乐县,忻州市,111.942536,38.352732,小刀电动车,山西省
侯马五交化市场,侯马市,临汾市,111.358829,35.606968,小刀电动车(五交化市场北巷),山西省
襄侯线西50米,襄汾县,临汾市,111.364300,35.725983,小刀电动车,山西省
迎泽西大街金阳路泽峪园小区西门102门面房,万柏林区,太原市,112.483630,37.858641,小刀电动车,山西省
平南路18街附近,平遥县,晋中市,112.210887,37.203287,小刀电动车,山西省
S235(侯风线),闻喜县,运城市,111.175000,35.302175,小刀电动车,山西省
002乡道南50米,天镇县,大同市,114.040631,40.342834,小刀电动车,山西省
滨河路216号附近,吉县,临汾市,110.685476,36.098367,小刀电动车,山西省
泽掌镇卫生院西100米路南,新绛县,运城市,111.164914,35.712354,小刀电动车(泽掌镇店),山西省
顺城路202号附近,平遥县,晋中市,112.172270,37.194986,小刀电动车,山西省
胜利路西50米,沁源县,长治市,112.340043,36.506243,小刀电动车,山西省
新荣汽车站西北90米(御河西街北),新荣区,大同市,113.142247,40.256534,小刀电动车,山西省
向阳路与城南街交叉口西北100米,繁峙县,忻州市,113.270672,39.186015,小刀电动车,山西省
景观北路与雁靖大桥路交叉口东北50米,代县,忻州市,112.960505,39.056685,小刀电动车,山西省
龙兴镇文庙路11号,新绛县,运城市,111.230314,35.615490,小刀电动车,山西省
新华东街126号,吉县,临汾市,110.685656,36.102795,小刀电动车,山西省
新华街,离石区,吕梁市,111.136566,37.533496,小刀电动车,山西省
同心路19号附近,代县,忻州市,112.970086,39.069977,小刀电动车,山西省
稷王市场,稷山县,运城市,110.978052,35.596260,小刀电动车,山西省
文昌东街与昊阳北路交叉口南150米,云州区,大同市,113.610945,40.041235,小刀电动车,山西省
大南关南熏楼北路,汾阳市,吕梁市,111.780620,37.261053,小刀电动车(南熏路店),山西省
张村,侯马市,临汾市,111.357615,35.649244,小刀电动车,山西省
067乡道北50米,临猗县,运城市,110.867352,35.089814,小刀电动车,山西省
桃临路东50米,洪洞县,临汾市,111.663805,36.401768,小刀电动车,山西省
福田路7001号附近,寿阳县,晋中市,113.180230,37.889931,小刀电动车,山西省
繁城镇向阳路加油站斜对面,繁峙县,忻州市,113.271686,39.182853,小刀电动车,山西省
中大街与文昌路交叉口东北100米,偏关县,忻州市,111.499339,39.440847,小刀电动车,山西省
飞虹西大街南50米,洪洞县,临汾市,111.623548,36.260704,小刀电动车,山西省
店龙线附近,新绛县,运城市,111.280036,35.667742,小刀电动车,山西省
凤凰路与院背后巷交叉口北50米,盐湖区,运城市,110.996250,35.015914,小刀电动车(凤凰路),山西省
临夏线畖底镇政府北400米,闻喜县,运城市,111.157703,35.448330,小刀电动车,山西省
长晋线西50米,高平市,晋城市,112.944420,35.716501,小刀电动车,山西省
011乡道雅迪电动车西30米,曲沃县,临汾市,111.469723,35.758533,小刀电动车,山西省
猗氏镇南环路东方医院对面,临猗县,运城市,110.780027,35.138654,小刀电动车(南环路店),山西省
清河镇粮站坡,稷山县,运城市,111.021874,35.522237,小刀电动车,山西省
南三环红旗街云锦里小区东门南50米,平城区,大同市,113.295185,40.061610,小刀电动车,山西省
府学街,汾阳市,吕梁市,111.792362,37.266454,小刀电动车,山西省
G521(运永线),盐湖区,运城市,110.844599,34.906788,小刀电动车,山西省
桥东街东苑小区,尧都区,临汾市,111.551944,36.074101,小刀电动车(临钢专卖店),山西省
学府路与010乡道交叉口南30米,方山县,吕梁市,111.231358,37.887145,小刀电动车,山西省
货源路51号,离石区,吕梁市,111.147748,37.517225,小刀电动车(货源街),山西省
霍侯一级公路东200米,洪洞县,临汾市,111.732952,36.334440,小刀电动车,山西省
001乡道与320省道交叉口西南50米,文水县,吕梁市,112.081656,37.431251,小刀电动车,山西省
翼张线南50米,翼城县,临汾市,111.763746,35.716467,小刀电动车,山西省
民政大厦东100米(北大街南),左权县,晋中市,113.372838,37.082871,小刀电动车(北街村西),山西省
钢铁路东50米,尧都区,临汾市,111.552105,36.074696,小刀电动车(钢花小区北),山西省
里郭线东50米,曲沃县,临汾市,111.426078,35.709973,小刀电动车,山西省
解店镇汇源街祥瑞电脑西南100米,万荣县,运城市,110.841525,35.420127,小刀电动车(万荣专卖店),山西省
224省道与440县道交叉口东北50米,交口县,吕梁市,111.450844,36.893144,小刀电动车,山西省
西街162号附近,沁水县,晋城市,112.186048,35.689667,小刀电动车,山西省
529县道南50米,尧都区,临汾市,111.640489,36.114765,小刀电动车,山西省
东讲街与福田路交叉口东南50米,寿阳县,晋中市,113.181204,37.887467,小刀电动车(福田路),山西省
古楼南街与南关巷交汇处北,隰县,临汾市,110.934953,36.686675,小刀电动车,山西省
府东街与葵阁巷交叉口东100米,天镇县,大同市,114.093391,40.420114,小刀电动车,山西省
小东街与新建南路交叉口东100米,祁县,晋中市,112.330271,37.356424,小刀电动车(东风大街),山西省
西十二米街贺昌旅馆,柳林县,吕梁市,110.896640,37.430576,小刀电动车(十二米街),山西省
中国银行(鼓楼西街南),汾阳市,吕梁市,111.779289,37.269561,小刀电动车(鼓楼西街店),山西省
西街北50米,大宁县,临汾市,110.741067,36.463690,小刀电动车,山西省
上马汽车站(236省道西),侯马市,临汾市,111.346265,35.587501,小刀电动三轮,山西省
新建西路105号(火车站东行150米),介休市,晋中市,111.920586,37.020804,小刀电动车(新建西路),山西省
北街与桥南路交叉口东北100米,黎城县,长治市,113.387363,36.504112,小刀电动车(桥南路),山西省
云冈区新泉南三路与新泉路交叉口西100米,云冈区,大同市,113.159254,40.001703,小刀电动车(新泉路),山西省
广场路东(闫巷·紫郡南区西200米),山阴县,朔州市,112.829261,39.520988,小刀电动车(旧城分店),山西省
914县道北50米,榆次区,晋中市,112.673701,37.542244,小刀电动车(福田五星摩托车),山西省
001乡道与450县道交叉口东北50米附近,文水县,吕梁市,112.091219,37.466427,小刀电动车(武午村店),山西省
西街南50米,阳高县,大同市,113.899244,40.415541,小刀电动车(罗文皂店),山西省
天坛东路与粮食巷交叉口南50米,浮山县,临汾市,111.852295,35.966260,小刀电动车(天坛东路店),山西省
安康北巷与林涛大道交叉口东50米,保德县,忻州市,111.080345,39.021489,小刀电动车(林涛大道店),山西省
东盛巷与秀水东街交叉口西50米,盂县,阳泉市,113.416663,38.084384,小刀电动车(秀水东街店),山西省
西环路96号,洪洞县,临汾市,111.669850,36.257371,小刀电动车(洪洞旗舰店),山西省
恒富西大街南50米,洪洞县,临汾市,111.644601,36.283504,小刀电动车(恒富西大街店),山西省
兴隆东街26号,曲沃县,临汾市,111.479626,35.642511,小刀电动车(兴隆东街),山西省
新华街822附近,灵丘县,大同市,114.242252,39.439603,小刀电动车(新华街),山西省
凤城乡凤城村林祥饸饹面对面,侯马市,临汾市,111.443098,35.633336,小刀电动车(凤城医院东),山西省
北环路35号,中阳县,吕梁市,111.189755,37.345493,小刀电动车(骄峰苑西),山西省
东大街与则天东街交叉口西150米,文水县,吕梁市,112.043493,37.436831,小刀电动车(东大街),山西省
杨树林路与蒲伊西街交叉口西50米,蒲县,临汾市,111.092368,36.414137,小刀电动车(蒲伊西街店),山西省
221省道与379县道交叉口南100米,介休市,晋中市,112.075456,37.133325,小刀电动车(张兰专卖店),山西省
八一南路与红旗街交叉口西南50米,翼城县,临汾市,111.703940,35.740427,小刀电动车(红旗街),山西省
永安镇永安西街商贸小区西300米,浑源县,大同市,113.685402,39.696781,小刀电动车(商贸小区店),山西省
台乡线南乡财苑购物中心南100米,乡宁县,临汾市,110.844099,35.965924,小刀电动车(文笔路),山西省
历山东路与舜王北街交叉口东北100米,垣曲县,运城市,111.669511,35.302786,小刀电动车(舜王北街),山西省
迎宾西街(五寨县砚城镇人民政府西),五寨县,忻州市,111.837848,38.917333,小刀电动车(五寨县砚城镇人民政府西),山西省
329省道东50米,尧都区,临汾市,111.479390,36.167828,小刀电动车售后,山西省
331省道北50米,曲沃县,临汾市,111.560484,35.666967,小刀电动车(曲沃秦东升中医诊所西),山西省
039省道北50米,晋源区,太原市,112.387713,37.648807,小刀电动车(桃园府西),山西省
人民路与804县道交叉口西北50米,稷山县,运城市,110.909868,35.499382,小刀电动车(人民路),山西省
城墙岭街7号,安泽县,临汾市,112.245731,36.134678,小刀电动车(城墙岭街),山西省
太阳雨太阳能(108国道北),侯马市,临汾市,111.294213,35.600916,小刀电动车(高村店),山西省
334省道与335省道交叉口西150米,绛县,运城市,111.460989,35.471311,小刀电动车(横水专卖店),山西省
010乡道与801县道交叉口西100米,新绛县,运城市,111.222033,35.682078,小刀电动车(010乡道),山西省
赵城镇东大街34号,洪洞县,临汾市,111.681017,36.384420,小刀电动车(赵城专卖),山西省
234省道南50米,曲沃县,临汾市,111.549663,35.614049,小刀电动车(北董医院西南),山西省
克城镇老车站往南100米,蒲县,临汾市,111.297195,36.563687,小刀电动车(克城专卖店),山西省
新建东街1600号,沁水县,晋城市,112.204969,35.689354,小刀电动车(新建东街),山西省
东七道街与礼堂南路交叉口东150米,神池县,忻州市,112.199223,39.088595,小刀电动车(东七道街店),山西省
拥军东路21号院附近,平城区,大同市,113.278678,40.109219,小刀电动车专卖,山西省
乔李镇迎泽街37号,尧都区,临汾市,111.632487,36.117145,小刀电动车专卖店,山西省
太行街415号,武乡县,长治市,112.850812,36.829478,小刀电动车专卖店,山西省
东北街73号,阳曲县,太原市,112.678988,38.061707,小刀宗申电动车,山西省
西苑正街与西苑正街南四巷交叉口南50米,汾阳市,吕梁市,111.765875,37.266468,星星小刀电动车,山西省
商业路与广泰西街交叉口东北50米,广灵县,大同市,114.277844,39.763884,小刀电动车旗舰店,山西省
S221(翠峰路),灵石县,晋中市,111.772687,36.842883,小刀电动车灵石总经销,山西省
014乡道与309国道交叉口西50米,洪洞县,临汾市,111.716000,36.168869,小刀电动车旗舰店,山西省
中山西街蒲金苑,永济市,运城市,110.439122,34.850291,吴群小刀小牛电动车,山西省
杨赵大门楼右侧,稷山县,运城市,111.083959,35.603377,杨赵村建红车城小刀电动车,山西省
001乡道南50米,云州区,大同市,113.467254,39.997308,小刀双动力电动车,山西省
214省道西50米,盂县,阳泉市,113.362263,38.168172,小刀电动车苌池专卖店,山西省
和谐街与西河路交叉口东100米,繁峙县,忻州市,113.556356,39.266116,小刀双动力电动车,山西省
庙上乡北街,临猗县,运城市,110.648323,35.039388,五羊小刀电动车专卖店,山西省
五一街东13号,平陆县,运城市,111.217172,34.838580,小刀双动力电动车,山西省
011乡道与433县道交叉口南50米,文水县,吕梁市,112.251725,37.487098,小刀双动力电动车,山西省
院裴线与537县道交叉口西50米,曲沃县,临汾市,111.545442,35.734570,小刀双动力电动车,山西省
绛源南路与绛源路西十三巷二条交叉口南100米,翼城县,临汾市,111.709991,35.727392,小刀双动力电动车,山西省
府南路与新义街交叉口北50米,孝义市,吕梁市,111.774903,37.142402,小刀双动力电动车(孝义专卖店),山西省
太阳乡太阳村小刀电动车,稷山县,运城市,110.973047,35.507235,太阳小刀电动车,山西省
839县道东50米(胡张中学附近),夏县,运城市,111.236378,35.250069,小刀电动车胡张专卖店,山西省
向阳路4号,尧都区,临汾市,111.527793,36.090945,小刀双动力电动车,山西省
平德路西50米,云冈区,大同市,113.221861,40.019759,小刀双动力电动车,山西省
东关路70号附近,尧都区,临汾市,111.529974,36.076697,小刀电动车批发直供店,山西省
雁兴路南50米,河津市,运城市,110.714750,35.585212,小刀双动力电动车(莲池路店),山西省
新建东路50号,介休市,晋中市,111.924522,37.022617,小岛电动车鹏佑车行(介休小刀专卖店),山西省
云州区湖滨大街南50米,云州区,大同市,113.400534,40.066122,小岛电动车,山西省
钢铁路东50米,尧都区,临汾市,111.551952,36.074038,自由机车部落,山西省
育才路与获壁街交叉口西北50米,屯留区,长治市,112.895147,36.312879,小岛电动车,山西省
解放路160号(工会小区东北),杏花岭区,太原市,112.562157,37.882799,小牛电动专卖店,山西省
新华街,四子王旗,乌兰察布市,111.699356,41.522402,小刀电动车(四王子旗旗舰一店),内蒙古自治区
三道街58-2,红山区,赤峰市,118.962039,42.279272,小刀电动车(三道西街),内蒙古自治区
富林北路与富林路交叉口南100米,科尔沁区,通辽市,122.809339,43.726742,小刀电动车,内蒙古自治区
陈巴尔虎路邮政储蓄俄罗斯商城西门对面小刀电动车旁边,海拉尔区,呼伦贝尔市,119.741129,49.214437,小刀电动车(呼伦贝尔店),内蒙古自治区
鄂尔多斯大街立业大厦附近,玉泉区,呼和浩特市,111.664648,40.794027,小刀电动车(总店),内蒙古自治区
民政局楼下,锡林浩特市,锡林郭勒盟,116.088623,43.950795,小刀电动车(锡林郭勒京诚中医院东南),内蒙古自治区
人民南路与复兴西街交叉口东北50米,乌兰浩特市,兴安盟,122.075978,46.071801,小刀电动车(人民南路),内蒙古自治区
气象局大院西北角16号楼C单元12号地铺,新城区,呼和浩特市,111.661910,40.838706,小刀电动车,内蒙古自治区
鲁北镇富丽春城东区,扎鲁特旗,通辽市,120.938608,44.548514,小刀电动车,内蒙古自治区
207乡道南50米,赛罕区,呼和浩特市,111.786769,40.835804,小刀电动车(207乡道),内蒙古自治区
解放西街14号附近,临河区,巴彦淖尔市,107.404964,40.766629,小刀电动车(临河区博爱医院东),内蒙古自治区
包百商业步行街与青年路交叉口东150米,昆都仑区,包头市,109.818424,40.664501,小刀电动车,内蒙古自治区
中央大街与体育路交叉口东北100米,阿荣旗,呼伦贝尔市,123.463339,48.137437,小刀电动车,内蒙古自治区
民族路27-10号,开鲁县,通辽市,121.308834,43.598152,小刀电动车,内蒙古自治区
社区建设管理局友谊路石油公司对面,二连浩特市,锡林郭勒盟,111.989617,43.650432,小刀电动车(二连浩特旗舰店),内蒙古自治区
公园北路十九巷与木器巷交叉口南200米,阿拉善左旗,阿拉善盟,105.699661,38.849876,小刀双动力电动车,内蒙古自治区
契丹街18-31,宁城县,赤峰市,119.334031,41.595610,小刀电动车(兴隆街店),内蒙古自治区
华丰街与新华路交叉口西100米,突泉县,兴安盟,121.562714,45.382181,小刀电动车,内蒙古自治区
友谊大街与白云鄂博路交叉口东北50米,昆都仑区,包头市,109.811056,40.647609,小刀电动车,内蒙古自治区
中央街二道街,牙克石市,呼伦贝尔市,120.737812,49.283212,小刀电动车(林城路),内蒙古自治区
无,宁城县,赤峰市,119.328862,41.593077,小刀电动车(兴隆街店),内蒙古自治区
中山路与乌兰大街交叉口东南100米,土默特左旗,呼和浩特市,111.129073,40.716386,小刀电动车(中山路店),内蒙古自治区
幸福路底店56号,青山区,包头市,109.877720,40.666441,小刀电动车,内蒙古自治区
开源路与通达路交叉口西50米,准格尔旗,鄂尔多斯市,111.236416,39.867752,小刀电动车,内蒙古自治区
巴彦呼舒大街与巴扎拉嘎路交叉口东150米,科尔沁右翼中旗,兴安盟,121.472790,45.060914,小刀电动车,内蒙古自治区
市南二道街与立交桥南路交叉口西南50米,满洲里市,呼伦贝尔市,117.457204,49.581424,小刀电动车(宇航专卖店),内蒙古自治区
健民路与尔格图街交叉口西北150米,鄂托克旗,鄂尔多斯市,107.044161,39.394021,小刀电动车,内蒙古自治区
泰丰大街8-10号附近,霍林郭勒市,通辽市,119.649429,45.538281,小刀电动车(锡林大街店),内蒙古自治区
侧柏路与垂柳街交叉口东南50米附近,元宝山区,赤峰市,119.319579,42.299944,小刀电动车,内蒙古自治区
益民大街与金三角路交叉口西南200米,化德县,乌兰察布市,114.015098,41.898344,小刀电动车(金三角路),内蒙古自治区
多伦诺尔镇向阳路41号,多伦县,锡林郭勒盟,116.474714,42.197083,小刀电动车,内蒙古自治区
树林召大街与长胜路交叉口东150米,达拉特旗,鄂尔多斯市,110.034997,40.403626,小刀电动车(树林召大街),内蒙古自治区
育才街南50米,集宁区,乌兰察布市,113.104602,41.033403,小刀电动车(五马路),内蒙古自治区
466县道东50米,扎鲁特旗,通辽市,121.229966,44.654770,小刀电动车,内蒙古自治区
庆云巷与红星街交叉口东南50米,商都县,乌兰察布市,113.547950,41.562485,小刀电动车(红星街),内蒙古自治区
云中北路,托克托县,呼和浩特市,111.199654,40.275670,小刀电动车(托克托县农牧业局西南),内蒙古自治区
嘎鲁图镇王朝丽都对面,乌审旗,鄂尔多斯市,108.838516,38.604996,小刀电动车,内蒙古自治区
巴彦路与玛拉沁街交叉口东150米,科尔沁左翼后旗,通辽市,122.354846,42.952348,小刀电动车(后旗专卖店),内蒙古自治区
团结路与建设大街交叉口西南50米,科尔沁左翼中旗,通辽市,123.310424,44.128726,小刀电动车,内蒙古自治区
中央路与金河街交叉口东南50米,根河市,呼伦贝尔市,121.530974,50.780845,小刀电动车,内蒙古自治区
建国三路与马桥街交叉口南50米,集宁区,乌兰察布市,113.093899,41.030599,小刀电动车,内蒙古自治区
温州商业街与迎宾路交叉口东北150米,丰镇市,乌兰察布市,113.159957,40.439388,小刀电动车(温州商业街),内蒙古自治区
和平路65号附近,莫力达瓦达斡尔族自治旗,呼伦贝尔市,124.490499,48.474553,小刀电动车(和平路),内蒙古自治区
农林路与团结街交叉口北150米,察哈尔右翼后旗,乌兰察布市,113.187800,41.447106,小刀电动车(后旗专卖店),内蒙古自治区
哈撒尔路支行(天骄嘉园附近),额尔古纳市,呼伦贝尔市,120.176823,50.248490,小刀电动车,内蒙古自治区
呼格吉路与新宝拉格街交叉口西北150米,镶黄旗,锡林郭勒盟,113.845175,42.240036,小刀电动车(镶黄旗专卖店),内蒙古自治区
文昌路与新达街交叉口西南150米,乌达区,乌海市,106.700730,39.517648,小刀电动车,内蒙古自治区
兴安街与西一路交叉口东100米,林西县,赤峰市,118.061099,43.599657,小刀电动车,内蒙古自治区
明安图镇广场东,正镶白旗,锡林郭勒盟,115.005617,42.310466,小刀电动车专卖店,内蒙古自治区
422县道南50米,突泉县,兴安盟,121.772045,45.485501,小刀电动车,内蒙古自治区
广通路与新民街交叉口东南50米,和林格尔县,呼和浩特市,111.816722,40.378652,小刀电动车(和林专卖店),内蒙古自治区
奈曼大街与幸福路交叉口东北50米,奈曼旗,通辽市,120.657166,42.846953,小刀电动车(奈曼大街),内蒙古自治区
矿山路82号附近,白云鄂博矿区,包头市,109.965906,41.771834,小刀电动车,内蒙古自治区
新中街与新化路交叉口西100米,敖汉旗,赤峰市,119.904388,42.282274,小刀电动车,内蒙古自治区
乌兰镇阿尔寨街布日都路十字路口南100米,鄂托克旗,鄂尔多斯市,107.989732,39.093902,小刀电动车,内蒙古自治区
河西路北50米,赛罕区,呼和浩特市,111.859576,40.857470,小刀电动车,内蒙古自治区
012乡道北50米,阿荣旗,呼伦贝尔市,123.795011,48.503530,小刀电动车(格尼专卖店),内蒙古自治区
中山南路与隆兴昌东街交叉口西南150米,五原县,巴彦淖尔市,108.275479,41.100715,小刀电动车,内蒙古自治区
建设街与阿拉塔大街交叉口西北100米,固阳县,包头市,110.064336,41.029671,小刀电动车(阿拉塔大街),内蒙古自治区
光明街与北桥街交叉口西北50米,凉城县,乌兰察布市,112.491594,40.529593,小刀电动车,内蒙古自治区
教育路附近,乌拉特前旗,巴彦淖尔市,108.653366,40.724819,小刀电动车(红卫中路),内蒙古自治区
兴盛路与阜顺街交叉口东100米,兴和县,乌兰察布市,113.833398,40.873483,小刀电动车,内蒙古自治区
230县道南50米,喀喇沁旗,赤峰市,119.142360,41.863588,小刀电动车,内蒙古自治区
上都镇巴彦敖包路草原明珠宾馆南,正蓝旗,锡林郭勒盟,115.999750,42.247809,小刀电动车,内蒙古自治区
察右前旗土贵乌拉站北100米(光明街西),察哈尔右翼前旗,乌兰察布市,113.206796,40.789584,小刀电动车,内蒙古自治区
大东街与大南街交叉口南150米,土默特右旗,包头市,110.519644,40.550077,小刀电动车,内蒙古自治区
建设南街,太仆寺旗,锡林郭勒盟,115.283539,41.889290,小刀电动车(中蒙医院南),内蒙古自治区
振兴大街烟草专卖局东,巴林左旗,赤峰市,119.393317,43.985692,小刀电动车(巴林路),内蒙古自治区
三段地路与毛盖图东街交叉口西北100米,鄂托克前旗,鄂尔多斯市,107.481727,38.187599,小刀电动车,内蒙古自治区
131乡道南50米,科尔沁左翼后旗,通辽市,123.559971,43.378919,小刀电动车,内蒙古自治区
无,宁城县,赤峰市,119.023748,41.721124,小刀电动车,内蒙古自治区
白音他拉大街与111国道交叉口东50米,奈曼旗,通辽市,120.816568,43.071341,小刀电动车,内蒙古自治区
陕坝镇大千市场南门嘉特车行,杭锦后旗,巴彦淖尔市,107.146978,40.882723,小刀电动车,内蒙古自治区
111国道西50米,敖汉旗,赤峰市,120.540554,42.584906,小刀电动车,内蒙古自治区
巴尔虎大街与巴彦哈达路交叉口西南50米,陈巴尔虎旗,呼伦贝尔市,119.446233,49.329917,小刀电动车(巴彦哈达路),内蒙古自治区
腾飞大道与青山路交叉口西北100米,武川县,呼和浩特市,111.460665,41.090713,小刀电动车,内蒙古自治区
230县道东100米,喀喇沁旗,赤峰市,119.280961,41.912626,小刀电动车,内蒙古自治区
207省道西50米,宁城县,赤峰市,118.954769,41.719760,小刀电动车,内蒙古自治区
开放街与新华南路交叉口东150米,扎赉诺尔区,呼伦贝尔市,117.720518,49.458416,小刀电动车,内蒙古自治区
健康东街与市场南路交叉口西北50米,武川县,呼和浩特市,111.457079,41.095297,小刀电动车,内蒙古自治区
内卧北街北50米,扎兰屯市,呼伦贝尔市,122.669159,48.100257,小刀电动车(卧北街),内蒙古自治区
东盛街与府前街交叉口东南50米,多伦县,锡林郭勒盟,116.485036,42.192499,小刀电动车专卖,内蒙古自治区
306国道八肯中邮政支局西南侧100米,宁城县,赤峰市,119.083907,41.652063,小刀电动车(八肯中村店),内蒙古自治区
三座店中心小学南(207省道东),宁城县,赤峰市,118.875985,41.630460,小刀电动车,内蒙古自治区
景泉街东50米,宁城县,赤峰市,118.748372,41.508397,小刀电动车,内蒙古自治区
306国道北50米,宁城县,赤峰市,119.127714,41.596286,小刀电动车(大明镇卫生院西),内蒙古自治区
天山线与212乡道交叉口西南100米,宁城县,赤峰市,119.010485,41.476492,小刀电动车,内蒙古自治区
音德尔镇中心西街中国邮政东北,扎赉特旗,兴安盟,122.912104,46.723805,小刀电动车店,内蒙古自治区
北市街与巴林路交叉口西100米,巴林右旗,赤峰市,118.677346,43.530564,宏宾小刀电动车,内蒙古自治区
新华西街道人民南路老交通局楼下,海勃湾区,乌海市,106.820077,39.665328,小刀双动力电动车(人民路店),内蒙古自治区
益民大街与金三角路交叉口西南200米,化德县,乌兰察布市,114.017573,41.893906,小岛电动车,内蒙古自治区
无,巴林左旗,赤峰市,119.683508,43.796953,小刀双动力电动车,内蒙古自治区
库伦中心街南50米,库伦旗,通辽市,121.774066,42.729553,大运三轮&小刀电动车,内蒙古自治区
满都拉街中国石油东苏片区第一加油站,苏尼特左旗,锡林郭勒盟,113.654177,43.852574,小刀电动车专卖店(满达拉街店),内蒙古自治区
科尔沁大街西723号,科尔沁区,通辽市,122.258522,43.610231,北方车业,内蒙古自治区
黄海西四路新领地公寓,金州区,大连市,121.793344,39.049256,小刀电动车(大连新元素总店),辽宁省
南顺城路61号,沈河区,沈阳市,123.457492,41.792709,小刀电动车(大南专卖店),辽宁省
文大路343-4号4门,皇姑区,沈阳市,123.380128,41.895537,小刀电动车(青城北路),辽宁省
湘江街51号附近,皇姑区,沈阳市,123.421582,41.825436,小刀电动车(湘江街),辽宁省
南四马路与民族南街交叉口西北50米,和平区,沈阳市,123.392994,41.786455,小刀电动车(南四马路),辽宁省
榆石街8附近,甘井子区,大连市,121.518814,38.970504,小刀电动车(美林园专卖店),辽宁省
双城街与煤城路交叉口东北50米,太平区,阜新市,121.696649,42.012658,小刀,辽宁省
永宁街与西关街交叉口西150米,兴城市,葫芦岛市,120.706261,40.620995,小刀,辽宁省
南七中路17号,铁西区,沈阳市,123.365711,41.790987,祥冰小刀电动车,辽宁省
八一路52号,大石桥市,营口市,122.502892,40.635417,小刀(繁荣大街),辽宁省
丰乐二街7号5门(MOTO新城东北),沈河区,沈阳市,123.485511,41.766203,小刀电动车(丰乐二街),辽宁省
白山路142-4号,于洪区,沈阳市,123.377654,41.858146,小刀电动车(长城铭苑西),辽宁省
沈新路54号附近,于洪区,沈阳市,123.310291,41.780536,小刀电动车,辽宁省
兴三街益天龙商厦西门,兴隆台区,盘锦市,122.070127,41.127172,小刀电动车(盘锦旗舰店),辽宁省
鸭绿江街70号6门,皇姑区,沈阳市,123.456178,41.849515,小刀电动车,辽宁省
上园路12-3号楼,大东区,沈阳市,123.475755,41.835718,小刀电动车(上园路),辽宁省
解放路2段-74号-53,古塔区,锦州市,121.126824,41.116089,小刀电动车(解放路店),辽宁省
振兴路34之8-9门,海州区,阜新市,121.656529,41.997631,小刀电动车(阜新旗舰店),辽宁省
联合路190号甲门市11栋6门,大东区,沈阳市,123.492321,41.831855,小刀电动车(联合路店),辽宁省
白塔街66号16门,浑南区,沈阳市,123.422332,41.692915,小刀电动车(朗圣·丰华园北),辽宁省
三道街与新华路交叉口,白塔区,辽阳市,123.185915,41.270699,小刀电动车(三道街),辽宁省
东山路228号,金州区,大连市,121.735368,39.093470,小刀电动车,辽宁省
和沈苏西路与浑铁路交叉口东北50米,和平区,沈阳市,123.378301,41.728085,小刀电动车,辽宁省
草仓路15-3号附近,大东区,沈阳市,123.466896,41.809527,小刀电动车,辽宁省
光明街建设路23号,双塔区,朝阳市,120.443801,41.577932,小刀电动车(建设路),辽宁省
顺发路与顺美街交叉口东南50米,望花区,抚顺市,123.723362,41.822970,小刀电动车,辽宁省
兴利街与南兴路交叉口南50米,平山区,本溪市,123.753030,41.277195,小刀电动车,辽宁省
兴明街30号,沈北新区,沈阳市,123.517589,41.944965,小刀电动车,辽宁省
三台子街道梅江西街19号4-1-3,皇姑区,沈阳市,123.427759,41.884673,小刀电动车专卖,辽宁省
迎宾西大街102号-1,东港市,丹东市,124.143384,39.884279,小刀电动车(东港专卖店),辽宁省
南大街62-7号,凌源市,朝阳市,119.404139,41.236538,小刀电动车(南大街店),辽宁省
盐北路438附近,旅顺口区,大连市,121.192288,38.794291,小刀电动车,辽宁省
田家镇林海景天商网4号楼,大洼区,盘锦市,122.071057,41.077376,小刀电动车,辽宁省
中环北路与新制西街交叉口西北150米,凌河区,锦州市,121.157565,41.136128,小刀电动车,辽宁省
振兴路32之6-7门,海州区,阜新市,121.656700,41.997627,小刀电动车(振兴路),辽宁省
汽配城电动车市场,开原市,铁岭市,124.054871,42.536112,小刀电动车(开原专卖店),辽宁省
辉山冯道街5号楼,沈北新区,沈阳市,123.584799,41.921221,小刀电动车(聚农路),辽宁省
兴工路16-13号,建平县,朝阳市,119.638907,41.403941,小刀电动车,辽宁省
文化路65号,阜新蒙古族自治县,阜新市,121.738642,42.056241,小刀电动车(交通路),辽宁省
东方路小区20栋,宏伟区,辽阳市,123.210838,41.199552,小刀电动车,辽宁省
新华大街26-5附近,连山区,葫芦岛市,120.846678,40.749280,小刀电动车(新华大街30号小区东北),辽宁省
南环东路与铁长路交叉口南100米路西,宽甸满族自治县,丹东市,124.786049,40.721677,小刀电动车(铁长路),辽宁省
出岫路与长兴路交叉口南150米,瓦房店市,大连市,121.455879,39.595560,小刀电动车,辽宁省
熊岳镇金城明珠小区附近,鲅鱼圈区,营口市,122.136177,40.176307,小刀电动车,辽宁省
营顺路442号,旅顺口区,大连市,121.248544,38.856285,小刀电动车(圣帝庄园南),辽宁省
中街路1-s26号,海城市,鞍山市,122.750835,40.846539,小刀电动车(中街路),辽宁省
313省道北50米,普兰店区,大连市,122.302285,39.600236,小刀电动车,辽宁省
育红路67号楼附近,双台子区,盘锦市,122.059923,41.192916,小刀电动车(育红路店),辽宁省
320省道东50米,宏伟区,辽阳市,123.169512,41.201474,小刀电动车,辽宁省
繁荣街49-19号附近,大洼区,盘锦市,121.991844,41.040930,小刀电动车,辽宁省
浑南新区营城子大街枫林花园小区158-6门,浑南区,沈阳市,123.514683,41.700499,小刀电动车(枫林花园店),辽宁省
建设路23号,双塔区,朝阳市,120.459329,41.587661,小刀电动车(长青路),辽宁省
文化街31号,银州区,铁岭市,123.849714,42.286943,小刀电动车(文化街),辽宁省
青龙山大街辅路,鲅鱼圈区,营口市,122.151356,40.244557,小刀电动车,辽宁省
红旗街三段16号,建昌县,葫芦岛市,119.800566,40.814599,小刀电动车(朝阳路店),辽宁省
育红路101号,双台子区,盘锦市,122.060350,41.191751,小刀电动车(育红路),辽宁省
邓陈线北50米,金州区,大连市,121.758645,39.425976,小刀电动车,辽宁省
振兴街东段9号附近,北票市,朝阳市,120.770209,41.810683,小刀电动车,辽宁省
新抚路18号南90米,新抚区,抚顺市,123.883060,41.859556,小刀电动车(千金路),辽宁省
S312(大盘线),海城市,鞍山市,122.637065,40.902956,小刀电动车,辽宁省
双树乡卫生院北200米龙港国土资源分局双树国土资源所附近,龙港区,葫芦岛市,120.792785,40.701461,小刀电动车,辽宁省
胜利路733号,金州区,大连市,121.723277,39.111484,小岛电动车,辽宁省
101国道南50米,龙城区,朝阳市,120.370107,41.546030,小刀电动车,辽宁省
东西快速干道南50米,沈河区,沈阳市,123.519127,41.812330,小刀电动车,辽宁省
清河路与白云街交叉口西南50米,清原满族自治县,抚顺市,124.936588,42.102086,小刀电动车,辽宁省
昌盛路120号,昌图县,铁岭市,124.111184,42.778094,小刀电动车,辽宁省
文官街道民强一街10号小刀电动车,大东区,沈阳市,123.489790,41.876832,小刀电动车(健体路),辽宁省
东蛇山子老市场,新民市,沈阳市,123.139145,42.176052,小刀电动车,辽宁省
泰山大街富吉家园17号楼5门市,鲅鱼圈区,营口市,122.154124,40.261665,小刀电动车,辽宁省
211省道南50米,黑山县,锦州市,122.411880,41.708309,小刀车行,辽宁省
凌海大街与利民路交叉口东50米,凌海市,锦州市,121.363328,41.178766,小刀电动车(凌海大街店),辽宁省
宁远街24号附近,顺城区,抚顺市,123.908317,41.883514,小刀电动车(宁远街店),辽宁省
九龙路139号附近,瓦房店市,大连市,121.866041,39.574303,小刀电动车,辽宁省
千山东路312附近,立山区,鞍山市,123.112942,41.085889,小刀电动车,辽宁省
303省道北50米,开原市,铁岭市,123.866049,42.553858,小刀电动车,辽宁省
无,大洼区,盘锦市,122.165499,40.886269,小刀电动车,辽宁省
清水台东方华宇(清中街东),沈北新区,沈阳市,123.612650,42.026429,小刀电动车,辽宁省
繁荣大街与205省道交叉口南100米,太平区,阜新市,121.762466,42.040289,小刀电动车,辽宁省
312省道东50米,海城市,鞍山市,122.907228,40.703520,小刀电动车,辽宁省
塔山乡附近,连山区,葫芦岛市,120.940364,40.847093,小刀电动车,辽宁省
"感王镇鑫源小区正门北50米,如意水果超市旁",海城市,鞍山市,122.556454,40.817187,小刀电动车,辽宁省
丁屯路与滨海街交叉口东南50米,鲅鱼圈区,营口市,122.131917,40.271421,小刀电动车,辽宁省
西马峰镇卫生院东南(202国道),灯塔市,辽阳市,123.200478,41.372398,小刀电动车,辽宁省
汤河子街道合金西里89号,太和区,锦州市,120.982225,41.057373,小刀电动车,辽宁省
中兴门窗服务部西北(101国道南),彰武县,阜新市,122.750033,42.348857,小刀电动车,辽宁省
五里河大桥,连山区,葫芦岛市,120.866643,40.872884,小刀电动车,辽宁省
新兴街附近,绥中县,葫芦岛市,120.342038,40.327914,小刀电动车(广播电视楼西南),辽宁省
肇兴路90号,新宾满族自治县,抚顺市,125.047679,41.726510,小刀电动车,辽宁省
高贺线与204省道交叉口西南100米,义县,锦州市,121.257004,41.450728,小刀电动车,辽宁省
中心街附近,黑山县,锦州市,122.145827,41.618450,小刀电动车,辽宁省
前阳中路与安阳西街交叉口东南150米,东港市,丹东市,124.207012,39.959442,小刀电动车,辽宁省
201国道北50米,东港市,丹东市,123.903232,39.867231,小刀电动车,辽宁省
茨榆街130号附近,辽中区,沈阳市,122.891761,41.516258,小刀电动车(茨榆坨店),辽宁省
新民街337附近,灯塔市,辽阳市,123.037154,41.443611,小刀电动车,辽宁省
西长春路34-2号附近,瓦房店市,大连市,122.010619,39.624341,小刀电动车(水果街),辽宁省
顺城路6-1号楼附近,西丰县,铁岭市,124.732626,42.740714,小刀电动车,辽宁省
大四线与306国道交叉口西50米,凌源市,朝阳市,119.586489,41.046147,小刀电动车,辽宁省
无,昌图县,铁岭市,123.640816,42.756909,小刀电动车,辽宁省
S101(辽鞍路),辽阳县,辽阳市,123.076529,41.219761,小刀电动车(人民街),辽宁省
无,凌海市,锦州市,121.385348,41.076639,小刀电动车,辽宁省
木头城子镇,朝阳县,朝阳市,120.053126,41.357909,小刀电动车,辽宁省
739乡道与742乡道交叉口南150米,北镇市,锦州市,121.899736,41.493239,小刀电动车,辽宁省
安平街道欧式街,弓长岭区,辽阳市,123.431410,41.159775,小刀电动车,辽宁省
新立屯镇刘四车行,黑山县,锦州市,122.171959,42.014462,小刀电动车,辽宁省
105省道西50米,昌图县,铁岭市,124.047992,43.194686,小刀电动车,辽宁省
向阳街与昌盛路交叉口西北50米,清河区,铁岭市,124.147878,42.547076,小刀电动车,辽宁省
无,新民市,沈阳市,123.055840,41.977985,小刀电动车,辽宁省
牛庄镇沈营线牛庄购物中心西北200米,海城市,鞍山市,122.530678,40.949217,小刀电动车,辽宁省
拣闻线与羊洪线交叉口东150米,兴城市,葫芦岛市,120.544750,40.527433,小刀电动车,辽宁省
毛国华家具家电商场(县道C22),开原市,铁岭市,123.873483,42.630381,小刀电动车,辽宁省
红菱中心街47-1号附近,苏家屯区,沈阳市,123.299310,41.550988,小刀电动车,辽宁省
102国道东50米,北镇市,锦州市,121.777018,41.477615,小刀电动车,辽宁省
龙王线与312省道交叉口西北50米,岫岩满族自治县,鞍山市,123.157685,40.472128,小刀电动车,辽宁省
榆海路东50米,大洼区,盘锦市,122.086383,40.853470,小刀电动车,辽宁省
208省道北50米,建平县,朝阳市,119.563039,41.704915,小刀电动车,辽宁省
102省道东50米,盘山县,盘锦市,122.064227,41.290649,小刀电动车,辽宁省
张柴线与102国道交叉口北50米,新民市,沈阳市,123.004439,41.825663,小刀电动车,辽宁省
无,盘山县,盘锦市,122.161314,41.236631,小刀电动车,辽宁省
繁荣路与龙山大街交叉口西北100米,老边区,营口市,122.377383,40.676018,小刀电动车,辽宁省
城八线,普兰店区,大连市,122.491769,39.518636,小刀电动车,辽宁省
东德线与二杨线交叉口西南50米附近,开原市,铁岭市,124.413274,42.827909,小刀电动车,辽宁省
高升南路与高平街交叉口西150米,盘山县,盘锦市,122.204400,41.342576,小刀电动车,辽宁省
御道东路与沈马线交叉口西北50米,于洪区,沈阳市,123.239436,41.897787,小刀电动车,辽宁省
柳大线附近,新民市,沈阳市,122.609451,41.874875,小刀电动车,辽宁省
永兴街与永富路交叉口东南50米,苏家屯区,沈阳市,123.141300,41.584655,小刀电动车,辽宁省
叶苗线与101国道交叉口西北200米,新民市,沈阳市,123.181187,42.185830,小刀电动车,辽宁省
特优批发部(金张线西),建平县,朝阳市,119.342522,41.793491,小刀电动车,辽宁省
306国道南50米,绥中县,葫芦岛市,120.239872,40.381953,小刀电动车,辽宁省
东郭大街北50米,盘山县,盘锦市,121.666762,41.182525,小刀电动车,辽宁省
兴闫线南50米,凌海市,锦州市,121.370446,41.002054,小刀电动车,辽宁省
大宽街3段71-2号,瓦房店市,大连市,122.004136,39.620429,小刀电动车,辽宁省
秋盛西路11门附近,苏家屯区,沈阳市,123.617797,41.540072,小刀电动车,辽宁省
205省道南50米,阜新蒙古族自治县,阜新市,121.875905,41.951950,小刀电动车,辽宁省
兴隆台街126号附近,兴隆台区,盘锦市,122.062157,41.128109,小刀电动车,辽宁省
无,清原满族自治县,抚顺市,125.229248,42.296795,小刀电动车,辽宁省
S201(木通线),新宾满族自治县,抚顺市,124.819403,41.706939,小刀电动车,辽宁省
海皮公路,普兰店区,大连市,122.247448,39.398798,小刀电动车,辽宁省
106省道东50米,法库县,沈阳市,123.130478,42.285140,小刀电动车,辽宁省
深井子小学对面,浑南区,沈阳市,123.657843,41.780183,小刀电动车,辽宁省
大盘线满族自治县九年一贯制洋河镇学校,岫岩满族自治县,鞍山市,123.419607,40.060021,小刀电动车,辽宁省
东王村,灯塔市,辽阳市,123.446506,41.413145,小刀电动车,辽宁省
106省道南50米,文圣区,辽阳市,123.344324,41.238388,小刀电动车,辽宁省
毛屯路3号附近,连山区,葫芦岛市,120.547670,40.805749,小刀电动车,辽宁省
八面城镇新梨线昌图民祥村镇银行西南,昌图县,铁岭市,123.801460,42.919209,小刀电动车,辽宁省
凤山路72号,凤城市,丹东市,124.080632,40.458844,小刀电动车(凤城市招商局南),辽宁省
开草线,清原满族自治县,抚顺市,124.851356,42.378374,小刀电动车,辽宁省
朱苍线,阜新蒙古族自治县,阜新市,122.010047,42.100889,小刀电动车,辽宁省
煤城路太平花园二小区12号楼,太平区,阜新市,121.681205,42.004027,小刀电动车(太平花园2小区店),辽宁省
汤析线与312省道交叉口东50米,海城市,鞍山市,122.909991,40.701615,小刀电动车,辽宁省
012县道与354乡道交叉口西南50米,台安县,鞍山市,122.358757,41.326957,小刀电动车,辽宁省
采油厂西门西行50米路北,义县,锦州市,121.384451,41.556331,小刀电动车,辽宁省
205省道与718县道交叉口东南50米,黑山县,锦州市,121.876648,41.831928,小刀电动车,辽宁省
沈半线东50米,灯塔市,辽阳市,123.194548,41.477661,小刀电动车,辽宁省
303国道西50米,昌图县,铁岭市,123.813533,43.284271,小刀电动车,辽宁省
太平镇阳光尚城南门,盘山县,盘锦市,121.978805,41.236936,小刀电动车(阳光尚城南门店),辽宁省
315省道西50米,凌源市,朝阳市,119.226143,40.963989,小刀电动车,辽宁省
沙岭南路40号附近,于洪区,沈阳市,123.198000,41.789947,小刀电动车(沙岭南路),辽宁省
鞍蛤线与003县道交叉口西北150米,辽阳县,辽阳市,122.916494,41.215132,小刀电动车,辽宁省
右卫满族镇,凌海市,锦州市,121.540487,41.111081,小刀电动车,辽宁省
羊山镇鞍羊线二医院西250米,朝阳县,朝阳市,120.368072,41.186400,小刀电动车,辽宁省
兴法路258号,法库县,沈阳市,123.425137,42.504003,小刀电动车(法库专卖店),辽宁省
戴尔电脑东南50米(911县道北),阜新蒙古族自治县,阜新市,122.110764,42.324640,小刀电动车,辽宁省
塔平线塔营子乡政府东100米,阜新蒙古族自治县,阜新市,122.067017,42.436005,小刀电动车,辽宁省
沈半线与035县道交叉口西100米,灯塔市,辽阳市,123.103826,41.536197,小刀电动车,辽宁省
沙上线北50米,兴城市,葫芦岛市,120.274156,40.499744,小刀电动车,辽宁省
211省道与722乡道交叉口西南50米,黑山县,锦州市,122.270763,41.882877,小刀电动车,辽宁省
102国道南50米,北镇市,锦州市,121.658410,41.379905,小刀电动车,辽宁省
102国道北50米,北镇市,锦州市,121.970806,41.605905,小刀电动车,辽宁省
302省道东50米,昌图县,铁岭市,123.714882,42.628235,小刀电动车,辽宁省
虎庄镇虎庄中学对面,大石桥市,营口市,122.547702,40.720138,小刀电动车,辽宁省
召都巴镇召都巴村,龙城区,朝阳市,120.401717,41.687646,小刀电动车,辽宁省
松沙线南50米,瓦房店市,大连市,121.883600,39.921052,小刀电动车,辽宁省
小北河车站,辽阳县,辽阳市,122.850030,41.360943,小刀电动车(辽阳飞达小北河店),辽宁省
102国道南50米,凌海市,锦州市,121.404392,41.185045,小刀电动车,辽宁省
宏力装饰材料东南50米(朱苍线南),阜新蒙古族自治县,阜新市,121.877344,42.140889,小刀电动车,辽宁省
高平街与高升南路交叉口西100米,盘山县,盘锦市,122.207684,41.342265,小刀电动车,辽宁省
无,昌图县,铁岭市,123.854713,42.862962,小刀电动车,辽宁省
新华路与205省道交叉口西100米,建平县,朝阳市,119.426283,42.075266,小刀电动车,辽宁省
103省道北50米,开原市,铁岭市,124.373142,42.304967,小刀电动车,辽宁省
202国道东50米,瓦房店市,大连市,122.006019,40.049432,小刀电动车,辽宁省
中兴路与坝四线交叉口东北100米,盘山县,盘锦市,122.371690,41.144615,小刀电动车,辽宁省
杭州东路东50米,沈北新区,沈阳市,123.675131,42.017374,小刀电动车,辽宁省
城八线东50米,瓦房店市,大连市,121.711822,39.728816,小刀电动车(复州城店),辽宁省
兴民路182号附近,凤城市,丹东市,124.098847,40.350074,小刀电动车,辽宁省
东兴路49附近,兴城市,葫芦岛市,120.446304,40.365936,小刀电动车,辽宁省
千一路北50米,凌海市,锦州市,121.494544,41.007769,小刀电动车,辽宁省
704乡道(红盛综合商店斜对面),黑山县,锦州市,122.071270,41.902205,小刀电动车,辽宁省
千一路北50米,凌海市,锦州市,121.554814,40.999460,小刀电动车,辽宁省
西吊桥胡同与西水门沟胡同交叉口东100米,兴城市,葫芦岛市,120.711471,40.622135,小刀电动车(兴城旗舰店),辽宁省
高张线南50米,新民市,沈阳市,122.866170,42.064371,小刀电动车,辽宁省
悦宾旅社(繁荣街东),灯塔市,辽阳市,123.321928,41.433113,小刀电动车(繁荣街店),辽宁省
新台子中学中新大市场D座110,铁岭县,铁岭市,123.600905,42.127585,小刀电动车(新台子镇人民代表大会东北),辽宁省
101国道东50米,凌源市,朝阳市,119.058878,41.016734,小刀电动车(三十家子专卖店),辽宁省
阜大线东50米,阜新蒙古族自治县,阜新市,121.460703,42.130063,小刀电动车(红帽子乡卫生院西南),辽宁省
同衙线与101国道交叉口东150米,阜新蒙古族自治县,阜新市,121.504883,42.062778,小刀电动车(王府店),辽宁省
肇兴街92号附近,新宾满族自治县,抚顺市,125.042974,41.727320,小刀电动车(建兴小区东),辽宁省
102国道西50米,开原市,铁岭市,124.004214,42.628330,小刀电动车(金沟子专卖店),辽宁省
314省道东100米,阜新蒙古族自治县,阜新市,122.018486,41.965543,小刀电动车(富荣镇店),辽宁省
九三路30-5号,旅顺口区,大连市,121.261270,38.816301,小刀电动车(九三路店),辽宁省
小潘南四街与102省道交叉口南50米(小潘小学附近),铁西区,沈阳市,123.140865,41.691369,小刀电动车(小潘南四街店),辽宁省
平安路97号附近,海州区,阜新市,121.618856,41.969863,小刀电动车(树柏平西店),辽宁省
关陶线,岫岩满族自治县,鞍山市,123.558632,40.458156,小刀电动车(朝阳店),辽宁省
307省道北50米七道岭初级中学附近,朝阳县,朝阳市,120.643285,41.389923,小刀电动车(七道岭专卖店),辽宁省
101国道与205省道交叉口南100米,阜新蒙古族自治县,阜新市,121.721636,42.117821,小刀电动车(阜新镇医院东南),辽宁省
大五家子镇大五家子加油站对面,阜新蒙古族自治县,阜新市,121.340196,42.196128,小刀电动车(阜大线),辽宁省
城东路41-2号楼附近,岫岩满族自治县,鞍山市,123.293379,40.281919,小刀电动车(旗舰店),辽宁省
东北大马路55号,大东区,沈阳市,123.476647,41.818850,小刀电动车(东北大马路),辽宁省
204省道东50米,义县,锦州市,121.315387,41.640528,小刀电动车(观音堂专卖店),辽宁省
哈大路926附近,开原市,铁岭市,124.055502,42.536337,小刀电动车(汽配城东旺宜家东南),辽宁省
高糜线与213省道交叉口西50米,绥中县,葫芦岛市,120.148301,40.385618,小刀电动车(二密专卖店),辽宁省
石桥子站(沈本产业大道西),溪湖区,本溪市,123.724227,41.451644,小刀电动车(中共石桥子街道工作委员会西南),辽宁省
人民路与西内环路交叉口东150米,黑山县,锦州市,122.114456,41.691813,小刀电动车(诚信家园店),辽宁省
211省道西50米,阜新蒙古族自治县,阜新市,122.260106,42.107737,小刀电动车(十家子店),辽宁省
沙新线与沙范线交叉口西100米,绥中县,葫芦岛市,120.249090,40.274165,小刀电动车(沙范线),辽宁省
101国道与211省道交叉口西北50米,彰武县,阜新市,122.130301,42.487253,小刀电动车(哈尔套专卖),辽宁省
104省道西50米,抚顺县,抚顺市,124.220190,41.704505,小刀电动车(东南书香苑北),辽宁省
中兴西路73号,新民市,沈阳市,122.825821,41.994159,小刀电动车(中兴西路店),辽宁省
大市场北门,建平县,朝阳市,119.717213,41.902631,小刀电动车(锦赤线),辽宁省
开草线北50米,开原市,铁岭市,124.664965,42.368984,小刀电动车(李家台专卖店),辽宁省
繁荣大街与振兴中路交叉口旁,大石桥市,营口市,122.503017,40.635805,小刀电动车(繁荣大街),辽宁省
101省道锦州烧烤对面,大石桥市,营口市,122.377628,40.774161,小刀电动车(高坎运输管理所东北),辽宁省
中兴街与致富东路交叉口振兴超市旁,台安县,鞍山市,122.491010,41.319782,小刀电动车(致富西路),辽宁省
滨河西路149号,本溪满族自治县,本溪市,124.132846,41.300830,小刀电动车(本溪小市专卖店),辽宁省
102国道东50米,绥中县,葫芦岛市,119.949896,40.098275,小刀电动车(前所镇人民政府东南),辽宁省
102国道西50米,开原市,铁岭市,124.003867,42.437257,小刀电动车(中固专卖店),辽宁省
两家子农场两家子镇街里邮政储蓄银行对面,昌图县,铁岭市,123.676208,42.684800,小刀电动车(两家子专卖店),辽宁省
平安地镇政府南50米,阜新蒙古族自治县,阜新市,121.876821,42.487360,小刀电动车(平安地店),辽宁省
阳市中兴西路88号,新民市,沈阳市,123.069187,41.784929,小刀电动车(东星家园西),辽宁省
305国道北50米,义县,锦州市,121.376105,41.392685,小刀电动车(中共义县白庙子乡委员会西),辽宁省
民族路与黄河大街交叉口东150米,桓仁满族自治县,本溪市,125.360760,41.271905,小刀电动车(民族路),辽宁省
321省道中国联通旁,大石桥市,营口市,122.249086,40.819911,小刀电动车(沟沿农业站东),辽宁省
杭州路与金星街交叉口东50米,沈北新区,沈阳市,123.520211,42.057974,小刀电动车(喜得隆旗舰店),辽宁省
振兴街87号附近,凤城市,丹东市,124.248003,40.550250,小刀电动车(军民路),辽宁省
910县道,彰武县,阜新市,122.255177,42.383441,小刀电动车(平安专卖店),辽宁省
105省道东50米,昌图县,铁岭市,123.870580,42.998130,小刀电动车(东嘎专卖店),辽宁省
102国道与706县道交叉口南200米,北镇市,锦州市,121.792664,41.589906,小刀电动车(北镇市世康医院南),辽宁省
胜利东路18号(台安县劳动和社会保障局西北),台安县,鞍山市,122.430684,41.388931,小刀电动车(台安县劳动和社会保障局西北),辽宁省
叶元线西50米,法库县,沈阳市,122.945746,42.474259,小刀电动车(包家屯专卖店),辽宁省
开草线北50米,开原市,铁岭市,124.519821,42.471036,小刀电动车(八棵树专卖店),辽宁省
203国道东50米,康平县,沈阳市,123.485760,42.844529,小刀电动车(北四家子专卖店),辽宁省
法张线北50米,康平县,沈阳市,123.140017,42.656886,小刀电动车(法张线),辽宁省
辽中区辽中区满都户镇,辽中区,沈阳市,122.642759,41.602690,小刀电动车(满都户镇人民政府东南),辽宁省
209省道西50米,凌海市,锦州市,121.225448,41.002701,小刀电动车(娘娘宫店),辽宁省
延安路与红岩路交叉口西北50米,庄河市,大连市,122.976855,39.702559,小刀电动车庄河专卖店,辽宁省
高岭村附近,绥中县,葫芦岛市,120.012758,40.149624,小刀电动车(高岭镇人民政府北),辽宁省
顺城路126附近,西丰县,铁岭市,124.722331,42.740127,小刀电动车(西丰县劳动保障监察大队南),辽宁省
前卫镇政府东50米(前吕线南)(绥中县前卫镇初级中学附近),绥中县,葫芦岛市,120.105749,40.187217,小刀电动车(温和专卖),辽宁省
赵河线北50米,法库县,沈阳市,123.458829,42.318598,小刀电动车(冯贝堡专卖店),辽宁省
沈阜开发大道西50米,新民市,沈阳市,123.064126,41.919328,小刀电动车(巴厘·泉乡西北),辽宁省
调兵山街道铁秀路金都名苑,调兵山市,铁岭市,123.556550,42.458070,小刀电动车(金都名苑店),辽宁省
中央路与102大街交叉口北100米,北镇市,锦州市,121.772772,41.367148,小刀电动车(恒信小区西南),辽宁省
辽中区茨榆街88号附近,辽中区,沈阳市,122.888675,41.510095,小刀电动车(华兴路),辽宁省
303国道北50米,昌图县,铁岭市,123.931560,43.221550,小刀电动车(曲家专卖店),辽宁省
北兴线与红兴路交叉口西北200米,于洪区,沈阳市,123.273891,41.852624,高家小刀电动车,辽宁省
麦潮图兰朵KTV(102国道),新民市,沈阳市,123.151516,41.789026,上海杰宝电动车(新民市胡台卫生院西),辽宁省
东街与北街交叉口东100米,义县,锦州市,121.245222,41.543525,小刀双动力电动车,辽宁省
305国道东50米,盖州市,营口市,122.553858,40.137320,顺发小刀电动车(万福专卖店),辽宁省
后鸡线南50米,灯塔市,辽阳市,123.471535,41.397700,小刀电动车苏三车行,辽宁省
辽中区潘家堡卫生院(潘乌线北60米),辽中区,沈阳市,122.848510,41.608200,小刀电动车专卖,辽宁省
长白街北50米,大洼区,盘锦市,122.097311,40.782829,小刀电动车行,辽宁省
105省道东50米,昌图县,铁岭市,123.712219,42.804284,小刀电动车商行,辽宁省
彰恒线八宝镇委八宝镇人民政府附近,开原市,铁岭市,123.921562,42.567372,志勇小刀电动车,辽宁省
跃进街道辽河大街42一甲10号,站前区,营口市,122.257982,40.680204,小刀电动车行,辽宁省
102国道南50米,凌海市,锦州市,121.404392,41.185045,欧皇重三轮车,辽宁省
301省道南50米,西丰县,铁岭市,124.473316,42.716606,小刀电动车曲和经销部,辽宁省
101国道南50米,北票市,朝阳市,121.086172,41.907626,小刀双动力电动车,辽宁省
解放大街115号,彰武县,阜新市,122.531891,42.385302,小刀双动力电动车,辽宁省
南阳湖街道沈辽路杨士村,于洪区,沈阳市,123.305221,41.762272,小刀双动力电动车,辽宁省
新开街与新邱大街交叉口北50米路西,新邱区,阜新市,121.787959,42.084583,小刀双动力电动车,辽宁省
张庄公路与苏大线交叉口东北200米,岫岩满族自治县,鞍山市,123.414553,40.400694,宗申摩托,辽宁省
喇龟线南50米,建昌县,葫芦岛市,119.335458,40.605476,小刀电动车老大丈子专卖店,辽宁省
二界沟镇张章旅店(211省道西),大洼区,盘锦市,121.966641,40.807920,小刀电动车小叶专卖店,辽宁省
沙十线西50米,阜新蒙古族自治县,阜新市,122.003824,42.212879,招束沟金彭小刀电动车,辽宁省
枫杨路105号4门,苏家屯区,沈阳市,123.331652,41.658799,小刀双动力电动车,辽宁省
前聚宝街150-10号,元宝区,丹东市,124.400495,40.138352,小刀双动力电动车(前聚宝街),辽宁省
杨南线与黑后线交叉口西北50米,建昌县,葫芦岛市,119.943549,40.723465,黑山科九辉小刀电动车专卖店,辽宁省
富春路与敬业路交叉口南100米,金州区,大连市,122.035861,39.271310,小岛,辽宁省
南八东路17号,铁西区,沈阳市,123.376093,41.784150,小菊自行车电动车配件批发(德爱店),辽宁省
塔山路10号附近,苏家屯区,沈阳市,123.511130,41.573910,小岛电动车,辽宁省
四合路16-1号,细河区,阜新市,121.640595,42.014717,宏鑫电动车行,辽宁省
312省道北50米,海城市,鞍山市,122.820197,40.738937,小程电动车行,辽宁省
海新路252-1号附近,太平区,阜新市,121.745690,42.033488,邦德电动车售后,辽宁省
昆明湖街道沈辽路宁官市场西50米,铁西区,沈阳市,123.277367,41.757925,小武电动车行(沈辽路店),辽宁省
前聚宝街150-10号,元宝区,丹东市,124.400031,40.138559,小巴士老年电动代步车,辽宁省
解放大街115-5门,彰武县,阜新市,122.532777,42.385045,小岛电动车,辽宁省
同衙线与101国道交叉口东150米,阜新蒙古族自治县,阜新市,121.504799,42.062829,大华车行,辽宁省
商业街59号,辽中区,沈阳市,122.735295,41.514324,小岛电动车(辽中旗舰店),辽宁省
新春街道大马路与五马路交汇469号,南关区,长春市,125.339968,43.898522,小刀电动车(大马路),吉林省
东四马路与大马路交叉口北50米,南关区,长春市,125.340281,43.896628,小刀电动车(大马路),吉林省
南一经街东(四平市天主教会西南200米),铁东区,四平市,124.379039,43.161129,小刀电动车(四平旗舰店),吉林省
海明西路51-1号,洮北区,白城市,122.830028,45.613146,小刀电动车,吉林省
和平路与新华街交叉口西南100米,德惠市,长春市,125.710818,44.538147,小刀电动车(德惠旗舰店),吉林省
进学街道局子街建材公寓东,延吉市,延边朝鲜族自治州,129.517589,42.906870,小刀电动车(国富商业步行街店),吉林省
吉林大街318-5附近,船营区,吉林市,126.566531,43.856857,小刀电动车(吉林大街),吉林省
浑江大街315-6号,浑江区,白山市,126.404583,41.924349,小刀电动车,吉林省
福安路1169号,磐石市,吉林市,126.056479,42.946914,小刀电动车(福安路店),吉林省
快大茂镇团结路1138号小刀电动车,通化县,通化市,125.765917,41.678851,小刀电动车(新开街),吉林省
园丁街朝阳小学对面,延吉市,延边朝鲜族自治州,129.377296,42.880831,小刀电动车,吉林省
蛟河大街18-16号,蛟河市,吉林市,127.347147,43.722732,小刀电动车(蛟河专卖店),吉林省
富文西路555号附近,洮南市,白城市,122.790083,45.343895,小刀电动车(鑫昌大卖场),吉林省
建设大街091-1-4号,东昌区,通化市,125.962752,41.736780,小刀电动车(新平路),吉林省
振瀛大路571号,扶余市,松原市,126.033652,44.984552,小刀电动车(振瀛大路店),吉林省
东前进街与凯旋路交叉口东50米,辉南县,通化市,126.045869,42.681879,小刀电动车,吉林省
东风路2565号,东丰县,辽源市,125.541117,42.675361,小刀电动车,吉林省
农前线与015乡道交叉口西50米,前郭尔罗斯蒙古族自治县,松原市,124.684121,44.739245,小刀电动车,吉林省
伊通镇中华西路福隆·时代广场北50米,伊通满族自治县,四平市,125.291660,43.343313,小刀电动车(中华西路),吉林省
繁荣大街2947号,通榆县,白城市,123.086437,44.805000,小刀电动车(繁荣南街),吉林省
长白西路266号附近,大安市,白城市,123.765362,45.586247,小刀电动车,吉林省
春阳小区西北80米(光明路东),桦甸市,吉林市,126.755468,42.967412,小刀电动车,吉林省
光明路与国文大街交叉口东北150米,公主岭市,四平市,124.813845,43.499014,小刀电动车(国文大街),吉林省
东胜利大街西100米,公主岭市,四平市,125.084230,43.718384,小刀电动车,吉林省
站前路78附近,九台区,长春市,125.834297,44.153354,小刀电动车(站前路),吉林省
062乡道与102国道交叉口西南100米,梨树县,四平市,124.671464,43.412279,小刀电动车(浩达家园北),吉林省
清源路西50米,公主岭市,四平市,125.081630,43.720079,小刀电动车,吉林省
团结东路326号附近,镇赉县,白城市,123.209484,45.851876,小刀电动车(胜利卫生院东北),吉林省
岭城西路与长丰南街交叉口西南50米,长岭县,松原市,123.976069,44.275937,小刀双动力电动车,吉林省
陶家一中,公主岭市,四平市,124.991576,43.645561,小刀电动车,吉林省
东春路292号附近,双辽市,四平市,123.515096,43.508961,小刀电动车,吉林省
105乡道与202国道交叉口东北100米,龙潭区,吉林市,126.552210,44.030138,小刀电动车(105乡道店),吉林省
新市街212号附近,双辽市,四平市,123.507699,43.508268,小刀电动车,吉林省
辽河大路179附近,龙山区,辽源市,125.138848,42.899328,小刀电动车,吉林省
三道街596号附近,舒兰市,吉林市,126.951035,44.406710,小刀电动车,吉林省
和和龙大街49-1号附近,和龙市,延边朝鲜族自治州,129.004289,42.542974,小刀电动车,吉林省
瞻榆镇中意大药房南,通榆县,白城市,122.657401,44.512483,小刀电动车,吉林省
010县道北50米,农安县,长春市,124.807001,44.549357,小刀电动车,吉林省
辽河大路5516号附近,龙山区,辽源市,125.149916,42.895027,小刀双动力电动车,吉林省
文化街与龙泉路交叉口东南100米,通化县,通化市,125.709836,41.472562,小刀电动车(西江专卖店),吉林省
延年大街与052县道交叉口东南50米,梨树县,四平市,124.245341,43.662678,小刀电动车,吉林省
福顺段西100米,洮南市,白城市,122.546793,45.515192,小刀电动车(小康东路),吉林省
汪清街51号附近,汪清县,延边朝鲜族自治州,129.762877,43.316339,小刀电动车,吉林省
大兴街179号附近大兴街与金城路交叉口西100米,桦甸市,吉林市,126.738864,42.967957,小刀双动力电动车,吉林省
建国街道大厦后北环,临江市,白山市,126.913184,41.810852,小刀电动车行,吉林省
西买卖大街64号,梨树县,四平市,124.331300,43.311134,尼科尼亚电动车小刀电动车,吉林省
富文东路与松辽北街交叉口东100米,洮南市,白城市,122.790019,45.343888,鑫昌大卖场(富文东路),吉林省
香茗街6之5-6,香坊区,哈尔滨市,126.687622,45.730394,小刀电动车(香坊旗舰店),黑龙江省
康安路45-3号,道里区,哈尔滨市,126.604463,45.737475,小刀电动车(康安路),黑龙江省
富锦街93-18号,道外区,哈尔滨市,126.647181,45.790521,小刀电动车(哈尔滨旗舰店),黑龙江省
东市场小区33号楼1层,建华区,齐齐哈尔市,123.966056,47.350834,小刀电动车,黑龙江省
西苑街249号附近,让胡路区,大庆市,124.856856,46.632644,小刀电动车(西苑街),黑龙江省
西三条路160号,西安区,牡丹江市,129.610169,44.578393,小刀电动车,黑龙江省
乘风大街584-15号,让胡路区,大庆市,124.878757,46.565722,小刀电动车,黑龙江省
英雄街78号附近,海林市,牡丹江市,129.391483,44.568994,小刀电动车(英雄街店),黑龙江省
甘南镇文明大街甘南青少年活动中心,甘南县,齐齐哈尔市,123.505083,47.921314,小刀电动车,黑龙江省
北一道路与新华街交叉口西南100米,富裕县,齐齐哈尔市,124.468432,47.798170,小刀电动车(铁东总店),黑龙江省
麻城大道南50米,兰西县,绥化市,126.282891,46.259003,小刀电动车(西环路),黑龙江省
北二街与202国道交叉口东南100米,明水县,绥化市,125.902214,47.181294,小刀电动车(明珠花园小区西北),黑龙江省
中直北路166号附近,北林区,绥化市,126.987226,46.642397,小刀电动车,黑龙江省
中央大街580号,富锦市,佳木斯市,132.031076,47.247552,小刀电动车,黑龙江省
永乐巷东100米,宁安市,牡丹江市,129.481192,44.349748,小刀电动车电动车修理部,黑龙江省
北横街243号,安达市,绥化市,125.328527,46.411584,小刀电动车,黑龙江省
政府街与长江北路交叉口东100米,青冈县,绥化市,126.103126,46.688578,小刀电动车,黑龙江省
一道街电子城,北安市,黑河市,126.515526,48.240002,小刀电动车,黑龙江省
同乐商服9号门,大同区,大庆市,124.830059,46.034657,小刀电动车,黑龙江省
海伦镇雷炎大街二轻医院西楼中国银行对面,海伦市,绥化市,126.954991,47.458554,小刀电动车,黑龙江省
北二道街116号,呼兰区,哈尔滨市,126.605369,45.989246,小刀电动车(呼兰区旗舰店),黑龙江省
奋斗路56号附近,望奎县,绥化市,126.483733,46.829877,小刀,黑龙江省
育才街109号,讷河市,齐齐哈尔市,124.876943,48.482236,小刀电动车(育才街),黑龙江省
福民大街与繁华路交叉口西北100米,嫩江县,黑河市,125.226248,49.178506,小刀电动车,黑龙江省
黑台镇,密山市,鸡西市,131.620395,45.414498,小刀电动车,黑龙江省
东环北路与德明街交叉口东南150米,肇州县,大庆市,125.284964,45.710538,小刀电动车(民政局北),黑龙江省
一道街万米楼北方北门对面,北安市,黑河市,126.507347,48.238624,小刀电动车,黑龙江省
东城路与繁荣大街交叉口西50米,绥棱县,绥化市,127.123060,47.241714,小刀电动车(绥棱专卖店),黑龙江省
东兴路与宏源街交叉口东50米,东宁市,牡丹江市,131.131622,44.061482,小刀电动车(东宁专卖店),黑龙江省
人民街附近,拜泉县,齐齐哈尔市,126.086648,47.613258,小刀电动车,黑龙江省
四明南路中国银行东南50米,肇东市,绥化市,125.997506,46.070270,小刀电动车(四明南路店),黑龙江省
木兰镇振兴大街中医医院,木兰县,哈尔滨市,128.041020,45.954076,小刀电动车(民方街),黑龙江省
中经路71号附近,木兰县,哈尔滨市,127.871927,46.382251,小刀电动车,黑龙江省
一道街90号附近,让胡路区,大庆市,124.791292,46.701075,小刀电动车,黑龙江省
152县道与506乡道交叉口西150米,五常市,哈尔滨市,126.726395,45.244877,小刀电动车,黑龙江省
朝阳街附近,东山区,鹤岗市,130.306015,47.113077,小刀电动车(新华店),黑龙江省
延川大街326号,阿城区,哈尔滨市,126.970180,45.532386,小刀电动车(工商街),黑龙江省
旭日街道伊春区客动站西100米(如家酒店北40米)戏曲剧院对过,伊春区,伊春市,128.911554,47.728171,小刀电动车,黑龙江省
中央大街547号附近,肇源县,大庆市,125.084084,45.528582,小刀电动车(中央大街),黑龙江省
绥滨镇振兴大街顺达驾校东北100米,绥滨县,鹤岗市,131.866652,47.291019,小刀电动车(振兴大街),黑龙江省
中央大街348-1号附近,富锦市,佳木斯市,132.630765,47.254095,小刀电动车,黑龙江省
铁通公路75号附近,尚志市,哈尔滨市,127.987578,45.214653,小刀电动车,黑龙江省
307省道南50米,桦南县,佳木斯市,130.223232,46.350363,小刀电动车专卖店,黑龙江省
南直路南50米,巴彦县,哈尔滨市,127.403693,46.075509,小刀电动车(巴彦旗舰店),黑龙江省
三宝公路西50米,依兰县,哈尔滨市,130.112725,46.114621,小刀电动车,黑龙江省
建设街与满洲龙路交叉口西北150米,嘉荫县,伊春市,130.396548,48.889121,小刀电动车(嘉荫店),黑龙江省
新兴路278号,桦南县,佳木斯市,130.581408,46.242466,追风鸟电动车,黑龙江省
312省道附近,绥滨县,鹤岗市,131.850364,47.548994,小刀电动车,黑龙江省
无,富拉尔基区,齐齐哈尔市,123.646643,47.206924,小刀电动车,黑龙江省
无,克东县,齐齐哈尔市,126.252610,48.038542,小刀电动车,黑龙江省
哈肇路与胜利街交叉口南200米,汤原县,佳木斯市,129.908472,46.732175,小刀双动力电动车,黑龙江省
公园路与和平大街交叉口西南50米,绥滨县,鹤岗市,131.691357,47.523371,小刀双动力电动车,黑龙江省
307省道北50米,桦南县,佳木斯市,130.220555,46.349963,小刀电动车&追风鸟电动车(土龙分店),黑龙江省
密山镇光复街247号,密山市,鸡西市,131.874051,45.549550,小刀双动力电动车,黑龙江省
008乡道与212县道交叉口西100米,桦南县,佳木斯市,130.225663,46.351397,宗申机车&小刀电动车,黑龙江省
解放西街180号附近,虎林市,鸡西市,132.970891,45.766594,小岛电动车行,黑龙江省
胜利街与英雄街交叉口西100米,海林市,牡丹江市,129.391534,44.568997,小山东电动车行(英雄街店),黑龙江省
MNAIL日式美甲美睫(常徳路店)常德路649号,静安区,上海市,121.444596,31.231542,小刀电动车,上海市
三林镇上南路5600号喜地农贸市场对面,浦东新区,上海市,121.526669,31.126679,小刀电动车,上海市
桂林路634-1号,徐汇区,上海市,121.414199,31.180219,小刀电动车(桂林路店),上海市
九亭镇沪松公路1524号,松江区,上海市,121.314021,31.136181,小刀电动车,上海市
高境镇一二八纪念路217号,宝山区,上海市,121.462025,31.327196,小刀电动车,上海市
亭前街与罗升路交叉口南100米,宝山区,上海市,121.343380,31.411718,小刀电动车(罗升路店),上海市
大统路867号,静安区,上海市,121.459423,31.253553,小刀电动车(大统路店),上海市
哈密路480号,长宁区,上海市,121.373529,31.210484,小刀电动车专卖店,上海市
清河路416号1室,嘉定区,上海市,121.235627,31.377492,小刀电动车,上海市
曹路镇川沙路455号,浦东新区,上海市,121.669074,31.276816,小刀电动车,上海市
泗泾镇横港路655号,松江区,上海市,121.263330,31.106744,小刀电动车,上海市
浦江镇浦连路360号,闵行区,上海市,121.538306,31.054853,小刀电动车,上海市
松汇中路与谷阳南路交叉口东50米,松江区,上海市,121.237305,31.002898,小刀电动车(松汇中路),上海市
桃浦镇红棉路108号,普陀区,上海市,121.350418,31.279161,小刀电动车(红棉路店),上海市
惠东路539号,浦东新区,上海市,121.773061,31.043819,小刀电动车,上海市
军民公路18-20号附近,浦东新区,上海市,121.632686,31.178496,小刀电动车,上海市
文涵路158号,松江区,上海市,121.188457,31.027023,小刀电动车,上海市
华新镇上海上海青浦新府路119号,青浦区,上海市,121.226421,31.242789,小刀电动车,上海市
顾曹公路588号,浦东新区,上海市,121.664509,31.292377,小刀电动车,上海市
杨桃路191号附近,宝山区,上海市,121.438731,31.372138,小刀电动车,上海市
岳州路与舟山路交叉口北50米,虹口区,上海市,121.502412,31.260418,小刀电动车,上海市
浦江镇闸航路2812号,闵行区,上海市,121.529790,31.019900,小刀车行,上海市
赵巷镇镇泽路389号,青浦区,上海市,121.191448,31.158387,小刀电动车,上海市
莘北路121-8号附近,闵行区,上海市,121.373198,31.113842,小刀电动车,上海市
桃浦路1154-1156号附近,普陀区,上海市,121.379965,31.261379,小刀电动车,上海市
古龙路与龙茗路交叉口西北50米,闵行区,上海市,121.384330,31.145429,小刀电动车,上海市
眉州支路与眉州路交叉口西北50米,杨浦区,上海市,121.529647,31.268972,小刀电动车(眉州路店),上海市
三泉路1318号附近,宝山区,上海市,121.440523,31.323202,上海小刀电动车专卖,上海市
南城路航星KTV南50米,浦东新区,上海市,121.597144,31.027452,小刀电动车,上海市
安亭镇方泰嘉松北路4155号,嘉定区,上海市,121.215920,31.320510,小刀电动车(嘉松北路),上海市
外冈镇外青镇外青松公路128号,嘉定区,上海市,121.174379,31.360582,小刀电动车,上海市
沪太路1030-3号附近,普陀区,上海市,121.431089,31.272882,小刀电动车,上海市
高东镇杨园镇南路4号,浦东新区,上海市,121.633951,31.304810,小刀电动车(镇南路店),上海市
乐都路419号-8,松江区,上海市,121.219671,31.013177,小刀电动车,上海市
祝桥镇施新路551弄11号,浦东新区,上海市,121.751065,31.146711,小刀电动车,上海市
华漕镇华江公路1309号,闵行区,上海市,121.326757,31.227840,小刀电动车,上海市
南祝路5129号附近(腾飞车行),浦东新区,上海市,121.757073,31.111178,小刀电动车,上海市
南桥立新路与新建中路交叉口西北50米,奉贤区,上海市,121.458960,30.917333,小刀电动车,上海市
场中路与沽源支路交叉口东南50米,虹口区,上海市,121.474724,31.306681,小刀电动车,上海市
南桥镇南奉公路9292号,奉贤区,上海市,121.466650,30.912865,小刀电动车(南奉公路),上海市
锦秋路1466-1470号,宝山区,上海市,121.376597,31.317889,小刀电动车(瑞丰路),上海市
新桥路737号,青浦区,上海市,121.102291,31.213193,小刀电动车,上海市
北松公路1558附近,闵行区,上海市,121.374487,31.030827,小刀电动车,上海市
宣桥镇亦园路74弄60-62号,浦东新区,上海市,121.713785,31.069755,小刀电动车,上海市
新场镇沪南公路7244号,浦东新区,上海市,121.643071,31.027476,小刀电动车(新场店),上海市
北青公路4645号附近,青浦区,上海市,121.231655,31.195544,小刀电动车,上海市
陈川路216-1号,宝山区,上海市,121.339356,31.479000,小刀电动车(陈川路店),上海市
高桥镇张杨北路5368号,浦东新区,上海市,121.576802,31.341280,小刀电动车(张杨北路店),上海市
川环南路与曙光路交叉口东150米,浦东新区,上海市,121.710407,31.189578,小刀电动车,上海市
川沙路2901号,浦东新区,上海市,121.687428,31.230235,小刀电动车,上海市
彭丰路与浦港路交叉口西100米,松江区,上海市,121.149669,31.006298,小刀电动车,上海市
周浦镇建设南路12号,浦东新区,上海市,121.654785,31.105991,小刀电动车专卖(建设路),上海市
北翟路1552号(豪爵车行),闵行区,上海市,121.339381,31.224251,小刀电动车,上海市
福中路与重固镇大街交叉口西北50米,青浦区,上海市,121.181034,31.198494,小刀电动车,上海市
康兴路40号,金山区,上海市,121.181726,30.827871,小刀电动车(吕巷店),上海市
曲池路与沈砖公路交叉口西南50米,青浦区,上海市,121.057611,31.076158,小刀电动车(曲池路店),上海市
南芦公路19弄1号-5,浦东新区,上海市,121.715166,31.033442,小刀电动车,上海市
金汇镇泰日社区振泰路41号,奉贤区,上海市,121.564247,30.980834,小刀电动车,上海市
大团镇永春南路158号,浦东新区,上海市,121.738438,30.966196,小刀电动车,上海市
石化学府路701号,金山区,上海市,121.322056,30.729529,小刀电动车,上海市
六灶镇南六公路1191号,浦东新区,上海市,121.705415,31.105541,小刀电动车,上海市
川周公路与芙蓉路交叉口北50米,浦东新区,上海市,121.669424,31.163046,小刀电动车,上海市
罗星南路571号,金山区,上海市,121.169254,30.890321,小刀电动车,上海市
凤滨路889号附近,崇明区,上海市,121.673548,31.393354,小刀电动车(凤滨路),上海市
惠南镇南芦公路38弄4号,浦东新区,上海市,121.714653,31.031902,小刀电动车,上海市
新浜镇叶新公路6410号,松江区,上海市,121.064399,30.933061,小刀电动车(菜场路店),上海市
凤滨路599号附近,崇明区,上海市,121.680989,31.391837,小刀电动车(凤滨路店),上海市
银杏路78-1附近,普陀区,上海市,121.346463,31.286956,小刀电动车,上海市
光明路168-170号附近,奉贤区,上海市,121.518713,30.906787,小刀电动车,上海市
江海路265号附近,奉贤区,上海市,121.458501,30.905900,小刀电动车,上海市
昌里东路,浦东新区,上海市,121.512089,31.177430,小刀电动车,上海市
方塔北路与方塔南路交叉口北50米,松江区,上海市,121.248575,31.007327,小刀电动车,上海市
南芦公路35附近,浦东新区,上海市,121.714682,31.031985,爱玛小刀电动车旗舰店,上海市
江学路40号,松江区,上海市,121.214790,31.037844,小刀电动车富贵车业连锁,上海市
北蔡镇顾全路381号,浦东新区,上海市,121.539623,31.171615,上海富家保健按摩有限公司富家车行小刀电动车,上海市
桃浦镇红棉路299号,普陀区,上海市,121.350782,31.282511,小牛电动车行,上海市
张弄村476号对面,奉贤区,上海市,121.522503,30.905796,小万车行(张弄中心路),上海市
真如镇街道真光路1860号,普陀区,上海市,121.385865,31.253731,小吴车行(真光路),上海市
高科西路2861号附近,浦东新区,上海市,121.557334,31.189174,小吕车行(高科西路店),上海市
隆昌路211号,杨浦区,上海市,121.548636,31.269324,小刀电动车,上海市
德华路709号附近,嘉定区,上海市,121.306269,31.291733,小刀电动车,上海市
华富街44号,青浦区,上海市,121.234433,31.244674,小刀电动车,上海市
鹤沙路736号,浦东新区,上海市,121.589597,31.081709,建茂车行·小刀电动车,上海市
杨舍镇福前小区13栋4M,张家港市,苏州市,120.550762,31.905498,小刀,江苏省
建东路与汉江东路交叉口东150米,新北区,常州市,119.992037,31.827684,小刀,江苏省
西安北路与西安路交叉口东南50米,清江浦区,淮安市,118.998898,33.587486,小刀,江苏省
中华西路59-1-5号,连云区,连云港市,119.358926,34.739286,小刀(墟沟专卖店),江苏省
东环路与新蕾路交叉口北50米,江阴市,无锡市,120.518372,31.797768,小刀(新桥旗舰店),江苏省
集庆门大街1号1附近,建邺区,南京市,118.765617,32.019640,小刀电动车专卖店,江苏省
坊前路15号,新吴区,无锡市,120.386855,31.560662,小刀电动车(厂家直营店),江苏省
仙林大道118号尚东商业街A-1室,栖霞区,南京市,118.927294,32.095287,小刀电动车,江苏省
上元大街顺达佳苑619号,江宁区,南京市,118.850311,31.955616,小刀电动车(上元大街店),江苏省
唯亭街道青剑湖都市生活广场2幢,苏州工业园区,苏州市,120.712586,31.364276,小刀电动车,江苏省
宁芜公路93-27号附近,雨花台区,南京市,118.721403,31.963774,小刀电动车,江苏省
京华城路与怡景路交叉口东100米,邗江区,扬州市,119.379730,32.384184,小刀电动车,江苏省
衡山路博悦电脑城3区17室,昆山市,苏州市,120.964562,31.357416,小刀电动车,江苏省
仙鹤门鹤鸣路52-15号,玄武区,南京市,118.902984,32.087310,小刀电动车,江苏省
第一岗茂业百货,新吴区,无锡市,120.359343,31.543104,小刀电动车,江苏省
南湖路与水西门大街交叉口北50米,建邺区,南京市,118.757500,32.032994,小刀电动车,江苏省
葑亭大道798号附近,苏州工业园区,苏州市,120.687152,31.342004,小刀电动车,江苏省
南环西路与南环路高架入口交叉口东北50米,姑苏区,苏州市,120.607528,31.277812,小刀电动车,江苏省
月牙湖街道后标营50-10邻,秦淮区,南京市,118.824895,32.030945,小刀电动车,江苏省
枫津路15-3号附近,吴中区,苏州市,120.636700,31.244090,小刀电动车,江苏省
新吴区长江北路863号,梁溪区,无锡市,120.329349,31.575255,小刀电动车,江苏省
湖塘镇大学城轻工学院西门武宜中路69号,武进区,常州市,119.935622,31.678021,小刀电动车,江苏省
长江中路262-3号,钟楼区,常州市,119.928551,31.771931,小刀电动车,江苏省
齐门北大街76号,相城区,苏州市,120.620837,31.368209,小刀电动车,江苏省
胃塘镇胃中路47号,相城区,苏州市,120.650877,31.462422,小刀电动车,江苏省
邗江中路166号附近,邗江区,扬州市,119.401599,32.365419,小刀电动车,江苏省
夹河中街与黄河南路交叉口东南100米,泉山区,徐州市,117.182622,34.271168,小刀电动车,江苏省
青年路千府大酒店一楼,海州区,连云港市,119.175968,34.597715,小刀电动车,江苏省
上海路与同康巷交叉口东南50米,铜山区,徐州市,117.185041,34.185993,小刀电动车,江苏省
春江镇创业中路99号百丈五金机械厂向西100米,新北区,常州市,119.957344,31.918458,小刀电动车,江苏省
人民东路26-6号附近,武进区,常州市,119.968504,31.726360,小刀电动车,江苏省
下淀路138号,鼓楼区,徐州市,117.220148,34.285087,小刀电动车,江苏省
扬子江中路511号附近,邗江区,扬州市,119.417250,32.380656,小刀电动车,江苏省
淮海中路嘉联紫金城A2幢10号,泗阳县,宿迁市,118.688183,33.712709,小刀电动车,江苏省
百水桥路西50米,栖霞区,南京市,118.906476,32.049411,小刀电动车,江苏省
解放东路与龙河北路交叉口东50米,海州区,连云港市,119.186550,34.607440,小刀电动车,江苏省
富康路358号富康路派出所对面,宿城区,宿迁市,118.283007,33.948601,小刀电动车,江苏省
广德路24,鼓楼区,徐州市,117.277778,34.287273,小刀电动车,江苏省
大学南路与文汇东路交叉口东100米,邗江区,扬州市,119.427329,32.385377,小刀电动车,江苏省
清江浦区清江浦区大同东路与银川路交叉口西南100米,清江浦区,淮安市,119.027478,33.613697,小刀电动车,江苏省
矿山路27-4号附近,泉山区,徐州市,117.156471,34.265881,小刀电动车,江苏省
惠民小区农行东,云龙区,徐州市,117.268930,34.171500,小刀电动车,江苏省
清江浦区淮海西路与清河路交叉口西南50米,清江浦区,淮安市,119.013228,33.595260,小刀电动车,江苏省
万事通路与通榆南路交叉口西150米,海安市,南通市,120.483319,32.533512,小刀电动车,江苏省
德民花苑75幢店面,崇川区,南通市,120.889791,32.020782,小刀电动车,江苏省
经济开发区长山渡江路18号,江阴市,无锡市,120.342689,31.935458,小刀电动车,江苏省
唐闸新西市路、公园一村3幢底楼店面房,港闸区,南通市,120.816472,32.067156,小刀电动车,江苏省
水漫桥路与黄河南路交叉口南150米,泉山区,徐州市,117.153455,34.273425,小刀电动车,江苏省
丽华北路224号附近,天宁区,常州市,119.987619,31.774883,小刀电动车,江苏省
崇明西路43-3号附近,句容市,镇江市,119.154324,31.952429,小刀电动车,江苏省
施井路23-1号附近,广陵区,扬州市,119.461124,32.381753,小刀电动车,江苏省
南门街与粉南巷交叉口西北50米,广陵区,扬州市,119.433113,32.385697,小刀电动车,江苏省
高新区新海路473号,海门市,南通市,121.158852,31.897490,小刀电动车,江苏省
煤港路29号,鼓楼区,徐州市,117.199764,34.284176,小刀电动车,江苏省
清江浦区经济开发区弘康兴旺角富士康路188号C号129,清江浦区,淮安市,119.149584,33.594726,小刀电动车,江苏省
邹区南大街133号,钟楼区,常州市,119.844088,31.789217,小刀电动车,江苏省
后莘路与通宁路交叉口西150米,句容市,镇江市,119.116226,31.938165,小刀电动车,江苏省
淮河东路与警民巷交叉口西北100米,盱眙县,淮安市,118.493751,33.005110,小刀电动车,江苏省
建设路110号,兴化市,泰州市,119.842773,32.936963,小刀电动车,江苏省
仁寿东路57号附近,如皋市,南通市,120.586777,32.404391,小刀电动车,江苏省
中阳里办事处西关电动车产业园,丰县,徐州市,116.655300,34.772537,小刀电动车,江苏省
东山街道南方花园枫彩园12栋106室门面,江宁区,南京市,118.821935,31.960642,小刀电动车,江苏省
开发区富新园5幢101室,崇川区,南通市,120.938093,31.915416,小刀电动车,江苏省
小刀电动车,涟水县,淮安市,119.501616,33.884722,小刀电车,江苏省
清晏路31-32号,滨湖区,无锡市,120.285287,31.468811,小刀电动车(清晏路),江苏省
山观东街6号,江阴市,无锡市,120.352336,31.918183,小刀电动车(东街),江苏省
芙蓉二路70号附近,锡山区,无锡市,120.410035,31.634436,小刀电动车,江苏省
建筑路366号-7,滨湖区,无锡市,120.277465,31.549241,小刀电动车(建筑路),江苏省
墙宅路与振发路交叉口西50米,新吴区,无锡市,120.446040,31.479981,小刀电动车(墙宅路),江苏省
永利路16栋附近,江阴市,无锡市,120.000099,31.852938,小刀电动车,江苏省
顾山镇香山西路29号,江阴市,无锡市,120.561541,31.733431,小刀电动车,江苏省
新石路32号附近,浦口区,南京市,118.419546,31.935929,小刀专卖,江苏省
人民路与文南路交叉口西50米,江阴市,无锡市,120.401620,31.716950,小刀电动车(文林店),江苏省
人民西路356号,江阴市,无锡市,120.478104,31.747743,小刀电动车,江苏省
前黄镇景德东路51号-小栋粮油店,武进区,常州市,119.966603,31.591533,小刀电动车,江苏省
镇南路513,江都区,扬州市,119.760188,32.621559,小刀电动车,江苏省
节制闸路,秦淮区,南京市,118.800448,32.015478,小刀电动车（节制闸路店）,江苏省
学森路10-45号附近,栖霞区,南京市,118.978519,32.126584,小刀电动车,江苏省
金沙江东街33号,建邺区,南京市,118.719051,31.980434,小刀电动车,江苏省
沙溪镇新北东路90号中广核三角洲旁,太仓市,苏州市,121.074164,31.569993,小刀电动车(新北东路),江苏省
文鼎广场友好前程大酒店对面,江宁区,南京市,118.900631,31.913632,小刀电动车,江苏省
太湖新城镇联杨小区2区807幢,吴江区,苏州市,120.628359,31.122684,小刀电动车,江苏省
建设路与新街交叉口西北50米,溧阳市,常州市,119.222130,31.471914,小刀电动车(万东路店),江苏省
"东桥南路东,群星熟食店对面",溧阳市,常州市,119.571106,31.540068,小刀电动车(南大街),江苏省
栖霞街道红枫街小刀电动15一16,栖霞区,南京市,118.945420,32.136542,小刀电动车,江苏省
滨江开发区景明北大街10009号栖风路79-5号小刀电动车,江宁区,南京市,118.590661,31.853664,小刀电动车,江苏省
义乌小商品城B区12栋,江宁区,南京市,118.878190,31.937146,小刀电动车,江苏省
中驰路192号附近,江宁区,南京市,118.813001,31.958319,小刀电动车,江苏省
雨花西路222号-19,雨花台区,南京市,118.766150,31.997437,小刀电动车,江苏省
庐山路与怡康街交叉口东北150米,建邺区,南京市,118.743139,32.017326,小刀电动车,江苏省
江浦街道上河街新理想佳园附近,浦口区,南京市,118.630657,32.053429,小刀电动车(上河街),江苏省
滨江大道1号明发滨江新城252栋夏飞车行,浦口区,南京市,118.744698,32.133671,小刀电动车,江苏省
经济技术开发区松陵镇运东大道997号海悦花园,吴江区,苏州市,120.661799,31.167239,小刀电动车,江苏省
北山东路24号,溧阳市,常州市,119.331869,31.560818,小刀电动车(棠荫路店),江苏省
大东门街100附近,溧水区,南京市,119.027921,31.652050,小刀电动车,江苏省
小行路26-3号附近,雨花台区,南京市,118.756659,31.989666,小刀电动车,江苏省
中山东路241附近,如皋市,南通市,120.588286,32.395823,小刀电动车,江苏省
天目山路212号,新北区,常州市,119.986233,31.809771,小刀电动车,江苏省
苏州工业园区淞江路,苏州工业园区,苏州市,120.732562,31.299641,小刀电动车,江苏省
月城镇南环路9号,江阴市,无锡市,120.227171,31.801672,小刀电动车,江苏省
何山路28号1幢附近,虎丘区,苏州市,120.561791,31.307369,小刀电动车,江苏省
晋阳西街,常熟市,苏州市,120.953867,31.536098,小刀电动车,江苏省
振兴路与青年路交叉口东50米,雨花台区,南京市,118.650177,31.922364,小刀电动车,江苏省
无,吴江区,苏州市,120.673368,30.907358,小刀电动车,江苏省
东横街与博爱路交叉口东100米,天宁区,常州市,119.958341,31.784106,小刀电动车,江苏省
民祥园路19号北80米,云龙区,徐州市,117.244050,34.243436,小刀电动车,江苏省
泰伯大道北50米,新吴区,无锡市,120.437915,31.543939,小刀电动车,江苏省
无,云龙区,徐州市,117.197439,34.257589,小刀电动车,江苏省
八里欢路,东海县,连云港市,118.927870,34.704027,小刀电动车,江苏省
无,赣榆区,连云港市,119.178079,34.939409,小刀电动车,江苏省
寅春路130号附近,栖霞区,南京市,118.844249,32.123008,小刀电动车,江苏省
银苑中路7-1西北90米,张家港市,苏州市,120.632240,31.855270,小刀电动车,江苏省
西湖路132号附近,邗江区,扬州市,119.402034,32.422779,小刀电动车,江苏省
农贸路,贾汪区,徐州市,117.367579,34.263099,小刀电动车,江苏省
福祥西路,盐都区,盐城市,119.994892,33.176195,小刀电动车,江苏省
港口镇南环路13号,张家港市,苏州市,120.668416,31.750783,小刀电动车,江苏省
无,吴中区,苏州市,120.615689,31.236049,小刀电动车,江苏省
无,通州区,南通市,121.073259,32.088140,小刀电动车,江苏省
春惠路318号附近,惠山区,无锡市,120.353291,31.675623,小刀电动车,江苏省
齐门路98号,姑苏区,苏州市,120.626688,31.324886,小刀电动车,江苏省
无,张家港市,苏州市,120.422291,31.926493,小刀电动车,江苏省
云和路99-63号,连云区,连云港市,119.348530,34.725824,小刀电动车,江苏省
晋陵南路116号,天宁区,常州市,119.953252,31.760557,小刀电动车,江苏省
乡师路,涟水县,淮安市,119.616557,33.940119,小刀电动车,江苏省
花园路280号附近,昆山市,苏州市,121.086213,31.306943,小刀电动车,江苏省
南郊路,崇川区,南通市,120.903535,31.964205,小刀电动车,江苏省
桃花坞路24-19号附近,京口区,镇江市,119.466555,32.205007,小刀电动车,江苏省
S239(建设路),溧阳市,常州市,119.336356,31.351657,小刀电动车,江苏省
新禧路逸翠园2号楼,京口区,镇江市,119.673393,32.177846,小刀电动车,江苏省
夜市对面,润州区,镇江市,119.444472,32.197865,小刀电动车,江苏省
小浦村原村委会,海州区,连云港市,119.303466,34.497249,小刀电动车,江苏省
X103(金航路),江宁区,南京市,118.890511,31.720450,小刀电动车,江苏省
老机场路18号附近,亭湖区,盐城市,120.180010,33.409112,小刀电动车,江苏省
旺盛南路15附近,常熟市,苏州市,120.586661,31.691163,小刀电动车,江苏省
东城绿洲88栋,京口区,镇江市,119.508459,32.190067,小刀电动车,江苏省
幸福天地2期17栋,崇川区,南通市,120.955921,31.915541,小刀电动车,江苏省
南卫巷12号103室附近,秦淮区,南京市,118.769619,32.037806,小刀电动车,江苏省
南丰南路151号中国银行向南100米,张家港市,苏州市,120.669243,31.877140,小刀电动车,江苏省
梦溪小区5期加油站旁,沭阳县,宿迁市,118.841110,34.085107,小刀电动车,江苏省
横云北路83号,江宁区,南京市,118.781569,31.715118,小刀电动车,江苏省
新邵线与014乡道交叉口东北100米邵店礼堂附近,新沂市,徐州市,118.447733,34.127192,小刀电动车,江苏省
澳门路389号附近,阜宁县,盐城市,119.795120,33.772614,小刀电动车,江苏省
朱方路城南映象20幢,润州区,镇江市,119.407435,32.196071,小刀电动车,江苏省
南华巷与蓝旗街交叉口东50米,秦淮区,南京市,118.820866,32.026136,小刀电动车,江苏省
莲花路226号,淮安区,淮安市,119.153295,33.524710,小刀电动车,江苏省
阳澄湖镇湘陆路九号,相城区,苏州市,120.734416,31.497266,小刀电动车,江苏省
朱方路88-104号附近,润州区,镇江市,119.422441,32.204598,小刀电动车,江苏省
龙虎东路与龙虎大街交叉口东南50米,新北区,常州市,119.993269,31.843830,小刀电动车,江苏省
千秋路140附近,射阳县,盐城市,120.236888,33.877342,小刀电动车,江苏省
五星松涛路宣庄村17号,钟楼区,常州市,119.909802,31.778693,小刀电动车,江苏省
美林湾路68号附近,京口区,镇江市,119.489503,32.166386,小刀电动车,江苏省
354县道附近,海安市,南通市,120.694732,32.561229,小刀电动车,江苏省
六冶南路与青龙西街交叉口西南50米,六合区,南京市,118.934369,32.420975,小刀电动车,江苏省
吕庄巷与重宁北巷交叉口西50米,邗江区,扬州市,119.438232,32.407103,小刀电动车,江苏省
锡沪路东亭中段63号,锡山区,无锡市,120.359634,31.583516,小刀电动车,江苏省
运河西路4号附近,广陵区,扬州市,119.473650,32.388803,小刀电动车,江苏省
通启公路与通海线交叉口西南50米,崇川区,南通市,120.973345,31.952129,小刀电动车,江苏省
威海路108号附近,清江浦区,淮安市,119.076416,33.589083,小刀电动车,江苏省
五里东路74附近,兴化市,泰州市,119.842552,32.916755,小刀电动车,江苏省
镇南路29号附近,丹阳市,镇江市,119.596120,32.022802,小刀电动车,江苏省
扬圩线附近,邗江区,扬州市,119.460912,32.313786,小刀电动车,江苏省
环城南路西50米,兴化市,泰州市,119.817485,32.876149,小刀电动车,江苏省
昭阳镇五岳商住楼20号,兴化市,泰州市,119.841246,32.937140,小刀电动车,江苏省
北王线农信合作社南50米,新沂市,徐州市,118.399739,34.348513,小刀电动车,江苏省
丹北镇汽配城中兴路272号,丹阳市,镇江市,119.805242,32.074055,小刀电动车,江苏省
渔沟镇农科所内,淮阴区,淮安市,118.897458,33.700423,小刀电动车,江苏省
水澄路阳光一百北区509-5号,惠山区,无锡市,120.284430,31.644032,小刀电动车,江苏省
弘扬路46附近,广陵区,扬州市,119.644463,32.300444,小刀电动车,江苏省
山水西路西50米,滨湖区,无锡市,120.247712,31.499742,小刀电动车,江苏省
X302(堰玉东路),惠山区,无锡市,120.281428,31.689810,小刀电动车,江苏省
余杭路与303县道交叉口西50米,邳州市,徐州市,118.059696,34.388564,小刀电动车,江苏省
姚桥镇004乡道儒里大酒店南200米,京口区,镇江市,119.770927,32.120139,小刀电动车,江苏省
大大线与草大线交叉口西50米,大丰区,盐城市,120.635219,33.000965,小刀电动车,江苏省
访仙东路南50米,丹阳市,镇江市,119.746159,31.998054,小刀电动车,江苏省
河滨南路与洪武路交叉口西南100米,句容市,镇江市,119.154120,31.934172,小刀电动车,江苏省
新海大道东50米,盱眙县,淮安市,118.553744,32.980589,小刀电动车,江苏省
汉源大道附近,沛县,徐州市,116.908153,34.799449,小刀电动车,江苏省
金湖东路192附近,金湖县,淮安市,119.054407,33.009495,小刀电动车,江苏省
泰北路与金桥路交叉口东100米,高邮市,扬州市,119.453413,32.797000,小刀电动车,江苏省
常店镇马楼街苏果超市对面,丰县,徐州市,116.544722,34.719913,小刀电动车,江苏省
宿蔡路194附近,宿城区,宿迁市,118.168172,33.973062,小刀电动车,江苏省
观澜路与黄河路交叉口南50米,涟水县,淮安市,119.265336,33.760635,小刀电动车,江苏省
扬冶路与迎新路交叉口西南50米,邗江区,扬州市,119.332376,32.414876,小刀电动车,江苏省
城河街与新大街交叉口东北100米,海州区,连云港市,119.232413,34.567983,小刀电动车,江苏省
252省道东100米,睢宁县,徐州市,117.600849,34.088335,小刀电动车,江苏省
芙蓉北路3号附近,锡山区,无锡市,120.386065,31.646446,小刀电动车,江苏省
富民北路与富民路交叉口南100米,邗江区,扬州市,119.393303,32.291999,小刀电动车,江苏省
敦土路与江平公路交叉口南150米,靖江市,泰州市,120.416655,32.097765,小刀电动车,江苏省
南京西路南50米,灌云县,连云港市,119.225728,34.292835,小刀电动车,江苏省
中心街与龙泉路交叉口东北150米,宿豫区,宿迁市,118.315446,34.059788,小刀电动车,江苏省
张曲公路北50米,东海县,连云港市,118.878357,34.465645,小刀电动车,江苏省
三汉路与三皇线交叉口西100米,铜山区,徐州市,117.154723,34.122842,小刀电动车,江苏省
305县道北50米,句容市,镇江市,119.041478,31.806692,小刀电动车,江苏省
华洋路与304县道交叉口东100米,邗江区,扬州市,119.360500,32.333508,小刀电动车,江苏省
商城南路与锡沙路交叉口南50米,锡山区,无锡市,120.442201,31.660329,小刀电动车,江苏省
夏城北路与聚湖东路交叉口西南100米,武进区,常州市,119.978036,31.732367,小刀电动车,江苏省
236省道东50米,灌南县,连云港市,119.223446,34.112104,小刀电动车,江苏省
杨舍镇东莱东电大道兴东桥,张家港市,苏州市,120.607747,31.888442,小刀电动车,江苏省
宝应大道140附近,宝应县,扬州市,119.366872,33.239860,小刀电动车,江苏省
泰元路298号附近,相城区,苏州市,120.642939,31.398223,小刀电动车,江苏省
三区路与城原路交叉口北50米,东台市,盐城市,120.349093,32.871443,小刀电动车,江苏省
福星大道与303县道交叉口东100米,灌南县,连云港市,119.159809,34.148138,小刀电动车,江苏省
阳光天地南门,沭阳县,宿迁市,118.802410,34.103763,小刀电动车,江苏省
学田南路226号,崇川区,南通市,120.888662,32.010349,小刀电动车,江苏省
青阳镇衡山南路77号,泗洪县,宿迁市,118.196933,33.452907,小刀电动车,江苏省
大吴镇大吴商城,贾汪区,徐州市,117.394991,34.325347,小刀电动车,江苏省
东大街与204国道交叉口南100米,海州区,连云港市,119.253665,34.478781,小刀电动车,江苏省
水东路与201县道交叉口东北50米,金坛区,常州市,119.652446,31.665366,小刀电动车,江苏省
泰安镇凤凰岛路(好又多超市斜对面),广陵区,扬州市,119.515107,32.453814,小刀电动车,江苏省
春江新城升景坊41栋108号,雨花台区,南京市,118.745529,31.960878,小刀电动车,江苏省
司徒庙路与新谊路交叉口东南50米,邗江区,扬州市,119.352049,32.430428,小刀电动车,江苏省
府前路与新城路交叉口西150米,铜山区,徐州市,117.121003,34.364497,小刀电动车,江苏省
友谊路与童泾北路交叉口东南100米,昆山市,苏州市,121.041783,31.317382,小刀电动车,江苏省
新集镇张集街道南街74号,仪征市,扬州市,119.299197,32.331830,小刀电动车,江苏省
中心路与镇西路交叉口东150米,海州区,连云港市,119.110987,34.641214,小刀电动车,江苏省
金盛路299号天地新城天柱座3栋1单元,江宁区,南京市,118.828537,31.974382,小刀电动车,江苏省
迎宾路与郭车公路交叉口东南50米,如皋市,南通市,120.599083,32.165052,小刀电动车,江苏省
府前路与明清西街交叉口北100米,姜堰区,泰州市,120.093790,32.645395,小刀电动车,江苏省
珠江路34号附近,新北区,常州市,119.983182,31.823634,小刀电动车,江苏省
中山北路与柳胥路交叉口西北180米,吴江区,苏州市,120.648324,31.187044,小刀电动车,江苏省
平望镇梅堰区双龙路72号吉麦隆超市对面,吴江区,苏州市,120.588135,30.982563,小刀电动车,江苏省
政和大道54号附近,惠山区,无锡市,120.320248,31.666724,小刀电动车(惠绿路),江苏省
临河街与临陈路交叉口东北100米,泗阳县,宿迁市,118.537120,33.730854,小刀电动车,江苏省
通阜线,阜宁县,盐城市,119.785949,33.791330,小刀电动车,江苏省
河滨西路南50米,高淳区,南京市,119.064280,31.295895,小刀电动车,江苏省
扬子西路31号西70米,仪征市,扬州市,119.183730,32.257293,小刀电动车,江苏省
淮城街道南门大街133号,淮安区,淮安市,119.144980,33.498180,小刀电动车,江苏省
洛阳镇戴溪街翼溪路79号,武进区,常州市,120.062689,31.609615,小刀电动车,江苏省
子昆路与少奇路交叉口南150米,盱眙县,淮安市,118.783354,32.912528,小刀电动车,江苏省
京杭南路88附近,广陵区,扬州市,119.482553,32.384483,小刀电动车,江苏省
新扬路152号附近,建湖县,盐城市,119.800192,33.482088,小刀电动车,江苏省
港西中路与银河路交叉口东北100米,启东市,南通市,121.642977,31.811775,小刀电动车,江苏省
高红路西50米,丹徒区,镇江市,119.650811,32.246732,小刀电动车,江苏省
人兴路15号南70米,涟水县,淮安市,119.359782,33.999764,小刀电动车,江苏省
仓头路东50米,盐都区,盐城市,120.094756,33.385635,小刀电动车,江苏省
锡宅路与鸿山路交叉口东150米,新吴区,无锡市,120.498908,31.482837,小刀电动车,江苏省
玉山镇五联路503号,昆山市,苏州市,120.941211,31.437593,小刀电动车,江苏省
望山路与蠡夏路交叉口东南50米,滨湖区,无锡市,120.267484,31.532746,小刀电动车,江苏省
横山桥镇芙蓉街荷韵街1号,武进区,常州市,120.160704,31.771517,小刀电动车,江苏省
X204(江星桥线),浦口区,南京市,118.454669,32.032616,小刀电动车,江苏省
广电路与海堰中路交叉口北50米,东台市,盐城市,120.453855,32.901040,小刀电动车,江苏省
十里红绿灯十字路口向北,兴化市,泰州市,119.840794,32.889170,小刀电动车,江苏省
S336(江平路),靖江市,泰州市,120.392227,32.062694,小刀电动车,江苏省
新华路与福寿西路交叉口东50米,如皋市,南通市,120.530378,32.362513,小刀电动车,江苏省
杨寿镇回归路27号,邗江区,扬州市,119.315480,32.522918,小刀电动车,江苏省
建业路45号北90米,洪泽区,淮安市,118.595048,33.183504,小刀电动车,江苏省
清江路46号-10,鼓楼区,南京市,118.730678,32.041686,小刀电动车(清江路),江苏省
江扬路122附近,广陵区,扬州市,119.609607,32.278376,小刀电动车,江苏省
解放东路52号附近,丰县,徐州市,116.654411,34.702822,小刀电动车,江苏省
东园路与跃胜路交叉口东150米,宝应县,扬州市,119.403203,33.096244,小刀电动车,江苏省
虹桥路151号西南90米,崇川区,南通市,120.865859,31.996648,小刀电动车,江苏省
X202(仪圩曹线),仪征市,扬州市,119.240844,32.340079,小刀电动车,江苏省
吉兴北路与吉兴西路交叉口北150米,邗江区,扬州市,119.439348,32.478587,小刀电动车,江苏省
十店路,沭阳县,宿迁市,118.908649,34.034780,小刀电动车,江苏省
G235(仁义大街),泗洪县,宿迁市,118.200637,33.671945,小刀电动车,江苏省
方兴东路喜庆烟花专卖旁,邗江区,扬州市,119.392348,32.504064,小刀电动车,江苏省
物流园区邗沟路24号,邗江区,扬州市,119.445876,32.417406,小刀电动车,江苏省
奔牛镇金牛西路18号,新北区,常州市,119.824283,31.854501,小刀电动车,江苏省
振兴路与201县道交叉口北100米,沛县,徐州市,117.059281,34.600839,小刀电动车,江苏省
梁溪区锡沪中路31号附近,梁溪区,无锡市,120.316156,31.589247,小刀电动车,江苏省
永阳镇宝塔路宝城名苑10幢(门面房),溧水区,南京市,119.022076,31.661600,小刀电动车,江苏省
众兴东路与桃源中路交叉口北150米,泗阳县,宿迁市,118.688427,33.707020,小刀电动车,江苏省
儒林镇五叶晨风西街,金坛区,常州市,119.636566,31.635465,小刀电动车,江苏省
丹金路305附近,丹阳市,镇江市,119.591651,31.932884,小刀电动车,江苏省
光明南路与336省道交叉口东50米,江都区,扬州市,119.694499,32.374874,小刀电动车,江苏省
开发区连接线南50米,邳州市,徐州市,118.007920,34.271421,小刀电动车,江苏省
汉台路与香城路交叉口南150米,沛县,徐州市,116.935636,34.724905,小刀电动车,江苏省
八里镇金山中路68号,邗江区,扬州市,119.406592,32.288247,小刀电动车,江苏省
幸福路82号附近,沭阳县,宿迁市,118.804516,34.095239,小刀电动车,江苏省
建华大道与建华路交叉口西南50米,邗江区,扬州市,119.366038,32.275607,小刀电动车,江苏省
金宜路2-19号附近,金坛区,常州市,119.590880,31.737450,小刀电动车,江苏省
泰山路与205国道交叉口西南50米,沭阳县,宿迁市,118.707245,34.200271,小刀电动车,江苏省
下谢路国家地质公园瓜埠山景区北,六合区,南京市,118.895805,32.254555,小刀电动车,江苏省
046乡道与106县道交叉口东100米,泗阳县,宿迁市,118.718607,33.943860,小刀电动车,江苏省
淮河东路17号附近,盱眙县,淮安市,118.516851,32.995896,小刀电动车,江苏省
富康路与244省道交叉口东南50米,仪征市,扬州市,119.241940,32.541401,小刀电动车,江苏省
蔷薇路与506乡道交叉口东南100米,沭阳县,宿迁市,118.659397,34.183373,小刀电动车,江苏省
松柏北路与老杨菱路交叉口东150米,邗江区,扬州市,119.379131,32.541005,小刀电动车,江苏省
新西北路与朱大路交叉口西南100米,靖江市,泰州市,120.260179,32.022284,小刀电动车,江苏省
国庆西路162附近,泰兴市,泰州市,120.005700,32.158426,小刀电动车,江苏省
湖塘镇老坝大队水渠头90号花园街大桥北,武进区,常州市,119.950690,31.746753,小刀电动车,江苏省
水关路7号附近,丹阳市,镇江市,119.565173,31.991914,小刀电动车,江苏省
237省道东50米,江都区,扬州市,119.518343,32.523548,小刀电动车,江苏省
东进路与莲沁路交叉口西100米,靖江市,泰州市,120.239897,31.976688,小刀电动车,江苏省
经开区潞城街道曙明路18号名桂坊小区南门正对面,武进区,常州市,120.020090,31.763351,小刀电动车,江苏省
张阎线与沛鹿线交叉口西100米,沛县,徐州市,116.841046,34.722619,小刀电动车,江苏省
姜溱路与桥头路交叉口东南50米,姜堰区,泰州市,120.078549,32.547731,小刀电动车,江苏省
卜王线与郝孟线交叉口东北100米,沛县,徐州市,116.816226,34.677055,小刀电动车,江苏省
春风路225号附近,锡山区,无锡市,120.418640,31.602700,小刀电动车,江苏省
人民中路1056号附近,武进区,常州市,119.923566,31.728119,小刀电动车,江苏省
安庆路与民泰路交叉口西50米,常熟市,苏州市,120.953070,31.672340,小刀电动车,江苏省
通港路与155村道交叉口南100米,常熟市,苏州市,120.798087,31.686297,小刀电动车,江苏省
中吴大道凤凰路西浜83号,天宁区,常州市,119.966640,31.750424,小刀电动车,江苏省
沙家浜塘市三塘街万里车行,常熟市,苏州市,120.847254,31.568966,小刀电动车,江苏省
东北塘东旺路丁车渡61号,锡山区,无锡市,120.350630,31.628814,小刀电动车,江苏省
碧溪东路198-7号附近,常熟市,苏州市,120.932008,31.716141,小刀电动车,江苏省
人民西路49附近,武进区,常州市,119.897955,31.728959,小刀电动车,江苏省
通达北路120-4号附近,广陵区,扬州市,119.647731,32.324917,小刀电动车,江苏省
咏贤路与膳魔师路交叉口向南70米,清江浦区,淮安市,119.135339,33.578901,小刀电动车,江苏省
经济开发区兴康花园东门,泗洪县,宿迁市,118.205653,33.493052,小刀电动车,江苏省
湖景路北50米,雨花台区,南京市,118.645625,31.908259,小刀电动车,江苏省
新堂北路116-8号附近,天宁区,常州市,119.988954,31.792611,小刀电动车,江苏省
红日大道与襄贲路交叉口西南100米,涟水县,淮安市,119.266792,33.780087,小刀电动车,江苏省
202县道与302县道交叉口西北50米,仪征市,扬州市,119.248680,32.481251,小刀电动车,江苏省
华杨南路119号附近,宜兴市,无锡市,119.589854,31.175490,小刀电动车,江苏省
经济技术开发区松陵镇淞兴路583勇发车行,吴江区,苏州市,120.667116,31.182372,小刀电动车,江苏省
新集镇张集街道中国邮政向南50米,仪征市,扬州市,119.289386,32.383275,小刀电动车,江苏省
健康路与长安路交叉口西南50米,广陵区,扬州市,119.496385,32.422824,小刀电动车,江苏省
华扬路与305县道交叉口西50米,广陵区,扬州市,119.587585,32.319677,小刀电动车,江苏省
杨巷镇新芳街新西路90号建强车行,宜兴市,无锡市,119.634880,31.520765,小刀电动车,江苏省
新昭阳苑车路河路1号,兴化市,泰州市,119.850026,32.925524,小刀电动车,江苏省
兴农路北200米,灌云县,连云港市,119.235517,34.301844,小刀电动车,江苏省
中市路40号附近,太仓市,苏州市,121.189950,31.471586,小刀电动车,江苏省
通江南路18-1附近,江阴市,无锡市,120.257978,31.899939,小刀电动车,江苏省
镇澄路419号附近,江阴市,无锡市,120.215217,31.894558,小刀电动车,江苏省
炎黄大道与327省道交叉口西北100米,涟水县,淮安市,119.308438,33.783188,小刀电动车,江苏省
黄颜路与157乡道交叉口西100米,泗阳县,宿迁市,118.755977,33.486595,小刀电动车,江苏省
302县道北50米,泰兴市,泰州市,120.104831,32.333179,小刀电动车,江苏省
018乡道与019乡道交叉口北150米,丹阳市,镇江市,119.535737,31.880234,小刀电动车,江苏省
丰田路a1-s08号附近,金坛区,常州市,119.619093,31.738515,小刀电动车,江苏省
朝阳路16幢附近,栖霞区,南京市,119.006143,32.143290,小刀电动车,江苏省
常河北路25号附近,天宁区,常州市,120.137010,31.826475,小刀电动车,江苏省
孙中路与宁桥北路交叉口东北50米,雨花台区,南京市,118.622233,31.890101,小刀电动车,江苏省
益民东路78附近,大丰区,盐城市,120.463305,33.183444,小刀电动车,江苏省
剑横路85附近,武进区,常州市,120.076089,31.735761,小刀电动车,江苏省
永阳镇中山路金盛花园14-2号,溧水区,南京市,119.028577,31.648384,小刀电动车,江苏省
宝华镇天正理想城门面房1幢,句容市,镇江市,119.037389,32.124586,小刀电动车,江苏省
虹桥新苑北侧路与虹桥路交叉口东南50米,崇川区,南通市,120.848607,31.997476,小刀电动车,江苏省
兴鲍路与302县道交叉口西100米,射阳县,盐城市,120.193603,33.943630,小刀电动车,江苏省
老山林场派出所附近,浦口区,南京市,118.584999,32.114227,小刀电动车,江苏省
繁荣东路与001乡道交叉口西50米,宿城区,宿迁市,118.405298,33.708572,小刀电动车,江苏省
陈铸大街北50米,滨海县,盐城市,119.884495,33.832529,小刀电动车,江苏省
临郑路与新陈路交叉口南150米,宿城区,宿迁市,118.552704,33.779050,小刀电动车,江苏省
河阳新路与025乡道交叉口西北100米,丹阳市,镇江市,119.530709,32.050739,小刀电动车,江苏省
兴泰大道154号附近,姜堰区,泰州市,120.075821,32.682484,小刀电动车,江苏省
双石路与方赤路交叉口东150米,句容市,镇江市,119.128241,31.938203,小刀电动车,江苏省
红窑镇老医院对面,涟水县,淮安市,119.317001,33.927532,小刀电动车,江苏省
界牌镇灯城大街50号,丹阳市,镇江市,119.850970,32.076619,小刀电动车,江苏省
中心河路与皇厂河路交叉口东100米,六合区,南京市,118.871795,32.235726,小刀电动车,江苏省
人民中路与太平支路交叉口东北150米,崇川区,南通市,120.945834,32.021541,小刀电动车,江苏省
金新街道南通高新技术产业开发区通灵桥南50米,通州区,南通市,121.071429,32.016439,小刀电动车,江苏省
高新区南夏墅街道南塘路口58号,武进区,常州市,119.942798,31.632221,小刀电动车,江苏省
伞墩东路与砂山大道交叉口东南50米,江阴市,无锡市,120.426760,31.870527,小刀电动车,江苏省
富民西路,沭阳县,宿迁市,118.865999,33.985459,小刀电动车,江苏省
苏通公路60号附近,通州区,南通市,121.068427,31.936945,小刀电动车,江苏省
白蒲镇蒲黄路白蒲镇行政中心东行路南,如皋市,南通市,120.771018,32.248578,小刀电动车,江苏省
经一路与长泰路交叉口西北150米,港闸区,南通市,120.799589,32.084311,小刀电动车,江苏省
016县道附近,通州区,南通市,120.846197,32.168406,小刀电动车,江苏省
泰孔路北50米,高港区,泰州市,119.962027,32.321443,小刀电动车,江苏省
新篁社区新篁东路163号,六合区,南京市,118.948661,32.374726,小刀电动车,江苏省
024县道东50米,通州区,南通市,120.826576,32.210440,小刀电动车,江苏省
乌江路128号附近,浦口区,南京市,118.468480,31.864707,小刀电动车,江苏省
迎宾路6附近,广陵区,扬州市,119.495107,32.420295,小刀电动车,江苏省
中华路31号附近,泗洪县,宿迁市,118.136305,33.422808,小刀电动车,江苏省
336省道20号附近,如皋市,南通市,120.526457,32.138747,小刀电动车,江苏省
淀兴路与香石路交叉口东南50米,昆山市,苏州市,121.022645,31.182552,小刀电动车,江苏省
无,昆山市,苏州市,121.091742,31.302954,小刀电动车,江苏省
新华居委会建设路168号,兴化市,泰州市,119.843512,32.937674,小刀电动车,江苏省
御史路2号附近,六合区,南京市,118.810241,32.535812,小刀电动车,江苏省
005乡道与334省道交叉口东南50米,如皋市,南通市,120.365931,32.284571,小刀电动车,江苏省
锡山开发区东亭镇春雷村友谊北路123号,锡山区,无锡市,120.375276,31.608041,小刀电动车,江苏省
江海大道高架108-附18号8幢附近,港闸区,南通市,120.898119,32.045854,小刀电动车,江苏省
锦溪镇邵泉街108号,昆山市,苏州市,120.904163,31.180658,小刀电动车,江苏省
木渎镇石码头欧德福超市旁,吴中区,苏州市,120.485441,31.263266,小刀电动车,江苏省
现代农业示范园区常阴沙农场红旗中路40号,张家港市,苏州市,120.768090,31.873854,小刀电动车,江苏省
宝山东路83号附近,盱眙县,淮安市,118.560251,33.000887,小刀电动车,江苏省
恒兴路与122省道交叉口西100米,句容市,镇江市,119.291088,31.972693,小刀电动车,江苏省
高新区东环路55号,武进区,常州市,119.983286,31.646942,小刀电动车,江苏省
245省道与925乡道交叉口北50米,沭阳县,宿迁市,118.773617,34.243292,小刀电动车,江苏省
李闸路与155乡道交叉口南200米,泗阳县,宿迁市,118.720538,33.616613,小刀电动车,江苏省
大中路10号附近,靖江市,泰州市,120.304758,32.130368,小刀电动车,江苏省
浦园路附近,昆山市,苏州市,121.059297,31.241941,小刀电动车,江苏省
绿雅大道西50米,沭阳县,宿迁市,118.714989,34.025458,小刀电动车,江苏省
振兴街与103县道交叉口西100米,沭阳县,宿迁市,118.883367,34.128426,小刀电动车,江苏省
曙光路473号附近,广陵区,扬州市,119.538536,32.385811,小刀电动车,江苏省
建设东路与005乡道交叉口东南50米,宿城区,宿迁市,118.506035,33.695294,小刀电动车,江苏省
新东街50号附近,武进区,常州市,119.763262,31.708210,小刀电动车,江苏省
新莞北路与新莞南路交叉口东南50米,灌南县,连云港市,119.368004,34.096132,小刀电动车,江苏省
永安路与金禾路交叉口北200米,沭阳县,宿迁市,118.793923,34.101533,小刀电动车,江苏省
新民巷与杨陡线交叉口西南200米,灌云县,连云港市,119.459736,34.312587,小刀电动车,江苏省
菀坪中路105号附近,吴江区,苏州市,120.599139,31.063442,小刀电动车,江苏省
三鑫路29-32号附近,宜兴市,无锡市,119.661483,31.561066,小刀电动车,江苏省
玉泉街13号附近,惠山区,无锡市,120.235093,31.604400,小刀电动车,江苏省
201县道附近,沛县,徐州市,116.929087,34.847819,小刀电动车,江苏省
楼王镇244省道20号靠近中国农业银行,盐都区,盐城市,119.824563,33.277210,小刀电动车,江苏省
101县道与203县道交叉口东100米,涟水县,淮安市,119.172295,33.777154,小刀电动车,江苏省
振兴南路102号附近,江都区,扬州市,119.580610,32.609248,小刀电动车,江苏省
金港镇香山农副产品批发市场,张家港市,苏州市,120.397813,31.941342,小刀电动车,江苏省
益林镇人民南路78号,阜宁县,盐城市,119.610008,33.582564,小刀电动车,江苏省
经八路40号附近,淮安区,淮安市,119.158738,33.511873,小刀电动车,江苏省
永阳镇珍珠南路广成新天地1-115,溧水区,南京市,119.033775,31.641912,小刀电动车,江苏省
竹镇名族小区仕林路280号,六合区,南京市,118.681645,32.505731,小刀电动车,江苏省
淳溪镇宝塔路152号,高淳区,南京市,118.880699,31.324235,小刀电动车(宝塔路),江苏省
韩东路159号附近,高淳区,南京市,118.926842,31.394606,小刀电动车,江苏省
兴业街67号附近,句容市,镇江市,119.037084,31.805874,小刀电动车,江苏省
五洲国际广场B座,惠山区,无锡市,120.214453,31.697788,小刀电动车,江苏省
北门大街273号附近,淮安区,淮安市,119.144457,33.515547,小刀电动车,江苏省
文德西路8-1-2,浦口区,南京市,118.623529,32.054102,小刀电动车(金珠花苑东北),江苏省
金新街道南通高新技术产业开发区通灵桥南50米,通州区,南通市,121.072854,32.075137,小刀电动车,江苏省
秦明高巷路陆家园265号,江阴市,无锡市,120.276288,31.908192,小刀电动车(高巷路),江苏省
拥军路11号附近,海门市,南通市,121.175762,31.888179,小刀电动车,江苏省
无,贾汪区,徐州市,117.409585,34.435643,小刀电动车,江苏省
万年北路西100米,仪征市,扬州市,119.162629,32.273597,小刀电动车,江苏省
东降贡湖大道与周新路口北50米路西华胜奔驰宝马奥迪专修连锁,梁溪区,无锡市,120.305372,31.530925,小刀电动车,江苏省
泰北路树人小学向西50米,高邮市,扬州市,119.452428,32.796498,小刀电动车,江苏省
晨阳路136号附近,张家港市,苏州市,120.503298,31.933406,小刀电动车,江苏省
新安西路157附近,新沂市,徐州市,118.315655,34.374207,小刀电动车,江苏省
夷亭路1号东北60米,苏州工业园区,苏州市,120.791696,31.357286,小刀电动车(夷亭路),江苏省
所街85号,建邺区,南京市,118.754411,32.018421,小刀电动车(所街),江苏省
中国邮政东100米(新吴街南),昆山市,苏州市,120.949958,31.285163,小刀电动车,江苏省
沭师路205号附近,沭阳县,宿迁市,118.782124,34.115439,小刀电动车,江苏省
新郁中路与陶新中路交叉口北100米,江阴市,无锡市,120.511062,31.801281,小刀电动车,江苏省
张万村新农四巷,兴化市,泰州市,120.099590,32.725632,小刀电动车,江苏省
通扬南路178号附近,通州区,南通市,120.754695,32.080281,小刀电动车,江苏省
商秧湖路与慈城路交叉口东150米,昆山市,苏州市,120.955187,31.236310,小刀电动车,江苏省
铁云路237号附近,淮安区,淮安市,119.174094,33.532788,小刀电动车,江苏省
川姜镇川北村一组,通州区,南通市,121.074074,31.952839,小刀电动车,江苏省
俞垛大道227号附近,姜堰区,泰州市,120.023668,32.641552,小刀电动车,江苏省
兴太路与081村道交叉口西南100米,相城区,苏州市,120.686613,31.407369,小刀电动车,江苏省
333省道东50米,仪征市,扬州市,119.254642,32.569104,小刀电动车,江苏省
青阳镇南环路169号,江阴市,无锡市,120.254777,31.760739,小刀电动车,江苏省
凤凰镇西张张市路58号,张家港市,苏州市,120.624075,31.791283,小刀电动车,江苏省
永新公路与233省道交叉口西北100米,建湖县,盐城市,119.991761,33.435065,小刀电动车,江苏省
千灯镇秦峰南路1719号(儿童公园对面),昆山市,苏州市,121.004431,31.260460,小刀电动车,江苏省
清江浦区和畅路与汇景路交叉口东南50米,清江浦区,淮安市,119.151406,33.577302,小刀电动车,江苏省
小万线与226省道交叉口东北50米,大丰区,盐城市,120.564154,33.071459,小刀电动车,江苏省
张浦镇永记路1023号,昆山市,苏州市,120.955636,31.312408,小刀电动车,江苏省
海安镇闸东路1-26号,海安市,南通市,120.453358,32.548964,小刀电动车,江苏省
青年北路32号,海陵区,泰州市,119.913156,32.487495,小刀电动车(青年北路店),江苏省
窑湾镇王楼街转盘道,新沂市,徐州市,118.095257,34.248500,小刀电动车,江苏省
雨润路96-2号附近,东海县,连云港市,118.777112,34.513298,小刀电动车,江苏省
梁溪区盛德路42号附近,梁溪区,无锡市,120.251264,31.606931,小刀电动车(盛德路),江苏省
三新路与澄杨路交叉口西北50米,张家港市,苏州市,120.463578,31.916890,小刀电动车,江苏省
祟川区观音山镇世纪新城43幢,崇川区,南通市,120.913382,31.983431,小刀电动车(世纪新城店),江苏省
青抗线北50米,赣榆区,连云港市,118.989552,34.880635,小刀电动车,江苏省
新阳大道63-20号附近,常熟市,苏州市,120.682834,31.536979,小刀电动车,江苏省
利中街与利康路交叉口西南50米,江阴市,无锡市,120.083128,31.919290,小刀电动车,江苏省
甪直镇晓市路128号,吴中区,苏州市,120.876185,31.274612,小刀电动车,江苏省
三十里铺街道22号,仪征市,扬州市,119.052955,32.313641,小刀电动车,江苏省
323省道北50米,铜山区,徐州市,117.435410,34.293611,小刀电动车,江苏省
刘集镇刘集古井西路35号,仪征市,扬州市,119.281323,32.460396,小刀电动车,江苏省
劳动中路292-11号,天宁区,常州市,119.974293,31.764653,小刀电动车,江苏省
东社镇大润发玛特超市对面,通州区,南通市,121.174683,32.097839,小刀电动车,江苏省
郭北路清香园宾馆旁,吴中区,苏州市,120.673450,31.251981,小刀电动车,江苏省
南川园新村51栋,崇川区,南通市,120.891148,31.999668,小刀电动车(南川园新村店),江苏省
山红路与鼓楼南路交叉口西北100米,盱眙县,淮安市,118.519719,32.863715,小刀电动车,江苏省
茆圩乡青坊街,沭阳县,宿迁市,118.690323,34.305878,小刀电动车,江苏省
陆瓠西路280-42号附近,江阴市,无锡市,120.427268,31.815863,小刀电动车,江苏省
通吕公路与028县道交叉口西150米,通州区,南通市,121.111829,32.017959,小刀电动车,江苏省
新马路333-1号附近,浦口区,南京市,118.697219,32.113219,小刀电动车(点将台路),江苏省
睢城镇元府中路109号,睢宁县,徐州市,117.961430,33.900003,小刀电动车(天虹大道店),江苏省
G310(连天线),邳州市,徐州市,117.755218,34.467544,小刀电动车,江苏省
特青线与码中街交叉口东北100米,射阳县,盐城市,120.251160,33.505444,小刀电动车,江苏省
张浦镇南港望江路,昆山市,苏州市,120.884096,31.274341,小刀电动车,江苏省
工农路466号,崇川区,南通市,120.880429,32.028979,小刀电动车(工农路店),江苏省
青年路与301县道交叉口东100米,丰县,徐州市,116.468742,34.847310,小刀电动车,江苏省
正大路171号2-2栋九龙湖花园,清江浦区,淮安市,119.061643,33.558730,小刀电动车(大学城专卖店),江苏省
青阳镇人民东路56号,江阴市,无锡市,120.262275,31.912923,小刀电动车,江苏省
新建街精亚新天地13号,靖江市,泰州市,120.266431,32.021397,小刀电动车(精亚新天地店),江苏省
开放大道与永新公路交叉口西南150米,亭湖区,盐城市,120.088037,33.450543,小刀电动车,江苏省
东陈东路与东风河东路交叉口东150米,如皋市,南通市,120.646948,32.400846,小刀电动车,江苏省
中山西路210-1号附近,润州区,镇江市,119.428128,32.204527,小刀电动车(中山西路),江苏省
凤凰南路与朝阳路交叉口西北100米,盐都区,盐城市,120.042871,33.351954,小刀电动车,江苏省
联众路与333省道交叉口东南150米,仪征市,扬州市,119.174764,32.296869,小刀电动车,江苏省
伊山南路东50米,灌云县,连云港市,119.255151,34.284130,小刀电动车,江苏省
正阳路128号附近,大丰区,盐城市,120.576178,33.049069,小刀电动车,江苏省
323省道北50米,铜山区,徐州市,117.614208,34.300272,小刀电动车,江苏省
兴业路与新河路交叉口西北50米,亭湖区,盐城市,120.178370,33.360330,小刀电动车(商业街店),江苏省
骑河路1号,相城区,苏州市,120.662461,31.452218,小刀电动车,江苏省
洪武大道新城市广场9-06,盱眙县,淮安市,118.539385,32.989166,小刀电动车(新城市广场店),江苏省
233国道与303县道交叉口南100米,灌南县,连云港市,119.222933,34.166853,小刀电动车,江苏省
渚镇路与美田里路交叉口东100米,虎丘区,苏州市,120.400161,31.335284,小刀电动车,江苏省
丰阳路与226省道交叉口南150米,亭湖区,盐城市,120.429853,33.488857,小刀电动车,江苏省
虹河东路与西湖西路交叉口西150米,沭阳县,宿迁市,118.826288,34.310091,小刀电动车,江苏省
宁海线与新城互通立交交叉口西南100米附近,仪征市,扬州市,119.239272,32.285097,小刀电动车,江苏省
学苑路与通榆园区路交叉口东200米,滨海县,盐城市,119.835913,33.935493,小刀电动车,江苏省
新桥镇南环润新中路17号老东南一家斜对面,靖江市,泰州市,120.076356,31.997345,小刀电动车(新桥店),江苏省
桃西路11号-3幢,润州区,镇江市,119.410378,32.210483,小刀电动车,江苏省
雪堰镇潘南路摇郎浜桥29号,武进区,常州市,120.050973,31.527209,小刀电动车,江苏省
南洋路与袜厂巷交叉口南50米,亭湖区,盐城市,120.156091,33.390959,小刀电动车(南洋路店),江苏省
九华山南路158号,丹徒区,镇江市,119.428503,32.129807,小刀电动车(长山路),江苏省
申港镇镇澄路1598号,江阴市,无锡市,120.149124,31.886480,小刀电动车,江苏省
云台山路与龙魏路交叉口南150米,新北区,常州市,119.971742,31.856952,小刀电动车(云台山路),江苏省
平陵中路315号(老体育场大门旁),溧阳市,常州市,119.487330,31.422359,小刀电动车(平陵中路店),江苏省
绍兴路650号(台州银行对面),拱墅区,杭州市,120.148968,30.313530,小刀电动车,浙江省
环城北路92-2号,下城区,杭州市,120.180008,30.275160,小刀杭州现代电动车行,浙江省
太古广场一楼,萧山区,杭州市,120.257925,30.182271,小刀电动车专卖店,浙江省
乔司街道乔井路85号,余杭区,杭州市,120.289479,30.348919,小刀电动车(乔井路),浙江省
贝村路113-115号,义乌市,金华市,120.061724,29.300923,小刀电动车(贝村路店),浙江省
滨江区迎春路101号,滨江区,杭州市,120.223347,30.195241,小刀电动车,浙江省
廿三里街道汽车南站通宝路1707号,义乌市,金华市,120.176291,29.324506,小刀电动车(通宝路),浙江省
新风路与机场路交叉口西100米,江干区,杭州市,120.200379,30.296752,小刀电动车,浙江省
城店路480号附近,义乌市,金华市,120.049642,29.285683,小刀电动车,浙江省
华齐路与镜水路交叉口西北150米,柯桥区,绍兴市,120.521032,30.095265,小刀电动车,浙江省
星光街与星火南路交叉口东50米,余杭区,杭州市,120.300045,30.430120,小刀电动车,浙江省
锦绣路1189号附近,鹿城区,温州市,120.660538,27.998167,小刀电动车(锦绣路),浙江省
荣泰路与集贤路交叉口东北50米,瓯海区,温州市,120.610657,27.949456,小刀电动车,浙江省
后城里街351号附近,婺城区,金华市,119.642539,29.115454,小刀电动车(金华后城里店),浙江省
青口新光南路1号,义乌市,金华市,120.133425,29.312010,小刀电动车,浙江省
雅源北路352号附近,海曙区,宁波市,121.509997,29.820863,小刀电动车,浙江省
高桥镇联丰中路658号,海曙区,宁波市,121.493530,29.870490,小刀电动车,浙江省
越秀北路572号,南湖区,嘉兴市,120.733216,30.768913,小刀电动车(越秀北路店),浙江省
丹霞路227号(与双雁路交叉口),乐清市,温州市,120.965099,28.109406,小刀电动车,浙江省
康宁街133号,下城区,杭州市,120.203022,30.335093,小刀电动车,浙江省
袍江寺东街千客隆超市旁212号,越城区,绍兴市,120.610816,30.084294,小刀电动车,浙江省
北沙西路170号(金都夏宫西南门),余杭区,杭州市,120.264534,30.426081,小刀电动车(小海车行),浙江省
温金公路42号,鹿城区,温州市,120.611084,28.016365,小刀电动车,浙江省
凯吉路241号附近,义乌市,金华市,120.037866,29.303391,小刀电动车,浙江省
盛莫路568号,鄞州区,宁波市,121.633845,29.844071,小刀电动车,浙江省
老余杭禹航路685号,余杭区,杭州市,119.943835,30.265898,小刀电动车(禹航路),浙江省
滨海六路海慧园,慈溪市,宁波市,121.329402,30.331173,小刀电动车,浙江省
车站北路15号,越城区,绍兴市,120.574745,30.017902,小刀电动车(车站北路店),浙江省
青龙路61-87号东100米,龙湾区,温州市,120.795683,27.926815,小刀电动车,浙江省
屿头村时尚港购物中心,鹿城区,温州市,120.588966,28.037373,小刀电动车,浙江省
坝头东路426号,北仑区,宁波市,121.817472,29.885152,小刀电动车,浙江省
虹阳路454北100米,南浔区,湖州市,120.436381,30.872238,小刀电动车,浙江省
梅堰路769号附近,江北区,宁波市,121.597482,29.924865,小刀电动车,浙江省
余杭镇藕花洲大街西段361号,余杭区,杭州市,120.257813,30.395132,小刀电动车,浙江省
华东路与鸿舟巷交叉口西150米,江干区,杭州市,120.206680,30.344966,小刀电动车,浙江省
丰收住宅区3幢101室,鹿城区,温州市,120.656210,27.998300,小刀电动车,浙江省
水月亭西路与海昌路交叉口东北50米,海宁市,嘉兴市,120.687733,30.524213,小刀电动车,浙江省
竹山村樟树下188号,余姚市,宁波市,121.185641,30.030544,小刀电动车,浙江省
富春街道龙山路29号,富阳区,杭州市,119.962802,30.051071,小刀电动车(龙山路店),浙江省
袍江育贤东路188号,越城区,绍兴市,120.618484,30.071068,小刀电动车,浙江省
东义路51号-53号附近,东阳市,金华市,120.209984,29.274408,小刀电动车(东义路店),浙江省
兆龙路660号附近,镇海区,宁波市,121.613440,29.925421,小刀电动车,浙江省
高桐线32号附近,瓯海区,温州市,120.577696,27.953742,小刀电动车,浙江省
师庄路332号附近,吴兴区,湖州市,120.064183,30.869893,小刀电动车,浙江省
北二环西路与新华路交叉口东北50米,慈溪市,宁波市,121.232398,30.184202,小刀电动车,浙江省
马山镇越英北路34-36号,越城区,绍兴市,120.650800,30.068904,小刀电动车,浙江省
闲林东路棠梨家园5-16号,余杭区,杭州市,120.008240,30.228973,小刀电动车,浙江省
