address,area,city,lat,lng,name,province
狮泉河镇狄三路邮政商品房1-3,噶尔县,阿里地区,80.094825,32.493625,爱玛电动车,西藏自治区
桑木村柳东路山水宾馆对面,堆龙德庆区,拉萨市,90.980991,29.651865,爱玛电动车,西藏自治区
市上海东路与上海中路交叉口西50米,江孜县,日喀则市,89.607680,28.907824,爱玛电动车(上海路店),西藏自治区
林廓西路13号附近,城关区,拉萨市,91.113532,29.655561,爱玛电动车,西藏自治区
黑山扈路付家窑36号附近,海淀区,北京市,116.258629,40.041872,爱玛电动车,北京市
幸福大街与规划一路交叉口西北50米,怀柔区,北京市,116.711284,40.326239,爱玛电动车,北京市
南半壁店中心二街57附近,顺义区,北京市,116.629576,40.031023,爱玛电动车,北京市
八角北路与古城东街交叉口西150米,石景山区,北京市,116.190746,39.918078,爱玛电动车,北京市
南顶路281号,丰台区,北京市,116.410060,39.842570,爱玛电动车(大红门路),北京市
立汤路140附近,昌平区,北京市,116.414550,40.086120,爱玛电动车东三旗专卖店,北京市
东高村兴业路路东新底商南第四门,平谷区,北京市,117.114844,40.107392,爱玛电动车,北京市
仁和镇河南村安定路4号,顺义区,北京市,116.701080,40.101120,爱玛电动车(东大街店),北京市
丰台东路103附近,丰台区,北京市,116.323089,39.847672,爱玛电动车,北京市
马家堡街道角门北路晨光小区,丰台区,北京市,116.374938,39.850405,爱玛电动车,北京市
西十里居67号,朝阳区,北京市,116.490594,39.959134,爱玛,北京市
鸭子桥路45号院底商,西城区,北京市,116.345522,39.873900,爱玛电动车(白纸坊店),北京市
北清路与白庙村中街交叉口西50米,昌平区,北京市,116.388159,40.102592,爱玛电动车(白庙村中街店),北京市
龙锦二街44-2号附近,昌平区,北京市,116.368502,40.087214,爱玛电动车,北京市
庙城镇高两河娱乐园庙高路,怀柔区,北京市,116.654423,40.288292,爱玛电动车,北京市
朝阳路甘露园西里1号楼西侧,朝阳区,北京市,116.509426,39.915658,爱玛电动车(甘露园店),北京市
成寿寺中路18号福臻家园(南园),丰台区,北京市,116.433560,39.853624,爱玛电动车,北京市
木北路与顺平路交叉口西南50米,顺义区,北京市,116.822110,40.149279,爱玛电动车,北京市
幸福家园15-10号,东城区,北京市,116.429276,39.891471,爱玛电动车(幸福家园店),北京市
金顶北路19号附近,石景山区,北京市,116.164649,39.930001,爱玛电动车,北京市
南横东街四平园小区8号楼,西城区,北京市,116.378904,39.882690,爱玛电动车(4平园小区店),北京市
酒仙桥路1号,朝阳区,北京市,116.489247,39.987359,爱玛电动车(798车行),北京市
温泉路37号,海淀区,北京市,116.159769,40.052792,爱玛电动车,北京市
黑山扈路与黑龙潭路交叉口西北150米,海淀区,北京市,116.256749,40.043015,爱玛电动车,北京市
无,丰台区,北京市,116.148392,39.805562,爱玛电动车(南宫路),北京市
新和街与黄良路交叉口西南100米,大兴区,北京市,116.279593,39.695657,爱玛电动车,北京市
兴隆商业街与文汇街交叉口南50米,延庆区,北京市,115.900965,40.375367,爱玛电动车,北京市
金马工业区中路南50米,顺义区,北京市,116.567088,40.134023,爱玛电动车,北京市
西马场路6号院怡然家园6号院低商,丰台区,北京市,116.384944,39.841909,爱玛电动车,北京市
青塔西路4号附近,丰台区,北京市,116.264899,39.895419,爱玛电动车,北京市
松榆北路3号,朝阳区,北京市,116.462220,39.876446,爱玛电动车(潘家园东路),北京市
新海东路2号院8号楼,通州区,北京市,116.547203,39.762963,爱玛电动车(莲水怡园北),北京市
密三路与峪口南街东路交叉口西北100米,平谷区,北京市,117.015156,40.187591,爱玛电动车,北京市
将台东路3号附近,朝阳区,北京市,116.504983,39.971901,爱玛电动车,北京市
大羊坊路与横街子村委会路交叉口北50米,朝阳区,北京市,116.501278,39.832553,爱玛,北京市
阜石路甲19号院11号楼1-101-1,海淀区,北京市,116.259719,39.926225,爱玛电动车(双槐树路),北京市
庞各庄镇众美城9-8,大兴区,北京市,116.322151,39.631443,爱玛专卖店,北京市
城子大街132-10号,门头沟区,北京市,116.100129,39.946519,爱玛电动车,北京市
东坝中路28号院3号楼108号,朝阳区,北京市,116.547689,39.958225,爱玛电动车(东坝中路),北京市
丰台东路与桥安路交叉口西150米,丰台区,北京市,116.308768,39.846065,爱玛电动车(丰台东路),北京市
永乐店镇永觅路永乐嘉园南200米,通州区,北京市,116.791320,39.709360,爱玛电动车,北京市
佟麟阁大街81号,通州区,北京市,116.657854,39.902789,爱玛电动车,北京市
圆明园西路梅园甲3,海淀区,北京市,116.273122,40.031164,爱玛电动车,北京市
永顺镇潞苑南大街81号院2号楼,通州区,北京市,116.677128,39.929866,京顺诚爱玛电动车,北京市
京深路北50米,房山区,北京市,116.026441,39.599799,爱玛车行(圣聚城大酒店西南),北京市
上庄镇望湖楼南秦浩车业爱玛专卖店上庄家园西路76号,海淀区,北京市,116.214743,40.100151,爱玛电动车,北京市
宁来公路附近,密云区,北京市,116.877872,40.350612,提辖庄爱玛电动车,北京市
回龙观西大街上北鑫座2号楼130号,昌平区,北京市,116.329918,40.078711,爱玛电动车(回龙观西大街),北京市
魏善庄镇邮局对面,大兴区,北京市,116.413377,39.664970,爱玛电动车,北京市
北太平路与永定路交叉口西北50米,海淀区,北京市,116.264329,39.904175,爱玛电动车(永定路店),北京市
玉泉路65号,石景山区,北京市,116.252539,39.899912,爱玛电动车(玉泉路店),北京市
北京西站南路106号,丰台区,北京市,116.321441,39.874815,爱玛电动车(北京三路居医院北),北京市
金盏路5号,朝阳区,北京市,116.576619,40.002437,爱玛电动车车工厂,北京市
原新东路与阎河路交叉口西北100米,房山区,北京市,116.059194,39.734102,爱玛电动车,北京市
圆明园西路马连洼梅园甲3号(圣芙源美容美体SPA馆北侧),海淀区,北京市,116.273126,40.031160,UCC运动自行车(梅园甲店),北京市
怀柔南大街6号,怀柔区,北京市,116.635329,40.312376,爱玛电动车(南大街),北京市
建新东路与顺平路交叉口东南50米,顺义区,北京市,116.949867,40.151234,爱玛电动车(张镇专卖店),北京市
立军路7号院附近,朝阳区,北京市,116.407528,40.047247,爱玛电动车,北京市
古兰东桥与良官公路交叉口西北100米,房山区,北京市,116.148562,39.700159,爱玛电动车(小营专卖店),北京市
西四环大井东里后街24号,丰台区,北京市,116.274249,39.871164,爱玛电动车(丰台区房屋普查办公室西),北京市
红庙北里20号楼北侧,朝阳区,北京市,116.478360,39.920819,爱玛电动车(红庙店),北京市
十里河村1601号,朝阳区,北京市,116.462970,39.859988,爱玛(吕营大街),北京市
采育镇育镇街32号院2号楼1层,大兴区,北京市,116.635950,39.650976,爱玛电动车(育镇街32号院店),北京市
南横西街92号-3,西城区,北京市,116.368971,39.883104,爱玛电动车(南横西街),北京市
中顺街与阳坊村西大街交叉口西100米,昌平区,北京市,116.144451,40.140700,爱玛电动车(阳坊村西大街),北京市
尚上路北50米,昌平区,北京市,116.321496,40.147736,爱玛电动车,北京市
广渠门外大街15号楼,朝阳区,北京市,116.454043,39.893873,爱玛电动车(广渠门外大街),北京市
马家堡路25-5号,丰台区,北京市,116.385420,39.864173,爱玛电动车(马家堡路店),北京市
赵公口桥北150路西,丰台区,北京市,116.413854,39.858444,爱玛(定安路),北京市
北下关街道北三环大钟寺车站南平房113号,海淀区,北京市,116.338645,39.967207,爱玛电动车(四道口路店),北京市
东直门外十字坡街8号楼111,东城区,北京市,116.439369,39.938623,爱玛电动车(新中街店),北京市
大运村西路与校园北路交叉口西北100米,海淀区,北京市,116.340205,39.985194,爱玛电动车(大运村西路店),北京市
滨河路与石龙北路交叉口南150米,门头沟区,北京市,116.115742,39.924523,爱玛电动车(门头沟区妇幼保健院北),北京市
牛栏山红菜坊西50米路口内牛山车棚厂,顺义区,北京市,116.657241,40.212730,爱玛电动车,北京市
黄村桥农贸市场南门,大兴区,北京市,116.344789,39.711448,爱玛电动车(林海园西),北京市
东四北大街262号,东城区,北京市,116.417442,39.930991,爱玛电动车(东四北大街店),北京市
顺沙路高丽营段7号西南90米,顺义区,北京市,116.505520,40.168144,爱玛电动车(高丽营专卖店),北京市
农林路4号院8号,房山区,北京市,115.984827,39.688822,爱玛电动车(永兴家园北),北京市
新发地风格与林苑甲9号楼1层,丰台区,北京市,116.337236,39.823199,爱玛电动车(丰台南路店),北京市
三里河东路9号(中商大厦南侧),西城区,北京市,116.344445,39.910416,爱玛电动车(三里河店),北京市
北苑东路东200米,昌平区,北京市,116.443947,40.068937,爱玛电动车,北京市
中关村北大街与清华西路交叉口北侧200米,海淀区,北京市,116.314771,40.002552,爱玛电动车(清华西门店),北京市
城北街道建明里25号楼16号低商,昌平区,北京市,116.222256,40.223764,爱玛电动车(西关路),北京市
翠微路6号120室,海淀区,北京市,116.302433,39.914726,爱玛电动车(翠微路),北京市
良乡房山良乡南关洪振南街罗府家园3-11号,房山区,北京市,116.141870,39.727643,爱玛电动车(拱辰南大街),北京市
306省道南50米,顺义区,北京市,116.752858,40.136402,爱玛电动车(顺义区南彩电信局东),北京市
中关村东路金谷园小区4号楼,海淀区,北京市,116.334203,39.974621,爱玛电动车(中关村东路),北京市
兴安大街与黄徐路交叉口西50米,大兴区,北京市,116.492882,39.617683,爱玛电动车(汤东路),北京市
管庄西里78号楼,朝阳区,北京市,116.583422,39.914206,爱玛电动车(管庄店),北京市
杨镇三街南门外大街一号(三街红绿灯),顺义区,北京市,116.826291,40.149743,爱玛电动车(大辛庄街店),北京市
周口店路与长安店十中路交叉口西南100米,丰台区,北京市,116.206873,39.814839,爱玛电动车(长辛店大街店),北京市
府西路与顺密路交叉口东北150米,顺义区,北京市,116.729245,40.202680,爱玛电动车(府西路),北京市
建材城西路87号上奥世纪永星商城,昌平区,北京市,116.331241,40.057250,爱玛电动车(建材城西路店),北京市
双峪路与裕安路交叉口北150米,顺义区,北京市,116.543096,40.109883,爱玛电动车(后沙峪大胡子专卖店),北京市
新平东路13号,平谷区,北京市,117.123574,40.139488,爱玛电动车(新平东路),北京市
双兴南区48号楼1层,顺义区,北京市,116.652574,40.137343,爱玛电动车(中山北大街店),北京市
东南路与平夏路交叉口东100米,平谷区,北京市,117.168034,40.124419,爱玛电动车(东南路店),北京市
顺密路44号附近,顺义区,北京市,116.781464,40.245729,爱玛电动车(木林小韩店),北京市
密平路附近(社区卫生服务站东)(平谷区社区卫生服务站东),平谷区,北京市,117.014659,40.190239,爱玛电动车(峪口一街),北京市
杨宋镇兴杨路15号,怀柔区,北京市,116.684101,40.290717,爱玛电动车(杨宋镇杨宋庄社区卫生服务站北),北京市
中国农业机械化科学研究院(北沙滩桥东北),朝阳区,北京市,116.372917,40.001887,爱玛电动车,北京市
手帕口北街9号楼,西城区,北京市,116.342503,39.891795,爱玛电动车(手帕口北街),北京市
龙岗路清景园小区4号楼底商11-2,海淀区,北京市,116.351766,40.030264,爱玛电动车(龙岗路店),北京市
青年沟路和平里七区31号,东城区,北京市,116.420454,39.961933,爱玛电动车(和平里店),北京市
京密路与新南路交叉口西南50米,密云区,北京市,116.843884,40.368901,邦德小飞马:1,北京市
正阳大街正阳北里16号楼(柏强家电维修中心),丰台区,北京市,116.287554,39.848580,爱玛电动车(正阳大街),北京市
新街口外大街27号(近小西天),海淀区,北京市,116.371282,39.952531,爱玛电动车(小西天店),北京市
南磨房路25号附近,朝阳区,北京市,116.479091,39.884678,爱玛电动车(南磨房路),北京市
西红门北二街298号附近,大兴区,北京市,116.333292,39.794372,爱玛电动车,北京市
交道口南大街98一1号,东城区,北京市,116.408943,39.937446,爱玛电动车(交道口店),北京市
林中路西50米附近,宝坻区,天津市,117.571018,39.691620,爱玛电动车(大钟专卖店),天津市
林中路附近,宝坻区,天津市,117.509966,39.637304,爱玛电动车,天津市
通唐公路2号附近,宝坻区,天津市,117.448777,39.687263,爱玛电动车,天津市
京西路与双兴街交叉口东100米,静海区,天津市,116.919971,38.871755,爱玛电动车,天津市
葛万公路东50米,津南区,天津市,117.504199,38.987003,爱玛电动车,天津市
建鑫城10号楼151号,津南区,天津市,117.324836,38.943112,爱玛电动车(八里台专卖上门服务),天津市
商业道6号,宁河区,天津市,117.831098,39.334580,爱玛,天津市
营雅路31号,西青区,天津市,117.124604,39.159466,爱玛电动车(营雅路店),天津市
杨柳青新华道龙华里底商1号楼8门,西青区,天津市,117.021041,39.140810,爱玛,天津市
九园公路东150米,宝坻区,天津市,117.364788,39.398360,爱玛电动车,天津市
京福公路附近,武清区,天津市,116.849891,39.443072,爱玛电动车,天津市
千禧园30号楼底商,红桥区,天津市,117.139006,39.156031,爱玛电动车,天津市
裕和路旭园20号楼2-101,东丽区,天津市,117.389824,39.176898,爱玛电动车(裕和路店),天津市
花城中路与花城中路南段交叉口东100米,武清区,天津市,117.137813,39.415699,爱玛电动车,天津市
建昌道与泗阳路交叉口西北50米,河北区,天津市,117.223563,39.173555,爱玛建昌道旗舰店,天津市
黄河道479-增2号,南开区,天津市,117.141279,39.137518,爱玛电动车,天津市
金钟公路中国北方五金城G区1栋1层,东丽区,天津市,117.275716,39.194347,爱玛电动车大毕庄五金城专卖店,天津市
林黑路与梁胡路交叉口东南100米,宝坻区,天津市,117.372781,39.678102,爱玛电动车,天津市
津围公路东50米,宝坻区,天津市,117.378544,39.751178,爱玛电动车,天津市
静湖花园静湖菜市场016号门脸,武清区,天津市,117.094588,39.339204,爱玛专卖,天津市
京津路顺义里底商,北辰区,天津市,117.152791,39.198583,爱玛电动车天穆专卖店,天津市
渔坝口四大队支路西50米,武清区,天津市,116.998571,39.263004,爱玛电动车,天津市
天琴里11号楼,河东区,天津市,117.255261,39.088733,爱玛电动车,天津市
大黑路西150米,宝坻区,天津市,117.239919,39.585020,爱玛电动车,天津市
黄花店镇南大街农业银行北20米路东,武清区,天津市,116.901523,39.366654,爱玛电动车(黄花店),天津市
南城路与纪家园路交叉口东北50米,宝坻区,天津市,117.304909,39.723709,爱玛电动车(西城路),天津市
蓟州区九别路与岗保路交叉口西150米,蓟州区,天津市,117.507381,39.953867,爱玛电动车,天津市
东方红路与东安路交叉口,静海区,天津市,116.950473,38.933449,爱玛自行车(东方红路),天津市
造甲城镇,宁河区,天津市,117.443004,39.282838,爱玛电动车(造甲路),天津市
东金路与银行路交叉口北150米,东丽区,天津市,117.458700,39.062142,爱玛电动车(明丰店),天津市
二街路与陈大公路交叉口东北100米,静海区,天津市,116.915606,38.820736,爱玛电动车(御河园小区东北),天津市
唐烧路与清真寺大街交叉口西50米,静海区,天津市,116.924707,38.713325,爱玛电动车,天津市
利达路与幸福路交叉口东50米,西青区,天津市,117.210432,39.007327,爱玛电动车,天津市
双井村乾坤车城,蓟州区,天津市,117.256701,39.991750,爱玛电动车,天津市
咸阳北路30号附近,红桥区,天津市,117.146992,39.180907,爱玛电动车(咸阳北路店),天津市
津塘路中山门西里3号楼底商,河东区,天津市,117.258215,39.104190,爱玛电动车,天津市
体育场路20号,津南区,天津市,117.384157,38.987120,爱玛电动车(大件路),天津市
新民胡同与荣华道交叉口东北50米,西青区,天津市,117.098028,39.034101,爱玛电动车,天津市
津塘路振华里东丽商场-验光配镜中心东侧,东丽区,天津市,117.316950,39.090451,爱玛电动车-新立综合经营部,天津市
林黑路东50米,宝坻区,天津市,117.405735,39.621547,爱玛电动车,天津市
津围公路与郭罗庄路交叉口北150米,武清区,天津市,117.200601,39.365455,爱玛电动车(梅厂社区卫生服务站东北),天津市
廉庄镇孟庄村卫星路与宝芦公路交叉口东北100米,宁河区,天津市,117.768619,39.423775,爱玛电动车(廉庄镇孟庄村店),天津市
昆仑路铁城公寓16号,东丽区,天津市,117.273806,39.124521,爱玛电动车(昆仑路辅路),天津市
赵沽里大街19号附近,河北区,天津市,117.244972,39.171156,爱玛电动车,天津市
咸水沽镇体育场路20号,津南区,天津市,117.384266,38.987122,锦荣电动自行车商行,天津市
校园街与静文公路交叉口西150米,静海区,天津市,116.757704,38.933449,爱玛电动车,天津市
辰旺路778号附近,北辰区,天津市,117.124568,39.202836,爱玛电动车(辰旺路),天津市
南开五马路37号,南开区,天津市,117.169900,39.129784,爱玛电动车(南开五马路),天津市
花园路40号,滨海新区,天津市,117.503603,38.723827,爱玛电动车,天津市
农商银行西,宁河区,天津市,117.487693,39.272845,爱玛电动车,天津市
双港九龙街联合驾校(福港园东100米),津南区,天津市,117.318579,39.039331,爱玛电动车(九龙街),天津市
华明商贸中心南A区6号,东丽区,天津市,117.368793,39.172866,爱玛电动车,天津市
延吉道1号附近(天津市北辰区社团管理办公室西北),北辰区,天津市,117.128322,39.232896,爱玛电动车(北辰延吉道专卖店),天津市
大寺村大寺小学旁,西青区,天津市,117.217576,39.011145,爱玛电动车(龙泉道),天津市
铃铛阁街道复兴路康华里3号楼底商,红桥区,天津市,117.163151,39.144053,爱玛电动车(康华里店),天津市
陈嘴路北50米,武清区,天津市,116.997371,39.289855,爱玛电动车(鸿禧电动车),天津市
邦喜公路(蓟州区马伸桥环境保护所西南),蓟州区,天津市,117.606933,40.084625,爱玛电动车(马伸桥镇人民代表大会东),天津市
津涞道与香霞路交叉口西南50米,西青区,天津市,117.177122,39.062159,爱玛电动车(津涞道店),天津市
津淄公路西50米,滨海新区,天津市,117.160287,38.748348,爱玛电动车(小王庄专卖店),天津市
蓟州区仓桑路与宝平公路交叉口东100米,蓟州区,天津市,117.249724,39.909087,爱玛电动车(金超车行专卖),天津市
翠涛里3号楼底商,北辰区,天津市,117.220886,39.192013,爱玛电动车(津围公路店),天津市
佳荣里街道佳园新里1号楼底商,北辰区,天津市,117.123331,39.193030,爱玛电动车速派奇,天津市
丰李路南50米,宁河区,天津市,117.869760,39.571240,爱玛电动车,天津市
潘塘路西50米,宁河区,天津市,117.477860,39.344074,爱玛电动车,天津市
大坨路北50米,宁河区,天津市,117.640185,39.279128,爱玛电动车,天津市
京福公路与津霸支路交叉口东北150米,北辰区,天津市,117.033131,39.198817,爱玛电动车(津霸支路店),天津市
杨崔公路与洪杨路交叉口西南150米,武清区,天津市,117.092891,39.476898,爱玛电动车(大碱厂镇卫生院北),天津市
王顶堤桥与红旗南路交叉口西南50米,南开区,天津市,117.149112,39.097836,爱玛电动车(红旗南路),天津市
密云一支路3号,西青区,天津市,117.110148,39.124221,爱玛电动车,天津市
静海镇东方红路建乐里小区东200米,静海区,天津市,116.949483,38.933047,爱玛电动车(东方红路店),天津市
丁字沽一号路与绥中路交叉口西北50米,红桥区,天津市,117.142805,39.189912,爱玛电动车(丁字沽一号路店),天津市
金钟河大街641号润园里底商,河北区,天津市,117.226949,39.162004,爱玛赛克电动车(金钟河专卖店),天津市
榆关道493号,河北区,天津市,117.181155,39.177806,爱玛电动车(榆关道),天津市
曹三路与郑各庄路交叉口东100米,宝坻区,天津市,117.223244,39.788298,宝坻牛道口爱玛电动车专卖店,天津市
津永公路南50米,武清区,天津市,116.947419,39.253333,爱玛电动车,天津市
子牙镇政府西100米路北,静海区,天津市,116.772063,38.823576,爱玛电动车,天津市
保山道保山北里1号楼底商,南开区,天津市,117.145051,39.106374,爱玛电动车(保山道店),天津市
密云路53号增4号,南开区,天津市,117.126652,39.132223,爱玛电动车(密云路店),天津市
平江南道与益阳道交叉口东150米,河西区,天津市,117.215448,39.081859,爱玛电动车(益阳道店),天津市
张家窝镇灵泉南里1号楼侧1门底商,西青区,天津市,117.040126,39.059109,爱玛自行车电动车,天津市
京哈公路与邦均市场路交叉口西150米,蓟州区,天津市,117.266561,39.990731,乾坤车城,天津市
大庄子桥南500米路东,静海区,天津市,117.120783,38.688043,爱玛电动车,天津市
大新路与新开口路交叉口西南100米,宝坻区,天津市,117.193247,39.679529,爱玛电动车(宝坻新开口专卖店),天津市
杨王路与石各庄商业街交叉口西南150米,武清区,天津市,116.903798,39.298362,爱玛电动车,天津市
杨崔公路东50米,武清区,天津市,117.196992,39.531862,爱玛电动车(大洋专卖),天津市
胜利路与雍阳东道交叉口北150米,武清区,天津市,117.072143,39.377678,爱玛电动三轮车武清总代理,天津市
大邱庄镇长江道13号,静海区,天津市,117.066397,38.837603,爱玛电动车,天津市
向阳西支路东风里底商,滨海新区,天津市,117.663040,39.026158,爱玛电动车(向阳西支路店),天津市
嘉华里12号楼底商,河东区,天津市,117.245089,39.129141,爱玛电动车(红星路店),天津市
双口中心街路双口镇医院西250米,北辰区,天津市,117.028363,39.241054,爱玛电动车(双口中心街路),天津市
蓟州区宝平公路与邦侯路交叉口东50米,蓟州区,天津市,117.259788,39.851238,爱玛电动车(侯家营乡卫生院北),天津市
天宇科技园,静海区,天津市,117.008139,38.895356,爱玛车行(团静路),天津市
普嘉乐装饰城前排爱玛电动车,南开区,天津市,117.112337,39.134411,爱玛电动车(芥园西道店),天津市
后蒲棒路与青上路交叉口东南200米,武清区,天津市,117.260124,39.447065,爱玛电动车(青上路),天津市
仓桑路,蓟州区,天津市,117.401051,39.903442,爱玛电动车(仓桑路),天津市
双街镇龙顺道194号,北辰区,天津市,117.103193,39.259859,爱玛电动车(龙顺道),天津市
唐官屯,静海区,天津市,116.919186,38.711916,爱玛电动车(平安道),天津市
咸阳路与旧津保道咸阳路,南开区,天津市,117.139098,39.143770,爱玛电动车(咸阳路),天津市
城关镇李庄崔廊线博雅轩小区,武清区,天津市,116.872693,39.524293,爱玛电动车(博雅轩小区东南),天津市
津塘公路203号,东丽区,天津市,117.316905,39.090488,爱玛电动车(东丽总经销),天津市
静海百货公司(独流店),静海区,天津市,116.913279,39.022831,爱玛电动车(静霸线),天津市
中青路与蔡中路交叉口西50米,静海区,天津市,117.136104,38.637610,爱玛电动车(中青路),天津市
东方红路44附近,静海区,天津市,116.920256,38.933391,爱玛电动车(东方红路),天津市
杨六公路(曹子里社区卫生服务站东),武清区,天津市,117.131407,39.414698,爱玛电动车(曹子里社区卫生服务站东),天津市
南东路东50米,武清区,天津市,117.021311,39.472785,爱玛电动车,天津市
蓟州区仓桑路桑梓镇政府东150米,蓟州区,天津市,117.173720,39.909726,爱玛电动车(桑梓镇人民代表大会东),天津市
旗良公路(大良医院北),武清区,天津市,117.097943,39.546963,爱玛电动车(大良医院北),天津市
振华西道北50米,武清区,天津市,117.058314,39.374490,爱玛电动车(振华西道),天津市
城关镇,蓟州区,天津市,117.413522,40.037376,爱玛电动车(四正街),天津市
文化街154号附近,滨海新区,天津市,117.805125,39.254033,爱玛电动车(文化街),天津市
天泰路与榆关道交叉口东100米,河北区,天津市,117.180470,39.177645,爱玛电动车(榆关道店),天津市
台头镇集市路和梁台路的交叉口附近,静海区,天津市,116.787710,39.025982,会友车行,天津市
南淮淀路南50米,宁河区,天津市,117.570602,39.260075,宁河区北淮淀镇爱玛电动车专卖店,天津市
大顺对面,宝坻区,天津市,117.317343,39.633070,爱玛专卖店,天津市
人民大街与开元北路交叉口南150米,邢台县,邢台市,114.514859,37.097431,爱玛电动车,河北省
守敬北路508附近,桥西区,邢台市,114.481584,37.081403,爱玛电动车,河北省
和平大街与海阳路交叉口西南100米,海港区,秦皇岛市,119.592535,39.935171,爱玛电动车,河北省
建华南大街216-232号附近,裕华区,石家庄市,114.546630,38.010023,爱玛电动车,河北省
建华大街东100米路南尖领新村北口,裕华区,石家庄市,114.548357,38.028841,爱玛电动车,河北省
广安街与新海路交叉口东南50米,黄骅市,沧州市,117.326224,38.375988,爱玛电动车,河北省
261省道西50米,昌黎县,秦皇岛市,119.162480,39.701428,爱玛电动车,河北省
振兴东路金梧桐商城对面,曲周县,邯郸市,114.966739,36.774203,爱玛电动车,河北省
中兴西大街时代广场负一层,桥西区,邢台市,114.474931,37.060294,爱玛电动车,河北省
长宁西道东50米,路北区,唐山市,118.161018,39.666359,爱玛电动车,河北省
东汪镇龙泉大街与信都路路口北行100米路东,邢台县,邢台市,114.544673,37.042075,爱玛电动车,河北省
秦山公路与青年路交叉口东150米,海港区,秦皇岛市,119.644156,39.973217,爱玛电动车,河北省
兴广南路20号附近,广宗县,邢台市,115.145312,37.076123,爱玛电动车,河北省
临漳镇南二环王禅东路19号,临漳县,邯郸市,114.613685,36.331676,爱玛电动车,河北省
站南大街与635县道交叉口西南150米,北戴河区,秦皇岛市,119.413326,39.844091,爱玛电动车,河北省
永安大道与海河西路交叉口西南200米,运河区,沧州市,116.827860,38.271883,爱玛电动车,河北省
新兴街248号,宽城满族自治县,承德市,118.480811,40.602233,爱玛电动车,河北省
邯大公路中堡公交站北50米,邯山区,邯郸市,114.520280,36.566338,爱玛电动车,河北省
复兴中路与李庄街交叉口东南100米,莲池区,保定市,115.502598,38.895188,爱玛电动车,河北省
省府东街与都统府大街交叉口西150米路南,双桥区,承德市,117.941072,40.978103,爱玛电动车,河北省
永华南大街与西大街交叉口东50米,莲池区,保定市,115.496258,38.861598,爱玛电动车,河北省
红旗大街585号,桥西区,石家庄市,114.459840,37.998281,爱玛电动车,河北省
槐安西路211号附近,桥西区,石家庄市,114.445169,38.025075,爱玛电动车,河北省
太行北路与武松西街交叉口南150米,清河县,邢台市,115.667290,37.070839,爱玛电动车,河北省
梁沟二村爱玛电动车4s店,任丘市,沧州市,116.034969,38.796831,爱玛电动车,河北省
和平路与东环路交叉口南行100米路东爱玛电动车,丛台区,邯郸市,114.540379,36.597986,爱玛电动车,河北省
036省道靠近星源家具城爱玛电动车,永年区,邯郸市,114.590816,36.739131,爱玛电动车,河北省
京哈公路雅迪电动车旁,玉田县,唐山市,117.654565,39.905232,爱玛电动车,河北省
京廊路澳柯玛电动车盛通南50米,广阳区,廊坊市,116.626408,39.568575,爱玛电动车,河北省
无,易县,保定市,115.462439,39.293443,爱玛电动车,河北省
鼓山北街,峰峰矿区,邯郸市,114.214460,36.479687,爱玛电动车,河北省
兴港路,黄骅市,沧州市,117.381164,38.473670,爱玛电动车,河北省
无,魏县,邯郸市,115.080587,36.195660,爱玛电动车,河北省
087乡道西50米,海港区,秦皇岛市,119.596829,40.168123,爱玛电动车,河北省
光明路与兴业路交叉口东南50米附近,丰南区,唐山市,117.887611,39.362610,爱玛电动车,河北省
胜利南街341附近,裕华区,石家庄市,114.494893,37.990351,爱玛电动车,河北省
西三庄乡田家庄南区3号楼,新华区,石家庄市,114.440698,38.097849,爱玛电动车,河北省
建华北大街376附近,长安区,石家庄市,114.544614,38.072975,爱玛电动车,河北省
槐安西路246-6号附近,桥西区,石家庄市,114.439464,38.024164,爱玛电动车,河北省
槐安东路与煤机街交叉口东150米,裕华区,石家庄市,114.552674,38.022965,爱玛电动车,河北省
302省道南50米,无极县,石家庄市,114.828433,38.160165,爱玛电动车,河北省
万安镇古灵山416号,蠡县,保定市,115.624274,38.666621,爱玛电动车,河北省
221乡道与236乡道交叉口东100米,蔚县,张家口市,114.680433,39.891561,爱玛电动车,河北省
商业街与052乡道交叉口南150米,正定县,石家庄市,114.506956,38.191175,爱玛电动车,河北省
高开区恒大山水城13栋1单元106商铺,邢台县,邢台市,114.564050,37.056081,爱玛电动车,河北省
东环路33号,河间市,沧州市,116.043874,38.538194,爱玛电动车,河北省
彭店子集贸市场47号,迁安市,唐山市,118.843234,39.915749,爱玛电动车,河北省
062县道西50米,赞皇县,石家庄市,114.364368,37.582567,爱玛电动车,河北省
暖泉路西50米,玉田县,唐山市,117.745853,39.837512,爱玛电动车,河北省
457县道南50米,涿鹿县,张家口市,115.438522,40.221684,爱玛电动车,河北省
杨柏线与102国道交叉口东150米,迁安市,唐山市,118.554222,39.865533,爱玛电动车,河北省
无,大城县,廊坊市,116.533204,38.564521,爱玛电动车,河北省
迁徐线北50米,迁安市,唐山市,118.864970,40.090462,爱玛电动车,河北省
展览路与滏西路交叉口东行100米达康加油站,丛台区,邯郸市,114.512011,36.611917,爱玛电动车,河北省
324省道北50米,任县,邢台市,114.849714,37.248475,爱玛电动车,河北省
渤海路与育才街交叉口东南100米,黄骅市,沧州市,117.771895,38.274242,爱玛电动车,河北省
大官亭镇东张岗村南头,饶阳县,衡水市,115.734920,38.348911,爱玛电动车,河北省
府前街与马渠线交叉口东50米,玉田县,唐山市,117.864733,39.805235,爱玛电动车,河北省
大石线南50米,河间市,沧州市,116.276976,38.612281,爱玛电动车,河北省
284省道东50米,黄骅市,沧州市,117.405722,38.255708,爱玛电动车,河北省
673乡道西50米,威县,邢台市,115.354725,37.256131,爱玛电动车,河北省
永信线南50米,永清县,廊坊市,116.646799,39.208924,爱玛电动车,河北省
武馆线与074乡道交叉口西南50米,馆陶县,邯郸市,115.391892,36.746823,爱玛电动车,河北省
大牙线北50米,广平县,邯郸市,115.005021,36.519346,爱玛电动车,河北省
束北线,大名县,邯郸市,115.332771,36.134603,爱玛电动车,河北省
326省道西50米,临西县,邢台市,115.614868,36.877036,爱玛电动车,河北省
中华北大街与丰收路交叉口北100米,丛台区,邯郸市,114.496383,36.642721,爱玛电动车,河北省
106国道东50米,威县,邢台市,115.312878,37.092801,爱玛电动车,河北省
赵苑南门闹行100米路东,复兴区,邯郸市,114.473591,36.617823,爱玛电动车,河北省
白官屯镇丰杨线附近,丰润区,唐山市,117.969059,39.793308,爱玛电动车,河北省
无,南和县,邢台市,114.672114,37.065111,爱玛电动车,河北省
安平镇王家摆村口,香河县,廊坊市,116.933091,39.742693,爱玛电动车,河北省
南迎宾大道西50米,邯山区,邯郸市,114.520529,36.575965,爱玛电动车,河北省
微水镇韩信街江淮宾馆旁边,井陉县,石家庄市,114.141565,38.037413,爱玛电动车,河北省
藁城区藁城区果王线,藁城区,石家庄市,114.824927,37.887364,爱玛电动车,河北省
凤山戏楼西南100米,丰宁满族自治县,承德市,117.200680,41.228948,爱玛电动车,河北省
百泉路143号附近,涞源县,保定市,114.705891,39.347944,爱玛电动车,河北省
文化北路东50米,遵化市,唐山市,117.966321,40.221221,爱玛电动车,河北省
401乡道南100米,宁晋县,邢台市,115.155606,37.557160,爱玛电动车,河北省
中心大街与042省道交叉口北150米,雄县,保定市,116.046895,39.065849,爱玛电动车,河北省
327省道南50米,临城县,邢台市,114.401061,37.456480,爱玛电动车,河北省
政通街东50米,涞源县,保定市,114.684191,39.307018,爱玛电动车,河北省
316省道东50米,峰峰矿区,邯郸市,114.158547,36.404403,爱玛电动车,河北省
050乡道南50米附近,大名县,邯郸市,115.010211,36.403729,爱玛电动车,河北省
李中路与751县道交叉口东150米,三河市,廊坊市,116.984659,40.016566,爱玛电动车,河北省
406乡道西50米,宁晋县,邢台市,114.929048,37.476410,爱玛电动车,河北省
古遂东路北50米,徐水区,保定市,115.541558,39.045253,爱玛电动车,河北省
建设路与温留路交叉口西北50米,蠡县,保定市,115.757065,38.545424,爱玛电动车,河北省
和平路东50米,霸州市,廊坊市,116.826781,39.119303,爱玛电动车,河北省
伯爵大酒店底商,沽源县,张家口市,115.686050,41.660267,爱玛电动车,河北省
博望路41号附近,博野县,保定市,115.387499,38.528120,爱玛电动车,河北省
北三环高新区宏伟幼儿园南,竞秀区,保定市,115.473003,38.935533,爱玛电动车,河北省
义井镇卫生院对面,峰峰矿区,邯郸市,114.156971,36.480338,爱玛电动车,河北省
柏乡镇槐东大街电力局南100米路东,柏乡县,邢台市,114.698524,37.501321,爱玛电动车,河北省
竞秀区天威西路1794号附近,竞秀区,保定市,115.433553,38.865229,爱玛电动车,河北省
台王线附近,文安县,廊坊市,116.398666,38.933778,爱玛电动车,河北省
651乡道北50米,新乐市,石家庄市,114.850147,38.318705,爱玛电动车,河北省
无,黄骅市,沧州市,117.564212,38.596818,爱玛电动车,河北省
安山供销商场西南,昌黎县,秦皇岛市,118.998402,39.713957,爱玛电动车,河北省
武馆线东50米,馆陶县,邯郸市,115.338298,36.632044,爱玛电动车,河北省
054县道南50米,鹿泉区,石家庄市,114.349471,38.131805,爱玛电动车,河北省
大牙线与066乡道交叉口南50米,广平县,邯郸市,114.905313,36.436315,爱玛电动车,河北省
志强路附近,沧县,沧州市,116.901829,38.383705,爱玛电动车,河北省
130乡道南150米,临漳县,邯郸市,114.504141,36.371487,爱玛电动车,河北省
千里街与南环路交叉口南150米,无极县,石家庄市,114.834147,38.220317,爱玛电动车,河北省
166乡道东100米,峰峰矿区,邯郸市,114.241110,36.548276,爱玛电动车,河北省
无,献县,沧州市,116.091210,38.306304,爱玛电动车,河北省
007县道与205乡道交叉口西100米,柏乡县,邢台市,114.711041,37.543694,爱玛电动车,河北省
贾中线北50米,邯山区,邯郸市,114.597225,36.565250,爱玛电动车,河北省
天王公路西50米,辛集市,石家庄市,115.315216,37.862378,爱玛电动车,河北省
无,丛台区,邯郸市,114.765112,36.674940,爱玛电动车,河北省
政府南大街西50米,邯山区,邯郸市,114.518795,36.557174,爱玛电动车,河北省
栾城区寿康大街24号附近,栾城区,石家庄市,114.626136,37.975950,爱玛电动车,河北省
莲池区,莲池区,保定市,115.547446,38.802752,爱玛电动车,河北省
柏鹤集乡北史庄村,临漳县,邯郸市,114.741868,36.309804,爱玛电动车,河北省
南留村委会对面,徐水区,保定市,115.553129,38.980183,爱玛电动车,河北省
长兴街28号,桥西区,石家庄市,114.408541,38.053418,爱玛电动车,河北省
无,宁晋县,邢台市,114.982554,37.690392,爱玛电动车,河北省
无,曲周县,邯郸市,114.883481,36.746336,爱玛电动车,河北省
251省道东50米,海港区,秦皇岛市,119.529815,40.016819,爱玛电动车,河北省
文忠加油站东南50米(辛霞路南),东光县,沧州市,116.820964,37.934042,爱玛电动车,河北省
282省道与408乡道交叉口北100米,深州市,衡水市,115.699471,38.055566,爱玛电动车,河北省
燕新线东50米,卢龙县,秦皇岛市,119.065999,40.034791,爱玛电动车,河北省
307国道南50米,沧县,沧州市,116.680771,38.276143,爱玛电动车,河北省
永平大街与肥子路交叉口西150米,卢龙县,秦皇岛市,118.883590,39.891975,爱玛电动车,河北省
无,馆陶县,邯郸市,115.272280,36.602132,爱玛电动车,河北省
景安大街141附近,景县,衡水市,116.279819,37.692316,爱玛电动车,河北省
平泉镇市场北路前卫林场底商,平泉市,承德市,118.694221,41.010828,爱玛电动车,河北省
东固线东50米,河间市,沧州市,116.274837,38.418274,爱玛电动车,河北省
兴华街65号附近,鹿泉区,石家庄市,114.384808,38.036032,爱玛电动车,河北省
创业路与广场东街交叉口南100米,黄骅市,沧州市,117.470465,38.386663,爱玛电动车,河北省
平安路155号附近,易县,保定市,115.284435,39.134623,爱玛电动车,河北省
京哈公路与李翟路交叉口西100米,三河市,廊坊市,116.986138,39.967091,爱玛电动车,河北省
福源北街208号附近,魏县,邯郸市,114.959836,36.143870,爱玛电动车,河北省
215省道附近,魏县,邯郸市,114.991439,36.104552,爱玛电动车,河北省
福源北街254号附近,魏县,邯郸市,114.960344,36.145242,爱玛电动车,河北省
定魏线附近,魏县,邯郸市,114.933635,36.405778,爱玛电动车,河北省
南沿村镇,丛台区,邯郸市,114.680243,36.670597,爱玛电动车,河北省
212省道东50米,临漳县,邯郸市,114.597029,36.173609,爱玛电动车,河北省
325省道南50米,平乡县,邢台市,114.927806,37.068537,爱玛电动车,河北省
新兴街与308国道交叉口西南50米,新河县,邢台市,115.242473,37.522972,爱玛电动车,河北省
兴华北路197号,辛集市,石家庄市,115.216121,37.930007,爱玛电动车,河北省
326省道北50米,平乡县,邢台市,115.051792,36.979100,爱玛电动车,河北省
江苏中路001号靠近天天幼儿园,山海关区,秦皇岛市,119.807326,39.995902,爱玛电动车,河北省
036省道北50米,永年区,邯郸市,114.741249,36.718480,爱玛电动车,河北省
201县道东50米,邱县,邯郸市,115.165198,36.766874,爱玛电动车,河北省
柏枝寺村北路东,鸡泽县,邯郸市,114.790274,36.899514,爱玛电动车,河北省
杜村集乡杜村,临漳县,邯郸市,114.523876,36.273428,爱玛电动车,河北省
城垣西路75号附近,河间市,沧州市,116.079649,38.444032,爱玛电动车,河北省
104国道意明商场南,青县,沧州市,116.834435,38.579644,爱玛电动车,河北省
334省道北50米,安新县,保定市,115.747375,38.843483,爱玛电动车,河北省
东安路60号附近,清苑区,保定市,115.675065,38.830895,爱玛电动车,河北省
106国道与661乡道交叉口北200米,威县,邢台市,115.280575,36.890178,爱玛电动车,河北省
292乡道北200米,迁安市,唐山市,118.523875,40.006738,爱玛电动车,河北省
无,鸡泽县,邯郸市,114.772888,36.854148,爱玛电动车,河北省
辛店镇小李庄路对面附近,孟村回族自治县,沧州市,117.145162,38.114950,爱玛电动车,河北省
金河路北150米,鹿泉区,石家庄市,114.424930,37.983691,爱玛电动车,河北省
312省道南50米,武安市,邯郸市,114.018940,36.793976,爱玛电动车,河北省
平山镇金圆特市西院南口,平山县,石家庄市,114.204811,38.256966,爱玛电动车,河北省
X760(大石线),大城县,廊坊市,116.404739,38.638701,爱玛电动车,河北省
263省道西50米,丰南区,唐山市,118.337786,39.421662,爱玛电动车,河北省
牌坊路与贸易街交叉口西南150米,涉县,邯郸市,113.667955,36.559735,爱玛电动车,河北省
迎宾中街270号附近,清苑区,保定市,115.495747,38.765167,爱玛电动车,河北省
东一高线西50米,高碑店市,保定市,116.080907,39.268007,爱玛电动车,河北省
康东村,武安市,邯郸市,114.235120,36.720994,爱玛电动车,河北省
台营镇三抚线诚信手机卖场西100米,抚宁区,秦皇岛市,119.211010,40.028300,爱玛电动车,河北省
魏杜线与212省道交叉口西南100米,临漳县,邯郸市,114.616423,36.264498,爱玛电动车,河北省
邯大公路南200米附近,魏县,邯郸市,115.033550,36.325427,爱玛电动车,河北省
073乡道与102国道交叉口东150米,抚宁区,秦皇岛市,119.130657,39.910870,爱玛电动车,河北省
从峰线134号,磁县,邯郸市,114.221279,36.286650,爱玛电动车,河北省
从峰线南50米,大名县,邯郸市,115.357679,36.281723,爱玛电动车,河北省
G106(京广线),大名县,邯郸市,115.311695,36.348200,爱玛电动车,河北省
685县道东50米,昌黎县,秦皇岛市,118.883918,39.647696,爱玛电动车,河北省
京都街与园区街交叉口西北50米,涿州市,保定市,115.852185,39.475987,爱玛电动车,河北省
080乡道北50米,馆陶县,邯郸市,115.197204,36.515630,爱玛电动车,河北省
075乡道东50米,乐亭县,唐山市,118.802003,39.259903,爱玛电动车,河北省
尹村镇327省道百世汇通旁,隆尧县,邢台市,114.572106,37.390353,爱玛电动车,河北省
安头屯镇香北线未来之星幼儿园,香河县,廊坊市,117.084599,39.717196,爱玛电动车,河北省
021乡道北50米,任丘市,沧州市,116.204250,38.661679,爱玛电动车,河北省
金店镇金官线蓓蕾幼儿园西150米,内丘县,邢台市,114.580840,37.278894,爱玛电动车,河北省
西半屯镇瓦子庄邮政所旁,故城县,衡水市,115.813219,37.214647,爱玛电动车,河北省
383省道码头镇政府东200米,阜城县,衡水市,116.503890,37.896234,爱玛电动车,河北省
通源西路9号附近,魏县,邯郸市,114.978292,36.227696,爱玛电动车,河北省
第五高级中学,曲阳县,保定市,114.812016,38.555679,爱玛电动车,河北省
234省道东50米,肥乡区,邯郸市,114.954906,36.559925,爱玛电动车,河北省
141乡道与315省道交叉口西150米,邯山区,邯郸市,114.475080,36.462482,爱玛电动车,河北省
光明西街与工农路交叉口东南100米,安国市,保定市,115.321570,38.415247,爱玛电动车,河北省
393省道与903县道交叉口南150米,冀州区,衡水市,115.333774,37.597637,爱玛电动车,河北省
759乡道与763乡道交叉口东50米,安平县,衡水市,115.425750,38.318953,爱玛电动车,河北省
藁城区234省道西50米,藁城区,石家庄市,114.959002,37.965013,爱玛电动车,河北省
涿州市政府街,涿州市,保定市,115.967126,39.389723,爱玛电动车,河北省
X502(宁石线),围场满族蒙古族自治县,承德市,117.830891,41.808787,爱玛电动车,河北省
213乡道南50米,蔚县,张家口市,114.873407,39.957532,爱玛电动车,河北省
161乡道与233省道交叉口南100米,冀州区,衡水市,115.247289,37.624957,爱玛电动车,河北省
393省道北50米,宁晋县,邢台市,114.831617,37.596680,爱玛电动车,河北省
青塔路与201省道交叉口南100米,灵寿县,石家庄市,114.353735,38.383131,爱玛电动车,河北省
景安大街233号,景县,衡水市,116.271212,37.691947,爱玛电动车,河北省
王官营镇碾唐线中国邮政北50米,丰润区,唐山市,118.265731,39.913521,爱玛电动车,河北省
希望路188号,曹妃甸区,唐山市,118.210549,39.237469,爱玛电动车,河北省
复兴路131号附近,徐水区,保定市,115.442821,39.061313,爱玛电动车,河北省
无,饶阳县,衡水市,115.836146,38.176401,爱玛电动车,河北省
福田街南50米,迁安市,唐山市,118.800604,40.145614,爱玛电动车,河北省
261省道东50米,昌黎县,秦皇岛市,119.148200,39.613392,爱玛电动车,河北省
宫里鑫圣大药房东南60米(遵宝线),遵化市,唐山市,117.850889,40.011132,爱玛电动车,河北省
振兴街南50米,迁安市,唐山市,118.589243,39.865877,爱玛电动车,河北省
红旗北大街842号附近,元氏县,石家庄市,114.472835,37.877660,爱玛电动车,河北省
093乡道与214省道交叉口南200米,鸡泽县,邯郸市,114.883273,36.794755,爱玛电动车,河北省
185乡道东50米,古冶区,唐山市,118.374283,39.731657,爱玛电动车,河北省
北环路与龙兴路交叉口西100米,迁西县,唐山市,118.326838,40.151138,爱玛电动车,河北省
100乡道东50米,滦南县,唐山市,118.713211,39.595708,爱玛电动车,河北省
205国道北50米,滦州市,唐山市,118.595064,39.756795,爱玛电动车,河北省
东海路与富民大街交叉口西南150米,黄骅市,沧州市,117.622791,38.489022,爱玛电动车,河北省
三港湾村小学西350米,迁安市,唐山市,118.656070,39.929056,爱玛电动车,河北省
农商银行南堡开发区老王庄分理处,曹妃甸区,唐山市,118.241644,39.279477,爱玛电动车,河北省
252县道西100米,南宫市,邢台市,115.573924,37.209622,爱玛电动车,河北省
人民西路100号附近,鸡泽县,邯郸市,114.872775,36.909803,爱玛电动车,河北省
竞秀区贤台乡高开区贤台乡西贤台村-原贤台面粉厂南行100米路西,竞秀区,保定市,115.442991,38.967852,爱玛电动车,河北省
古兴街西50米,涿州市,保定市,116.040777,39.389394,爱玛电动车,河北省
112国道北50米,滦平县,承德市,117.493515,40.986568,爱玛电动车,河北省
野兴线东50米,迁安市,唐山市,118.642793,39.908990,爱玛电动车,河北省
大营路与308国道交叉口西北150米,栾城区,石家庄市,114.596365,37.947011,爱玛电动车,河北省
吕钱路北50米,古冶区,唐山市,118.418403,39.673432,爱玛电动车,河北省
安平镇丝网街227号,安平县,衡水市,115.507596,38.231490,爱玛电动车,河北省
336省道南韩村镇第一中学东南,满城区,保定市,115.301933,38.870603,爱玛电动车,河北省
天王公路附近,辛集市,石家庄市,115.402822,38.043380,爱玛电动车,河北省
永利家电东50米(中心街北),雄县,保定市,116.203939,39.050809,爱玛电动车,河北省
107国道西50米,邯山区,邯郸市,114.357961,36.424377,爱玛电动车,河北省
107国道东50米,邯山区,邯郸市,114.432202,36.476959,爱玛电动车,河北省
145乡道北50米,邯山区,邯郸市,114.426963,36.421230,爱玛电动车,河北省
无,魏县,邯郸市,114.827737,36.192457,爱玛电动车,河北省
永禄大街18号附近(顺平县征途单车俱乐部东),顺平县,保定市,115.136562,38.845296,爱玛电动车,河北省
中兴街与煎台路交叉口东南50米,霸州市,廊坊市,116.523409,39.109651,爱玛电动车,河北省
府前东大街14号,三河市,廊坊市,117.088241,39.933860,爱玛电动车,河北省
312省道南50米,武安市,邯郸市,114.021475,36.792808,爱玛电动车,河北省
258乡道与271乡道交叉口东100米,阳原县,张家口市,114.019228,40.046650,爱玛电动车,河北省
彭李线549号附近,迁安市,唐山市,118.576389,40.009297,爱玛电动车,河北省
中昌街与381省道交叉口西北50米,青县,沧州市,116.853970,38.690262,爱玛电动车,河北省
光明道与106国道交叉口西北150米,霸州市,廊坊市,116.374076,39.183682,爱玛电动车,河北省
112国道南150米,雄县,保定市,116.204593,39.140251,爱玛电动车,河北省
莲池区天威东路与富阳东街交叉口东150米,莲池区,保定市,115.558962,38.844988,爱玛电动车,河北省
333省道北50米,徐水区,保定市,115.592596,39.033834,爱玛电动车,河北省
282省道西50米,南宫市,邢台市,115.692930,37.238282,爱玛电动车,河北省
283省道西50米,盐山县,沧州市,117.141042,37.858046,爱玛电动车,河北省
文明路北50米,隆尧县,邢台市,114.783770,37.461287,爱玛电动车,河北省
902乡道与L25省道交叉口北150米,大城县,廊坊市,116.510893,38.563696,爱玛电动车,河北省
南大街1号,安新县,保定市,115.931955,38.920968,爱玛电动车,河北省
龙湾镇集口北行50米路东,雄县,保定市,116.263748,38.964995,爱玛电动车,河北省
纬四街与经二路交叉口东南100米,宁晋县,邢台市,114.938271,37.529690,爱玛电动车,河北省
廊霸线西50米,安次区,廊坊市,116.683300,39.469951,爱玛电动车,河北省
天雄路中国邮政储蓄银行东侧70米,大名县,邯郸市,115.152699,36.292147,爱玛电动车,河北省
106国道东50米,威县,邢台市,115.340207,37.163989,爱玛电动车,河北省
115乡道南50米,永年区,邯郸市,114.715762,36.770466,爱玛电动车,河北省
沙束路与331省道交叉口东100米,河间市,沧州市,116.325217,38.392311,爱玛电动车,河北省
保大北路与新开东街交叉口东50米,武强县,衡水市,115.968772,38.038949,爱玛电动车,河北省
镇宁路164号,鹿泉区,石家庄市,114.322784,38.088212,爱玛电动车,河北省
东固路与302省道交叉口东150米,泊头市,沧州市,116.293476,38.024600,爱玛电动车,河北省
从峰线北50米,磁县,邯郸市,114.284990,36.279138,爱玛电动车,河北省
新马头镇建设街,邱县,邯郸市,115.169969,36.816192,爱玛电动车,河北省
383省道北50米,南皮县,沧州市,116.991494,37.869833,爱玛电动车,河北省
商贸街与段杨路交叉口东北角,乐亭县,唐山市,119.032970,39.396263,爱玛电动车,河北省
牌坊路与龙山大街交叉口西北150米,涉县,邯郸市,113.670575,36.559545,爱玛电动车,河北省
中山大街南50米,乐亭县,唐山市,118.990973,39.233105,爱玛电动车,河北省
齐心庄商业街,三河市,廊坊市,116.944721,39.983306,爱玛电动车,河北省
151县道与201县道交叉口东150米,曲周县,邯郸市,115.124745,36.638879,爱玛电动车,河北省
邯馆公路北100米,肥乡区,邯郸市,114.667760,36.579033,爱玛电动车,河北省
竞秀区隆兴西路3980号附近,竞秀区,保定市,115.394930,38.923183,爱玛电动车,河北省
工业路与昌盛街交叉口,藁城区,石家庄市,114.730988,37.961919,爱玛电动车,河北省
东沽港镇得胜口村,安次区,廊坊市,116.838541,39.169230,爱玛电动车,河北省
东安街附近,巨鹿县,邢台市,115.050715,37.230664,爱玛电动车,河北省
邯大公路西50米,邯山区,邯郸市,114.583194,36.520973,爱玛电动车,河北省
赵辛线,柏乡县,邢台市,114.735528,37.599993,爱玛电动车,河北省
392省道西50米,深州市,衡水市,115.389052,37.827983,爱玛电动车,河北省
054乡道东200米,抚宁区,秦皇岛市,119.357044,39.907633,爱玛电动车,河北省
755县道南50米,固安县,廊坊市,116.327316,39.349589,爱玛电动车,河北省
大石线东50米,任丘市,沧州市,116.158230,38.614403,爱玛电动车,河北省
龙泉东大街1228号,邢台县,邢台市,114.561319,37.040121,爱玛电动车,河北省
津同公路与112国道交叉口南50米,霸州市,廊坊市,116.727825,39.141945,爱玛电动车,河北省
382省道南50米,肃宁县,沧州市,115.973807,38.423691,爱玛电动车,河北省
大张村红绿灯西50米路南,永年区,邯郸市,114.677094,36.721691,爱玛电动车,河北省
繁荣路与031乡道交叉口东南150米,丰宁满族自治县,承德市,116.681019,41.460660,爱玛电动车,河北省
向阳路与辛胜道交叉口西北50米,霸州市,廊坊市,116.784893,39.085244,爱玛电动车,河北省
创业路西50米,易县,保定市,115.450263,39.230145,爱玛电动车,河北省
佳航电子城(万辛公路东),蠡县,保定市,115.649603,38.560313,爱玛电动车,河北省
汉阳街大因镇政府西北150米,徐水区,保定市,115.708986,38.937914,爱玛电动车,河北省
358省道南50米,兴隆县,承德市,118.012732,40.605740,爱玛电动车,河北省
316省道南50米,磁县,邯郸市,114.286191,36.390543,爱玛电动车,河北省
315省道南50米,成安县,邯郸市,114.619707,36.447088,爱玛电动车,河北省
保新路与南大街交叉口东50米,安新县,保定市,115.822756,38.867258,爱玛电动车,河北省
北晋庄村附近,高阳县,保定市,115.673397,38.707369,爱玛电动车,河北省
南林大街北50米,徐水区,保定市,115.665524,39.094671,爱玛电动车,河北省
333省道东150米,满城区,保定市,115.363410,39.012490,爱玛电动车,河北省
106县道南50米,曲周县,邯郸市,115.026106,36.720219,爱玛电动车,河北省
201县道东50米,广平县,邯郸市,115.072968,36.555223,爱玛电动车,河北省
满城区满城区剧场西50米路南,满城区,保定市,115.396707,38.953483,爱玛电动车,河北省
红星路与234省道交叉口东150米,藁城区,石家庄市,114.955173,38.057079,爱玛电动车,河北省
中山路与幸福街交叉口东150米,定州市,保定市,114.950389,38.656409,爱玛电动车,河北省
邢峰公路西50米,武安市,邯郸市,114.099922,36.593855,爱玛电动车,河北省
261省道与L83省道交叉口南100米,昌黎县,秦皇岛市,119.159411,39.530006,爱玛电动车,河北省
106国道与215省道交叉口东北200米,大名县,邯郸市,115.225225,36.200579,爱玛电动车,河北省
234省道与326省道交叉口西150米,平乡县,邢台市,115.006283,36.975668,爱玛电动车,河北省
德源路与754县道交叉口东100米,广阳区,廊坊市,116.484237,39.503922,爱玛电动车,河北省
385省道北50米温城中学附近,景县,衡水市,116.128178,37.714125,爱玛电动车,河北省
漕河镇政府(东大街北),徐水区,保定市,115.566700,38.951041,爱玛电动车,河北省
向阳商业街122号附近,涿州市,保定市,116.052493,39.545264,爱玛电动车,河北省
永清镇益昌南路93号,永清县,廊坊市,116.497636,39.312723,爱玛电动车,河北省
华实路与金鹰街交叉口西南50米,容城县,保定市,115.980409,39.032543,爱玛电动车,河北省
内大孟村镇工人村西500米,内丘县,邢台市,114.469414,37.227269,爱玛电动车,河北省
花园步行街与鼓山南街交叉口西100米,峰峰矿区,邯郸市,114.207577,36.423089,爱玛电动车,河北省
中兴路与育红中街交叉口东50米,宁晋县,邢台市,115.120341,37.793721,爱玛电动车,河北省
西曾线与263省道交叉口西北100米,曹妃甸区,唐山市,118.417792,39.377812,爱玛电动车,河北省
神星村惠阳大桥对面,满城区,保定市,115.288086,39.040133,爱玛电动车,河北省
洪火线西50米,遵化市,唐山市,118.141915,40.115785,爱玛电动车,河北省
109乡道南50米,大名县,邯郸市,115.185483,36.439657,爱玛电动车,河北省
杨桥镇西环路,大名县,邯郸市,115.107615,36.429118,爱玛电动车,河北省
北关大街与013县道交叉口东北50米,井陉县,石家庄市,114.028923,38.003094,爱玛电动车,河北省
平安街东200米,魏县,邯郸市,114.958513,36.311632,爱玛电动车,河北省
东良乡周村育才路中国邮政东北150米,隆尧县,邢台市,114.652225,37.313406,爱玛电动车,河北省
112国道北50米,高碑店市,保定市,116.043168,39.182845,爱玛电动车,河北省
温留路与302乡道交叉口西50米,清苑区,保定市,115.506654,38.586093,爱玛电动车,河北省
356省道南50米,遵化市,唐山市,118.112303,40.190317,爱玛电动车,河北省
212省道南50米,临漳县,邯郸市,114.590849,36.171775,爱玛电动车,河北省
李村镇石清路精华百货商场东200米,鹿泉区,石家庄市,114.346964,38.197289,爱玛电动车,河北省
卢昌线西50米,卢龙县,秦皇岛市,119.030808,39.812356,爱玛电动车,河北省
丰州镇中华路中段新天地购物对面,平乡县,邢台市,115.087701,37.059750,爱玛电动车,河北省
鸦鸿桥蓝天小区A区东北(政法路东),玉田县,唐山市,117.863870,39.752432,爱玛电动车,河北省
临泉路与251县道交叉口南150米,临城县,邢台市,114.504518,37.439604,爱玛电动车,河北省
089乡道南50米,定州市,保定市,114.897712,38.451715,爱玛电动车,河北省
定安路与382省道交汇处南100米,定州市,保定市,115.135054,38.478783,爱玛电动车,河北省
300乡道西100米,迁安市,唐山市,118.654568,40.187792,爱玛电动车,河北省
322省道北50米,邢台县,邢台市,114.035810,37.224997,爱玛电动车,河北省
京白路与新兴路交叉口南200米,高碑店市,保定市,115.992043,39.323136,爱玛电动车,河北省
迁徐线东50米,迁安市,唐山市,118.772455,40.047801,爱玛电动车,河北省
272省道东50米,大城县,廊坊市,116.597997,38.515149,爱玛电动车,河北省
新开路与采留线交叉口东南150米,霸州市,廊坊市,116.493446,39.039044,爱玛电动车,河北省
平安大街与廊大路交叉口北100米,文安县,廊坊市,116.692395,38.990243,爱玛电动车,河北省
刘霍线南50米,固安县,廊坊市,116.343646,39.263391,爱玛电动车,河北省
第二大街与106国道交叉口东北100米,文安县,廊坊市,116.370639,39.002585,爱玛电动车,河北省
兴祖线与大河路交叉口北100米,文安县,廊坊市,116.333509,38.848930,爱玛电动车,河北省
385省道北50米,吴桥县,沧州市,116.595261,37.627017,爱玛电动车,河北省
保沧路108号附近,高阳县,保定市,115.872553,38.606495,爱玛电动车,河北省
农贸路与集英西街交叉口东100米,高阳县,保定市,115.951736,38.642815,爱玛电动车,河北省
287乡道与288乡道交叉口西50米,迁安市,唐山市,118.811388,39.975229,爱玛电动车,河北省
无,沧县,沧州市,116.976551,38.120792,爱玛电动车,河北省
郑口镇中华街县医院红绿灯北300米路西,故城县,衡水市,115.972271,37.350666,爱玛电动车,河北省
145乡道与156县道交叉口东150米,复兴区,邯郸市,114.317428,36.482967,爱玛电动车,河北省
312省道附近,武安市,邯郸市,114.125488,36.732979,爱玛电动车,河北省
大河路与004乡道交叉口东50米,任丘市,沧州市,116.281422,38.761369,爱玛电动车,河北省
无,迁安市,唐山市,118.582653,39.995035,爱玛电动车,河北省
001乡道东50米,任丘市,沧州市,116.377897,38.722150,爱玛电动车,河北省
邯馆公路南50米,邯山区,邯郸市,114.599574,36.585445,爱玛电动车,河北省
张家路与167乡道交叉口北150米,曲阳县,保定市,114.751012,38.577062,爱玛电动车,河北省
324省道北50米,南宫市,邢台市,115.575516,37.307285,爱玛电动车,河北省
207国道东50米,阜平县,保定市,114.327447,38.904285,爱玛电动车,河北省
102国道西50米,丰润区,唐山市,118.070798,39.855453,爱玛电动车,河北省
圣佛镇朱院村,盐山县,沧州市,117.076766,37.912162,爱玛电动车,河北省
385省道北50米,吴桥县,沧州市,116.511555,37.610411,爱玛电动车,河北省
燕赵大街与167乡道交叉口南150米,曲阳县,保定市,114.814219,38.554753,爱玛电动车,河北省
万金路与109乡道交叉口东北100米,大名县,邯郸市,115.179932,36.386797,爱玛电动车,河北省
115乡道,永年区,邯郸市,114.628140,36.780319,爱玛电动车,河北省
西二环开泰街保龙仓北行500米路东,桥西区,石家庄市,114.432294,38.058863,爱玛电动车,河北省
325省道北50米,南和县,邢台市,114.828155,37.071268,爱玛电动车,河北省
214省道东150米,鸡泽县,邯郸市,114.887817,36.844831,爱玛电动车,河北省
步行街,峰峰矿区,邯郸市,114.114281,36.541949,爱玛电动车,河北省
309国道北50米,武安市,邯郸市,114.032303,36.631784,爱玛电动车,河北省
于唐线附近(大齐各庄镇人民政府东200米),丰南区,唐山市,118.291404,39.561765,爱玛电动车,河北省
临漳镇南二环王禅东路19号(江春苑附近),临漳县,邯郸市,114.616658,36.331221,爱玛电动车,河北省
滨河西路与鹰城大街交叉口东50米,鹰手营子矿区,承德市,117.651040,40.546300,爱玛电动车,河北省
112国道南50米,丰宁满族自治县,承德市,117.334114,41.098999,爱玛电动车,河北省
玉兰东路北50米,临西县,邢台市,115.500799,36.860010,爱玛电动车,河北省
302省道北50米,正定县,石家庄市,114.670180,38.156290,爱玛电动车,河北省
开放路43号附近,蠡县,保定市,115.693971,38.574597,爱玛电动车,河北省
302省道北50米,泊头市,沧州市,116.151311,38.027954,爱玛电动车,河北省
政大路与809县道交叉口东50米,故城县,衡水市,115.872479,37.159116,爱玛电动车,河北省
建设路南50米,蠡县,保定市,115.753602,38.544713,爱玛电动车,河北省
蠡吾镇蠡吾大街,蠡县,保定市,115.581180,38.489966,爱玛电动车,河北省
北南蔡乡,定兴县,保定市,115.910385,39.120891,爱玛电动车,河北省
340乡道南50米,武邑县,衡水市,115.955101,37.932937,爱玛电动车,河北省
富强路与701乡道交叉口西北100米,无极县,石家庄市,115.093965,38.232986,爱玛电动车,河北省
藁城区006县道与204省道交叉口东150米,藁城区,石家庄市,114.752674,38.290621,爱玛电动车,河北省
新华西街14号,大城县,廊坊市,116.636858,38.693907,爱玛电动车,河北省
吉祥街与平安路交叉口北50米,易县,保定市,115.374708,39.195921,爱玛电动车,河北省
054县道西50米,无极县,石家庄市,114.872414,38.218283,爱玛电动车,河北省
人民东路与长春大道南段交叉口东150米,广平县,邯郸市,114.957412,36.481083,爱玛电动车,河北省
302省道南50米,南皮县,沧州市,116.811905,38.008260,爱玛电动车,河北省
106国道西50米,任丘市,沧州市,116.123620,38.789101,爱玛电动车,河北省
李杜线南50米,青县,沧州市,116.785065,38.435298,爱玛电动车,河北省
商贸北路与永信线交叉口西50米,永清县,廊坊市,116.725000,39.204933,爱玛电动车,河北省
码杨线西50米,安次区,廊坊市,116.833762,39.249694,爱玛电动车,河北省
北肃献路西城乡政府附近,献县,沧州市,116.200940,38.330109,爱玛电动车,河北省
皇庄大街138号,三河市,廊坊市,117.082163,39.885343,爱玛电动车,河北省
东关街83号附近,赤城县,张家口市,115.580957,40.782549,爱玛电动车,河北省
204县道与253县道交叉口东150米,任县,邢台市,114.884468,37.134919,爱玛电动车,河北省
新华路500号,隆尧县,邢台市,114.776459,37.352677,爱玛电动车,河北省
移动公司南行路东,清河县,邢台市,115.648023,37.064036,爱玛电动车,河北省
长安路与长泰街交叉口西200米,滦南县,唐山市,118.797550,39.582450,爱玛电动车,河北省
秦泽西路,巨鹿县,邢台市,115.035471,37.212285,爱玛电动车,河北省
丰州镇中华路中段新天地购物对面,平乡县,邢台市,115.032138,37.063191,爱玛电动车,河北省
282省道与609乡道交叉口东100米,饶阳县,衡水市,115.829820,38.310257,爱玛电动车,河北省
芳津道269-1北60米,霸州市,廊坊市,116.701582,39.069222,爱玛电动车,河北省
盛君宾馆西80米(刘宋东桥东北),香河县,廊坊市,117.140236,39.671506,爱玛电动车,河北省
新兴路326,霸州市,廊坊市,116.646665,39.144801,爱玛电动车,河北省
文安镇兴文道167号,文安县,廊坊市,116.469014,38.866235,爱玛电动车,河北省
西关街小学附近,张北县,张家口市,114.711204,41.158519,爱玛电动车,河北省
蠡吾北大街312号,蠡县,保定市,115.583095,38.503398,爱玛电动车,河北省
财旺路北50米,定兴县,保定市,115.621552,39.177958,爱玛电动车,河北省
遂城镇广门营易保线曲城加油站北50米,徐水区,保定市,115.506020,39.078594,爱玛电动车,河北省
112国道北50米,易县,保定市,115.563545,39.355630,爱玛电动车,河北省
332省道东50米,满城区,保定市,115.223075,38.970328,爱玛电动车,河北省
009县道东50米,行唐县,石家庄市,114.518392,38.515913,爱玛电动车,河北省
南迎宾大道与贞元路交叉口北200米,邯山区,邯郸市,114.520343,36.573725,爱玛电动车,河北省
212省道与315省道交叉口西北100米,成安县,邯郸市,114.551304,36.450376,爱玛电动车,河北省
313省道附近,大名县,邯郸市,115.414382,36.226387,爱玛电动车,河北省
中鑫路与北河车站街交叉口北100米,定兴县,保定市,115.763999,39.212376,爱玛电动车,河北省
和平西路29号,新华区,石家庄市,114.491258,38.055146,爱玛电动车(和平西路),河北省
燕郊经济技术开发区神威北路燕顺市场,三河市,廊坊市,116.780035,39.971024,爱玛电动车(神威北路),河北省
槐安东路1号,桥西区,石家庄市,114.494746,38.023520,爱玛电动车(槐安东路),河北省
天鹅中路与廉良街交叉口西北100米,竞秀区,保定市,115.485308,38.890782,爱玛电动车(天鹅中路),河北省
爱民东道与银河北路交叉口东南角,广阳区,廊坊市,116.699913,39.526535,爱玛电动车(爱民东道店),河北省
解放东路附近,新华区,沧州市,116.863069,38.305808,爱玛电动车(沧州旗舰店),河北省
燕郊经济技术开发区行宫西大街268号,三河市,廊坊市,116.804215,39.947992,爱玛电动车(行宫西大街店),河北省
天山大街海世界北行300米中国移动西侧,裕华区,石家庄市,114.607483,38.042875,爱玛电动车(海世界店),河北省
东兴南大街与光明中路交叉口西北50米,南皮县,沧州市,116.711228,38.039337,爱玛电动车(东兴南大街店),河北省
人民路与前进大街交叉口北行100米路西,复兴区,邯郸市,114.447170,36.615121,爱玛电动车(前进大街店),河北省
方村汇鑫路佳琳花园旁(晶彩苑西100米),裕华区,石家庄市,114.552443,37.981034,爱玛电动车(万福家园东南),河北省
s365黄金海岸橙子酒店西南60米,昌黎县,秦皇岛市,119.261853,39.684271,爱玛电动车(小蒲河店),河北省
富民大街87,高碑店市,保定市,116.035135,39.110673,爱玛电动车(富民大街店),河北省
乐凯北大街与盛兴西路交叉口西100米,竞秀区,保定市,115.449107,38.885097,爱玛电动车(乐凯北大街),河北省
供销大厦电器商场1楼,滦南县,唐山市,118.684381,39.506367,爱玛电动车(鑫利路店),河北省
七一西路602号,竞秀区,保定市,115.455087,38.881736,爱玛电动车(七一西路),河北省
仁和路与团结胡同交叉口北150米,涿州市,保定市,115.972203,39.483362,爱玛电动车(涿州旗舰店),河北省
中华南大街253号11中南邻(海悦天地斜对面),桥西区,石家庄市,114.477703,38.032472,爱玛电动车(中华南大街店),河北省
韩城阳光超市东200米,丰润区,唐山市,118.052534,39.637100,爱玛电动车(韩城镇中心卫生院西南),河北省
沙城镇永安西街与长城北路交叉路口东南100米百合水晶城小区底商爱玛专卖店,怀来县,张家口市,115.519824,40.410734,爱玛电动车(沙城专卖店),河北省
商贸路7号,新华区,石家庄市,114.473083,38.112308,爱玛电动车(南高基专卖店),河北省
鲍墟镇东五夫村,蠡县,保定市,115.727714,38.496949,爱玛电动车(康攀车行),河北省
营儿村高赞路口北行,高邑县,石家庄市,114.536697,37.614982,爱玛电动车(富村营儿店),河北省
岗上镇岗上村富强大街024号,藁城区,石家庄市,114.696638,38.040294,爱玛电动车(富强大街店),河北省
中华北大街338号上林华苑1-103,新华区,石家庄市,114.475470,38.092183,爱玛电动车(新范路专卖店),河北省
039省道与261乡道交叉口西南150米,晋州市,石家庄市,115.162228,38.117784,爱玛电动车(田村旗舰店),河北省
234省道东50米,无极县,石家庄市,114.961879,38.155186,爱玛电动车(柴城店),河北省
309国道北50米,武安市,邯郸市,114.108960,36.650744,爱玛电动车,河北省
何桥路与331省道交叉口东南200米,清苑区,保定市,115.630318,38.760706,爱玛电动车,河北省
燕辛线与102国道交叉口北50米,卢龙县,秦皇岛市,119.058456,39.903420,爱玛电动车,河北省
281省道附近,景县,衡水市,116.268873,37.535791,爱玛电动车(宝军专卖店),河北省
112乡道西阳城新后街西头路南,永年区,邯郸市,114.439354,36.831980,爱玛电动车(西阳城专卖店),河北省
宫村大街91号附近,固安县,廊坊市,116.175792,39.470179,爱玛电动车(宫村大街店),河北省
205县道北50米,沙河市,邢台市,114.346019,36.957651,爱玛电动车(十里亭专卖店),河北省
202省道与206县道交叉口北50米,涉县,邯郸市,113.834819,36.422262,爱玛电动车(西达二明专卖店),河北省
赵庄村,临城县,邢台市,114.215630,37.395003,爱玛电动车(赵庄专卖店),河北省
华阳东路与新中路交叉口南150米,涿州市,保定市,116.083530,39.497033,爱玛电动车(华阳东路),河北省
仁和路与团结胡同交叉口东50米,涿州市,保定市,115.972257,39.482481,爱玛电动车(仁和路),河北省
亿家通讯东南50米(经贸路东),枣强县,衡水市,115.732916,37.315594,爱玛电动车(大营店),河北省
向阳南大街与滨河路交叉口东北50米,唐县,保定市,114.980650,38.747418,爱玛电动车(向阳南大街店),河北省
顺兴中路3号附近,顺平县,保定市,115.133550,38.837814,爱玛电动车(顺兴中路),河北省
110国道北50米,万全区,张家口市,114.557348,40.718438,爱玛电动车(花园小区西),河北省
涞源镇广昌大街城管派出所南200米路东,涞源县,保定市,114.691704,39.348962,爱玛电动车(丛祥小区西),河北省
桃园镇北部时光小区东行20米,长安区,石家庄市,114.511613,38.092881,爱玛电动车(时光小区店),河北省
无极路48号(无极县调味品管理办公室南),无极县,石家庄市,114.972207,38.177482,爱玛电动车(无极县调味品管理办公室南),河北省
藁城区廉州镇胜利路023号,藁城区,石家庄市,114.846400,38.031593,爱玛电动车(胜利西路),河北省
廉州镇新华街038号,藁城区,石家庄市,114.844274,38.032624,爱玛电动车(藁城市工业和信息化局西北),河北省
常山东路1号瑞天大厦二分店1层,正定县,石家庄市,114.571660,38.145849,爱玛电动车(瑞天大厦2分店店),河北省
昌盛大街黄土庄镇综合文体活动中心旁,三河市,廊坊市,117.120162,39.994125,爱玛电动车(黄土庄专卖店),河北省
244乡道与356县道交叉口西北50米,安新县,保定市,115.847010,38.971937,爱玛电动车(金彭电动三轮车三台店),河北省
新华路124号,馆陶县,邯郸市,115.287831,36.544201,爱玛电动车(新华路店),河北省
竞秀区西二环与隆兴西路交叉口东100米,竞秀区,保定市,115.405846,38.916008,爱玛电动车(隆兴西路),河北省
南海西路26-10号,山海关区,秦皇岛市,119.761102,39.998411,爱玛电动车(站西街),河北省
新城铺镇机场路京江购物广场北150米,正定县,石家庄市,114.685720,38.259706,爱玛电动车(机场路店),河北省
178乡道与184乡道交叉口西北50米,滦州市,唐山市,118.714394,39.842358,爱玛电动车(樊各庄专卖店),河北省
亮甲店十字路口东150米路南,玉田县,唐山市,117.884544,39.874693,爱玛电动车(亮甲店专卖),河北省
竞秀区天威西路与石庄中心街交叉口东北100米,竞秀区,保定市,115.351991,38.865358,爱玛电动车(石庄中心街),河北省
杨各庄西引线大街南50米,定兴县,保定市,115.857821,39.237246,爱玛电动车(中共李郁庄乡委员会西),河北省
龙州镇香港路121号,行唐县,石家庄市,114.563056,38.441505,爱玛电动车(香港路),河北省
凤中路西段路南,高邑县,石家庄市,114.603727,37.604799,爱玛电动车(高邑县专卖店),河北省
固雄线西50米,固安县,廊坊市,116.262743,39.189013,爱玛电动车(河北省第306店),河北省
253省道东50米,承德县,承德市,118.033989,41.248138,爱玛电动车(岗子专卖),河北省
079乡道与112国道交叉口东南100米,兴隆县,承德市,117.935568,40.306370,爱玛电动车(079乡道),河北省
肖营子镇C159真心购物商城南150米,青龙满族自治县,秦皇岛市,118.858219,40.271134,爱玛电动车(肖营子专卖店),河北省
永安大街43-7号,深州市,衡水市,115.549818,38.009144,爱玛电动车(深州总代理),河北省
104国道西50米,吴桥县,沧州市,116.402185,37.695279,爱玛电动车(旭德三轮车),河北省
兴盛街与海政路路口南侧,海兴县,沧州市,117.501277,38.142164,爱玛电动车(海兴县忠盛专卖店),河北省
古范路西50米,古冶区,唐山市,118.437725,39.705757,爱玛电动车(福田七星三轮车),河北省
229乡道西50米,蔚县,张家口市,114.766762,39.952565,爱玛电动车(小鸟电动车西合营专卖店),河北省
栗乡街道喜峰中路骏安2号小区附近,迁西县,唐山市,118.305891,40.150062,爱玛电动车(喜峰中路),河北省
水源街与永泰街交叉口西50米,新华区,石家庄市,114.466135,38.054368,爱玛电动车(水源街),河北省
玉兰大街与裕华东路交叉口西南50米,莲池区,保定市,115.528023,38.852706,爱玛电动车(玉兰大街),河北省
522县道南50米,遵化市,唐山市,117.703823,40.190335,爱玛电动车(马兰峪金生专卖店),河北省
蟠龙路与槐阳大街交口西行100米路南,元氏县,石家庄市,114.534629,37.758491,爱玛电动车(蟠龙路),河北省
商贸北街与402乡道交叉口东150米,宁晋县,邢台市,115.118705,37.605192,爱玛电动车(市场街),河北省
文兴路与横涧南街交叉口北100米,井陉矿区,石家庄市,114.064796,38.062075,爱玛电动车(横涧南街店),河北省
栾城区新开大街88号,栾城区,石家庄市,114.656232,37.882152,爱玛电动车(旗舰店),河北省
富康东路与正阳北大街交叉口西150米,藁城区,石家庄市,114.669294,37.998372,爱玛电动车(富康西路店),河北省
胜利北街267号,长安区,石家庄市,114.514848,38.078553,爱玛电动车(胜利北街),河北省
豪门路南50米,玉田县,唐山市,117.666820,39.850033,爱玛电动车(东六新村专卖店),河北省
329省道附近,沙河市,邢台市,114.363515,36.876633,爱玛电动车(Z029店),河北省
顺城路215号,威县,邢台市,115.265012,36.980707,爱玛电动车(育英东路),河北省
358省道南50米,宽城满族自治县,承德市,118.864041,40.634102,爱玛电动车(中共苇子沟乡委员会西),河北省
曙光小学西50米(凤凰东路南),成安县,邯郸市,114.697646,36.446985,爱玛电动车(昌宏佳苑西南),河北省
234省道与327省道交叉口北150米,巨鹿县,邢台市,115.058186,37.349435,爱玛电动车(德尚购物广场南),河北省
铁西南大街29号附近,复兴区,邯郸市,114.468961,36.601618,爱玛电动车(铁西南大街店),河北省
裕兴路18号,崇礼区,张家口市,115.280637,40.967109,爱玛电动车(崇礼区住建局西南),河北省
乐凯南大街东50米,莲池区,保定市,115.455200,38.821999,爱玛电动车(乐凯南大街),河北省
龙山大街312号(第十三卫生室东北),涉县,邯郸市,113.673258,36.561019,爱玛电动车(县中住宅小区西南),河北省
永新路(满城县于家庄乡人民政府东南),满城区,保定市,115.358580,38.806772,爱玛电动车(于家庄乡信访服务中心西南),河北省
西坨线与332省道交叉口东南100米,满城区,保定市,115.160157,39.013199,爱玛电动车(坨南分店),河北省
西留营与232省道交叉口西50米,行唐县,石家庄市,114.496283,38.397363,爱玛电动车(中共安香乡委员会东),河北省
政府街与241省道交叉口西南200米,涞水县,保定市,115.274929,39.636111,爱玛电动车(涞水县赵各庄镇中心卫生院南),河北省
264省道东50米,遵化市,唐山市,117.890403,40.068929,爱玛电动车(遵化市东新庄医院西北),河北省
四街村龙井华庭小区12号楼1楼门市附近,涉县,邯郸市,113.742994,36.614885,爱玛电动车(龙井华庭小区西南),河北省
蒋渠线与通唐公路交叉口东北50米,香河县,廊坊市,117.136385,39.765868,爱玛电动车(蒋渠线店),河北省
102国道南50米,滦州市,唐山市,118.339811,39.837466,爱玛电动车(景泰花苑东),河北省
102国道与304乡道交叉口东150米,迁安市,唐山市,118.479249,39.868838,爱玛电动车(太平庄店),河北省
325省道北50米,威县,邢台市,115.474670,37.067021,爱玛电动车(常屯乡卫生院西),河北省
兴业街与知红路交叉口西南100米,固安县,廊坊市,116.396650,39.422330,爱玛电动车(知红路店),河北省
牌楼北大街与鼓楼西街交叉口南100米,蔚县,张家口市,114.571527,39.842866,爱玛电动车(蔚县远征专卖店),河北省
天生桥路与平安路交叉口西150米,阜平县,保定市,113.952624,38.889605,爱玛电动车(平安路店),河北省
平阳大街与203乡道交叉口东北50米,阜平县,保定市,114.475578,38.818886,爱玛电动车(203乡道店),河北省
大官厅乡狮城大药房,沧县,沧州市,116.637352,38.371848,爱玛电动车(沧河线),河北省
光华大街与明仕巷交叉口西南50米,复兴区,邯郸市,114.452181,36.614571,爱玛电动车(光华大街店),河北省
济南屯农贸市场(码杨线东),安次区,廊坊市,116.765205,39.323405,爱玛电动车(济南屯专卖店),河北省
文化广场往南东兴南街21号,涿州市,保定市,116.010086,39.483289,爱玛电动车(东兴南街),河北省
廊大路东50米,文安县,廊坊市,116.688585,38.901602,爱玛电动车(中共文安县德归镇委员会北),河北省
鑫居装饰材料东100米(保静线),文安县,廊坊市,116.325952,38.952001,爱玛电动车(和谐佳园西北),河北省
381省道附近,任丘市,沧州市,115.980976,38.686614,爱玛电动车(出岸镇卫生院西),河北省
财神庙街D1-55号,宣化区,张家口市,115.061926,40.611157,爱玛电动车(宣化区电动车专卖店),河北省
新集镇,昌黎县,秦皇岛市,118.992249,39.579308,爱玛电动车(昌黎县新集高远专卖店),河北省
古城北街与鼓楼东街交叉口南100米,蔚县,张家口市,114.576134,39.842886,爱玛电动车(古城街),河北省
时崇线与时景线交叉口东北100米,河间市,沧州市,116.296464,38.489601,爱玛电动车(米各庄专卖店),河北省
平舒镇新华西街,大城县,廊坊市,116.616844,38.695467,爱玛电动车(大城县中心街宏卓专卖店),河北省
258乡道西50米,丰润区,唐山市,118.099783,39.712474,爱玛电动车(丰润区老庄子村专卖店),河北省
南城壕路与201省道交叉口东南50米,灵寿县,石家庄市,114.327370,38.447889,爱玛电动车(灵寿慈峪新芳专卖店),河北省
胜辛东路88号附近,广平县,邯郸市,114.860063,36.391786,爱玛电动车(胜营专卖店),河北省
迎宾中街270附近,清苑区,保定市,115.491573,38.764621,爱玛电动车(迎宾中街),河北省
311省道北50米,临西县,邢台市,115.381624,36.855807,爱玛电动车(下堡寺镇政府东北),河北省
457县道南50米,涿鹿县,张家口市,115.443768,40.220387,爱玛电动车(矾山专卖店),河北省
辛霞路与805县道交叉口西150米,南皮县,沧州市,116.977730,37.926897,爱玛电动车(潞灌专卖店),河北省
203省道与241省道交叉口西南150米,行唐县,石家庄市,114.399031,38.603968,爱玛电动车(万利福购物广场西),河北省
建业路与装院路交叉口南150米,元氏县,石家庄市,114.406017,37.870255,爱玛电动车(元氏县姬村镇卫生院东南),河北省
202省道北50米,武安市,邯郸市,113.904638,36.731335,爱玛电动车(阳邑文桥专卖),河北省
铜冶镇镇前大街702号,鹿泉区,石家庄市,114.379175,37.966633,爱玛电动车(铜冶中心卫生院东),河北省
丰登路与隆泰西道交叉口南200米,丰润区,唐山市,117.923372,39.697734,爱玛电动车(中共丰登坞镇委员会东南),河北省
204省道与803乡道交叉口东南50米,藁城区,石家庄市,114.743023,38.114849,爱玛电动车(803乡道),河北省
永安路与264乡道交叉口西150米,晋州市,石家庄市,115.148951,38.015912,爱玛电动车(东卓宿旗舰店),河北省
福馨家园东100米,景县,衡水市,116.017258,37.602092,爱玛电动车(福馨家园店),河北省
康节路附近,涿州市,保定市,115.997731,39.561464,爱玛电动车(东仙坡专卖店),河北省
315省道东50米,磁县,邯郸市,114.239249,36.412598,爱玛电动车(峰峰辛氏医院北),河北省
小朱庄乡小朱庄村,定兴县,保定市,115.916726,39.210006,爱玛电动车(中共小朱庄镇委员会西),河北省
联盟路联强小区90号楼1单元外门店,新华区,石家庄市,114.466044,38.079277,爱玛电动车(联盟路),河北省
广昌大街23号,涞源县,保定市,114.689897,39.350347,爱玛电动车(广昌大街),河北省
东盛家具城北50米(胥涧线东),丰南区,唐山市,118.142520,39.488446,爱玛电动车(黄各庄镇店),河北省
藁城区204省道东50米,藁城区,石家庄市,114.741850,38.155643,爱玛电动车(张家庄镇人民政府北),河北省
赵州镇贡院街61号,赵县,石家庄市,114.769664,37.750578,爱玛电动车(贡院街店),河北省
331省道附近,河间市,沧州市,115.996082,38.506805,爱玛电动车(墨松分店),河北省
华山道与站前一路交叉口东南100米,吴桥县,沧州市,116.390487,37.626696,爱玛电动车(华山道),河北省
莲池区长城北大街387号,莲池区,保定市,115.516188,38.876658,爱玛电动车(长城北大街),河北省
太行大街与宋璟路交叉口南150米,沙河市,邢台市,114.500832,36.854160,爱玛电动车(轴承厂小区东北),河北省
固雄线,霸州市,廊坊市,116.313809,39.106082,爱玛电动车(岔河集分店),河北省
鲜虞巷与鲜虞街交叉口东北50米,新乐市,石家庄市,114.691615,38.344360,爱玛电动车(鲜虞街),河北省
平东线新店子镇政府西北150米,遵化市,唐山市,118.016552,40.070362,爱玛电动车(新店子专卖店),河北省
西城路28号,开平区,唐山市,118.264350,39.680468,爱玛电动车(西城路店),河北省
三丰路200号,莲池区,保定市,115.498663,38.846976,爱玛电动车(南阁店),河北省
北环道基督教会西邻,广阳区,廊坊市,116.748941,39.585740,爱玛电动车(步行街),河北省
夏垫镇金铭路口公交站,大厂回族自治县,廊坊市,116.916439,39.948429,爱玛电动车(中共夏垫镇委员会西北),河北省
高楼镇高楼大街七色光双语艺术幼儿园,三河市,廊坊市,116.875950,40.003267,爱玛电动车(013乡道店),河北省
天主堂西南70米(泉南东大街南),桥东区,邢台市,114.507081,37.084215,爱玛电动车(泉南东大街店),河北省
竞秀区天威西路4135号,竞秀区,保定市,115.389894,38.863666,爱玛电动车(拥军西街),河北省
靖远东路与振华南大街路口东侧,盐山县,沧州市,117.231602,38.057135,爱玛电动车(靖远东路店),河北省
322省道南50米,邢台县,邢台市,114.421466,37.057579,爱玛电动车(西部秀苑小区东南),河北省
复兴路213号,路南区,唐山市,118.210205,39.620168,爱玛电动车(复兴路),河北省
丰南镇新华街80号,丰南区,唐山市,118.102694,39.563410,爱玛电动车(新华路),河北省
永济西路31号,运河区,沧州市,116.834135,38.328861,爱玛电动车(沧州京顺医院西北),河北省
南大路1-15号,乐亭县,唐山市,118.916104,39.425970,爱玛电动车(东大街店),河北省
光明北大街与电厂街交叉口东50米,丛台区,邯郸市,114.504587,36.626809,爱玛电动车(联纺东路),河北省
254省道西50米,隆化县,承德市,117.826659,41.675866,爱玛电动车(隆化县唐三营中心卫生院东北),河北省
502县道附近,围场满族蒙古族自治县,承德市,118.012262,41.905160,爱玛电动车(银窝沟乡中心卫生院东),河北省
唐林南路9-18、19,古冶区,唐山市,118.462145,39.721348,爱玛电动车(唐林南路),河北省
隆化镇安州街底商,隆化县,承德市,117.738110,41.316744,爱玛电动车(安洲街店),河北省
卢龙镇北门外大街,卢龙县,秦皇岛市,118.878469,39.891558,爱玛电动车(北门外路),河北省
双塔山山水文苑底商15号楼2-101,双滦区,承德市,117.816601,40.973877,爱玛电动车(双塔山店),河北省
昌盛大路与景福街交叉口东北50米,迁安市,唐山市,118.697635,40.012397,爱玛电动车(昌盛大路店),河北省
建设大街与中兴路交叉口向西50米路北,南和县,邢台市,114.692558,37.007885,爱玛电动车(建设大街),河北省
商贸1胡同与桥西路交叉口东150米,武安市,邯郸市,114.206552,36.688431,爱玛电动车(桥西路),河北省
北河沿与恒祥北大街交叉口西北100米,莲池区,保定市,115.495738,38.874876,爱玛电动车(五四中路),河北省
南街与261省道交叉口北100米,抚宁区,秦皇岛市,119.285432,40.057860,爱玛电动车(抚宁县大新寨镇中心卫生院东北),河北省
110乡道与205国道交叉口东50米,昌黎县,秦皇岛市,119.050210,39.713573,爱玛电动车(龙家店卖店),河北省
振兴东路103号,内丘县,邢台市,114.523746,37.285020,爱玛电动车(振兴东路),河北省
新华路301号,黄骅市,沧州市,117.352891,38.368851,爱玛电动车(黄骅信誉楼商厦东区东),河北省
新中街191号,固安县,廊坊市,116.295379,39.438270,爱玛电动车(固安县盐政管理所东),河北省
234省道北50米,宁晋县,邢台市,114.989793,37.452367,爱玛电动车(耿庄桥镇政府东南),河北省
老大街,任县,邢台市,114.683723,37.123669,爱玛电动车(老大街),河北省
242省道南50米,崇礼区,张家口市,114.970265,40.882330,爱玛电动车(春天苑区西北),河北省
城东街与城南街交叉口西150米,丛台区,邯郸市,114.487120,36.605189,爱玛电动车(城南街店),河北省
洺州镇顺城路老转盘西行50米,威县,邢台市,115.266531,36.980765,爱玛电动车(育英东路),河北省
南园街与新华南路交叉口北50米,桥东区,邢台市,114.499393,37.059219,爱玛电动车(新华南路),河北省
褡石街附近,沙河市,邢台市,114.301105,36.881030,爱玛电动车(沙河市白塔镇中心卫生院西北),河北省
胜利大街399号,南宫市,邢台市,115.385587,37.355962,爱玛电动车(胜利街店),河北省
富强西路628号附近,阜城县,衡水市,116.150993,37.868523,爱玛电动车(富强西路店),河北省
红旗大街7号新华书店对过,桃城区,衡水市,115.693934,37.738926,爱玛电动车(红旗商厦专卖店),河北省
红旗大街街与和平路交叉口西行100米路北,桃城区,衡水市,115.692084,37.739282,爱玛电动车(鑫城商贸广场西),河北省
北道口南行200米京广路西,沙河市,邢台市,114.500222,36.866850,爱玛电动车(沙河平安医院南),河北省
新天地广场,香河县,廊坊市,117.002077,39.760096,爱玛电动车(淑阳大街店),河北省
路西电路144号,路南区,唐山市,118.137022,39.609141,爱玛电动车(谊园道),河北省
和平路351号,邯山区,邯郸市,114.515078,36.600513,爱玛电动车(邯郸市高轩专卖店),河北省
网都西街65号,安平县,衡水市,115.514057,38.231625,爱玛电动车(网都街店),河北省
迎宾商业街与迎宾街交叉口西北50米,平泉市,承德市,118.692892,41.005350,爱玛电动车(迎宾街),河北省
竞秀区天威西路386号,竞秀区,保定市,115.460917,38.859368,爱玛电动车(向阳南大街),河北省
长城南大街211号,莲池区,保定市,115.499583,38.861017,爱玛电动车(城隍庙街),河北省
959乡道与960乡道交叉口西150米,景县,衡水市,116.044559,37.717125,爱玛电动车(960乡道),河北省
温州商城2-09号(昌明购物中心西),故城县,衡水市,115.971268,37.342186,爱玛电动车(昌明购物中心西),河北省
金鸡大街中国建设银行东南50米,冀州区,衡水市,115.590148,37.543852,爱玛电动车(金鸡北大街店),河北省
武邑镇腾达北大街175号,武邑县,衡水市,115.889080,37.806500,爱玛电动车(腾达北大街店),河北省
人民东街146附近,枣强县,衡水市,115.730912,37.504926,爱玛电动车(人民东街店),河北省
府东路10号,三河市,廊坊市,117.079379,39.978745,爱玛电动车(泃阳新时代电动车商专卖店),河北省
华兴东路66,滦平县,承德市,117.334228,40.932296,爱玛电动车(龙港西街店),河北省
捷地回族乡清池南大道10号沧州信誉楼商厦,新华区,沧州市,116.863676,38.305758,爱玛电动车(解放东路),河北省
南大街(盐百供销大厦西),河间市,沧州市,116.088651,38.436773,爱玛电动车(瀛州中路店),河北省
唐海镇垦丰大街46-6号,曹妃甸区,唐山市,118.453964,39.272298,爱玛电动车(垦丰大街),河北省
青龙镇服务街5-7号,青龙满族自治县,秦皇岛市,118.948834,40.401155,爱玛电动车(服务街店),河北省
槐东大街西50米,柏乡县,邢台市,114.696896,37.493835,爱玛电动车(槐东大街),河北省
裕华中路42-2号(任丘购物商城西),任丘市,沧州市,116.103279,38.710753,爱玛电动车(任丘市政府招待处西),河北省
新华街222号,泊头市,沧州市,116.572083,38.072808,爱玛电动车(新华街店),河北省
383省道南50米(秦村镇人民政府西),东光县,沧州市,116.778238,37.849447,爱玛电动车(秦村镇人民政府西),河北省
人民东路7号,饶阳县,衡水市,115.729532,38.235801,爱玛电动车(喜奥北大街店),河北省
乐寿大街与本斋路交叉口西北100米,献县,沧州市,116.134607,38.191310,爱玛电动车(本斋路店),河北省
新华中路20号,青县,沧州市,116.825500,38.578974,爱玛电动车(新华中路店),河北省
世纪商贸城(中脉健康生活馆东北),任丘市,沧州市,116.096397,38.689785,爱玛电动车(任丘市永明自行车商专卖店),河北省
茧城大街293号,东光县,沧州市,116.549663,37.884104,爱玛电动车(东光旗舰店),河北省
建设大街116号,孟村回族自治县,沧州市,117.106928,38.058046,爱玛电动车(孟村回族自治县物价局南),河北省
331省道南50米,河间市,沧州市,116.329387,38.391993,爱玛电动车(中华车行店),河北省
石坊路172号,肃宁县,沧州市,115.837576,38.431125,爱玛电动车(石坊路店),河北省
左各庄镇北面,文安县,廊坊市,116.623866,39.013993,爱玛电动车(左各庄店),河北省
建设东道938号,霸州市,廊坊市,116.402181,39.111865,爱玛电动车(霸州店),河北省
海港开发区华隆市场,乐亭县,唐山市,118.994412,39.233475,爱玛电动车(亨元大酒店东),河北省
平东线平安城派出所附近,遵化市,唐山市,117.796080,40.055488,爱玛电动车(平东线店),河北省
太平街与新兴道交叉口东150米,古冶区,唐山市,118.467612,39.740760,爱玛电动车(新兴道店),河北省
新中街187号,固安县,廊坊市,116.299963,39.437858,爱玛电动车(新中街),河北省
昌盛大路1062号附近,迁安市,唐山市,118.697283,40.013331,爱玛电动车(昌盛大路),河北省
大安西街90号,大厂回族自治县,廊坊市,116.979317,39.884662,爱玛电动车(中国银行家属楼东),河北省
高新技术产业开发区庆南道78号(华盛超市西行100米),路北区,唐山市,118.203649,39.690628,爱玛电动车(庆南道店),河北省
112国道西50米,遵化市,唐山市,118.025796,39.992059,爱玛电动车(幸福禾园南),河北省
北环路玉田供销大厦附近,玉田县,唐山市,117.757325,39.883146,爱玛电动车(玉田县财政局西南),河北省
下板城镇杨树林村板城东街北侧,承德县,承德市,118.189688,40.777920,爱玛电动车(承德县远行专卖店),河北省
华明北路与华明南路交叉口南150米,遵化市,唐山市,117.957400,40.185636,爱玛电动车(华明南路店),河北省
建华北大街99号,滦州市,唐山市,118.694561,39.748945,爱玛电动车(建华大街店),河北省
胜利东街10号,丰宁满族自治县,承德市,116.649444,41.212225,爱玛电动车(胜利东街店),河北省
伊逊路与北横街交叉口南100米,围场满族蒙古族自治县,承德市,117.760212,41.950057,爱玛电动车(木兰中路),河北省
府安东街10-2号,赤城县,张家口市,115.834508,40.913291,爱玛电动车(赤城专卖店),河北省
公路大街6号附近,蔚县,张家口市,114.456572,39.863665,爱玛电动车(公路大街店),河北省
长城北路与董存瑞西街路口北侧,怀来县,张家口市,115.518982,40.409220,爱玛电动车(沙城专卖店),河北省
河坡街与龙泉路交叉口东南50米,阳原县,张家口市,114.158260,40.106067,爱玛电动车(旗舰店),河北省
迎宾巷2-1号附近,尚义县,张家口市,113.972673,41.077890,爱玛电动车(平安街),河北省
457县道北50米,怀来县,张家口市,115.727080,40.318522,爱玛电动车(小南辛堡镇卫生院东),河北省
006乡道东50米,桥东区,张家口市,114.863373,40.744640,爱玛电动车(吉家坊店),河北省
翟营大街339号,裕华区,石家庄市,114.555182,38.013357,爱玛电动车(翟营南大街),河北省
数码街与邯郸商业步行街交叉口东北50米,丛台区,邯郸市,114.481899,36.607001,爱玛电动车(邯郸商业步行街),河北省
邯邢路与政府街交叉口处南行(万盛西南),永年区,邯郸市,114.485459,36.775037,爱玛电动车(华达小区西北),河北省
401县道华北大药房附近,康保县,张家口市,114.617310,41.853103,爱玛电动车(康保县安全生产监督管理局东北),河北省
涿涞路葛云通讯手机大卖场南100米,涿州市,保定市,115.786170,39.457233,爱玛电动车(孙庄旗舰店),河北省
人民大街105号阳光车行,雄县,保定市,116.101534,38.980369,爱玛电动车(雄县阳光专卖店),河北省
阜平镇桥东街49号,阜平县,保定市,114.200617,38.849194,爱玛电动车(桥东街),河北省
博野镇兴华北街23号,博野县,保定市,115.460536,38.458617,爱玛电动车(光明北街店),河北省
康庄路65号,竞秀区,保定市,115.446876,38.872506,爱玛电动车(康庄路),河北省
兴华西路9附近,定兴县,保定市,115.790407,39.271615,爱玛电动车(兴华西路店),河北省
186乡道与382省道交叉口西南100米,曲阳县,保定市,114.654402,38.675398,爱玛电动车(186乡道店),河北省
抗战路与335省道交叉口南100米,清苑区,保定市,115.373543,38.676080,爱玛电动车(冉庄专卖店),河北省
兴阳路165附近,高阳县,保定市,115.781397,38.688873,爱玛电动车(高阳县专卖店),河北省
药市南大街,安国市,保定市,115.321628,38.413258,爱玛电动车(安国仁达旗舰店),河北省
兴华中路6附近,定州市,保定市,114.993110,38.520138,爱玛电动车(兴华中路店),河北省
商城东街36号,曲阳县,保定市,114.706579,38.623446,爱玛电动车(南水北调办公室北),河北省
金台西路83号,容城县,保定市,115.862475,39.051625,爱玛电动车(容城专卖店),河北省
永兴中路35号附近,徐水区,保定市,115.653981,39.018730,爱玛电动车(永兴中路),河北省
易州镇金台西路85号,易县,保定市,115.498522,39.355815,爱玛电动车(金台西路),河北省
满城镇玉川西路12号剧场对面费兑换中心,满城区,保定市,115.321116,38.951477,爱玛电动车(玉川西路店),河北省
中华东路34-3号,望都县,保定市,115.155185,38.708632,爱玛电动车(中华东路店),河北省
南大街15号,高碑店市,保定市,115.860324,39.326192,爱玛电动车(高碑店专卖店),河北省
南村镇工商行政管理局南村工商分局,长安区,石家庄市,114.647836,38.060033,爱玛电动车(南村专卖),河北省
石丰路与石兆街交叉口西150米,长安区,石家庄市,114.597004,38.075327,爱玛电动车(石丰路店),河北省
槐泉东路与新开街交叉口东南150米,赞皇县,石家庄市,114.390338,37.664296,爱玛电动车(赞皇县交通运输局西南),河北省
府前东路82号,深泽县,石家庄市,115.207375,38.183647,爱玛电动车(府前东路),河北省
邯临公路北50米,丛台区,邯郸市,114.583866,36.661763,爱玛电动车(尚壁专卖店),河北省
212省道西50米,成安县,邯郸市,114.557335,36.411891,爱玛电动车(成安成临医院西北),河北省
南门外街与桥西路交叉口东100米,武安市,邯郸市,114.203250,36.688346,爱玛电动车(桥西路),河北省
318省道南50米,永年区,邯郸市,114.644608,36.837620,爱玛电动车(大北汪中心卫生院东),河北省
兴堡西街88号附近,魏县,邯郸市,114.829077,36.331043,爱玛电动车(院堡乡卫生监督管理站东),河北省
振华街东50米,复兴区,邯郸市,114.398932,36.632238,爱玛电动车(振华街),河北省
中山西路(马良烧鸡东行30米路北),磁县,邯郸市,114.381422,36.359841,爱玛电动车(中山西路店),河北省
大名府路与万大路80米路南,大名县,邯郸市,115.155599,36.284487,爱玛电动车(大名府路),河北省
313省道南50米,大名县,邯郸市,115.324121,36.226213,爱玛电动车(孙甘店乡卫生院西北),河北省
大名府路801号,大名县,邯郸市,115.173498,36.281217,爱玛电动车(大名府路店),河北省
人民西路与建新北街交叉口西北50米,广平县,邯郸市,114.945044,36.482113,爱玛电动车(建新北街店),河北省
邯临公路88号附近,丛台区,邯郸市,114.679144,36.671033,爱玛电动车(永年旗舰店),河北省
建设街63号附近,邱县,邯郸市,115.170883,36.818254,爱玛电动车(建设街店),河北省
人民路附近,鸡泽县,邯郸市,114.871155,36.909725,爱玛电动车(鸡泽旗舰店),河北省
小海北镇,路南区,唐山市,117.605479,39.373690,爱玛电动车(小海北专卖店),河北省
红旗大街与经济东路交叉口北200米,藁城区,石家庄市,114.917003,38.032828,兴安爱玛电动车,河北省
向东路东150米,曲阳县,保定市,114.645899,38.788369,灵山爱玛电动车,河北省
清池南大道10号沧州信誉楼商厦B1层,运河区,沧州市,116.860840,38.307251,爱玛电动车(沧州信誉楼商厦),河北省
201路;202路;803路,抚宁区,秦皇岛市,119.244904,39.885254,爱玛电动车(公交站),河北省
112国道南50米,兴隆县,承德市,117.910355,40.363445,爱玛电动车(西北门),河北省
252省道东50米,滦南县,唐山市,118.810102,39.541973,爱玛电动车(东沙窝村卫生室西),河北省
364乡道东50米,开平区,唐山市,118.201102,39.759564,爱玛,河北省
天宝东街与月城路交叉口南150米,宁晋县,邢台市,114.926214,37.622806,爱玛自行车,河北省
朝阳路118号,涞水县,保定市,115.714952,39.390144,爱玛自行车,河北省
北宋路49附近,长安区,石家庄市,114.551227,38.046459,爱玛(北宋路店),河北省
冀鲁街北150米,馆陶县,邯郸市,115.276163,36.535241,爱玛自行车(馆陶专卖店),河北省
京广路652号,沙河市,邢台市,114.500313,36.856124,爱玛自行车(百货新家园西),河北省
天马大街与抚绣路交叉口,抚宁区,秦皇岛市,119.244910,39.885473,爱玛自行车(天马大街),河北省
人民南街30号,涿鹿县,张家口市,115.216455,40.371015,爱玛自行车(人民南街),河北省
兴华街与永安路交叉口西南100米,肥乡区,邯郸市,114.808488,36.553884,肥乡爱玛电动车专卖店,河北省
中华北路4号附近,行唐县,石家庄市,114.568328,38.517107,小鸟爱玛电动车,河北省
201县道东50米,广宗县,邢台市,115.156896,37.008654,明村爱玛电动车,河北省
翼博电子科技西北50米(大石路北),任丘市,沧州市,116.096217,38.618121,爱玛电动车全国连锁,河北省
851乡道与865乡道交叉口东南100米,沙河市,邢台市,114.149323,36.873313,爱玛电动车册井专卖,河北省
建设南街与秦泽东路交叉口东北50米,巨鹿县,邢台市,115.042056,37.212468,爱玛电动车服务中心,河北省
十字街东40米路北,盐山县,沧州市,117.231478,38.058103,盐山爱玛电动车专卖店,河北省
小集镇东华锦绣家园北50米,丰南区,唐山市,118.280054,39.464529,爱玛电动车淮南三轮车,河北省
358省道与511县道交叉口东北100米,宽城满族自治县,承德市,118.982762,40.641590,汤道河爱玛电动车专卖店,河北省
周头村,晋州市,石家庄市,115.015956,37.908879,占永车行,河北省
昌盛路附近,香河县,廊坊市,117.016627,39.678767,信诚爱玛电动车,河北省
商业街南段1号,桃城区,衡水市,115.521811,37.741489,天能电池爱玛电动车,河北省
魏家庄镇商品街中段路南,隆尧县,邢台市,114.748301,37.283413,魏庄爱玛电动车专卖店,河北省
安宁东路与安宁西路交叉口东150米,魏县,邯郸市,114.947221,36.096868,俊锋商城爱玛电动车,河北省
杨柏线银河商厦旁,滦南县,唐山市,118.568099,39.546111,大江三轮&爱玛电动车,河北省
人民东路132-5号,灵寿县,石家庄市,114.389723,38.308947,爱玛电动车灵寿总经销,河北省
林西电厂楼6楼3门,古冶区,唐山市,118.453367,39.716984,爱玛电动车古冶总代理,河北省
685县道,昌黎县,秦皇岛市,119.232084,39.587704,团林爱玛电动车专卖店,河北省
祁各庄镇商业街,大厂回族自治县,廊坊市,116.901863,39.867860,爱玛电动车海龙专卖,河北省
经贸路与260乡道交叉口东50米,枣强县,衡水市,115.732885,37.315429,国威车行(260乡道),河北省
纬八街与406乡道交叉口东南50米,宁晋县,邢台市,114.942017,37.533588,爱玛电动车大曹庄农场专卖店,河北省
肖张镇北石化加油站对面,枣强县,衡水市,115.725100,37.606292,肖张保军绿源爱玛电动车,河北省
五纬道与百合路交叉口东北50米,永清县,廊坊市,116.531066,39.356372,宝鸽三轮爱玛电动车专卖店,河北省
河西镇复兴大街中国工商银行西200米,临西县,邢台市,115.686075,36.853310,美利达自行车爱玛电动车,河北省
徐新公路商平庄牌楼对面,徐水区,保定市,115.751217,38.994977,小刀爱玛电动车专卖店,河北省
中华南大街西50米,邯山区,邯郸市,114.486522,36.540590,速派奇爱玛电动车,河北省
福源路与112国道交叉口西南50米,易县,保定市,115.266350,39.323350,邢强爱玛电动车,河北省
361省道附近,丰润区,唐山市,117.958183,39.643268,爱玛电动车新军屯立勇专卖,河北省
临洺关镇大米市场附近,鸡泽县,邯郸市,114.889549,36.945375,爱玛电动车毛官营利峰专卖店,河北省
皮毛街与260乡道交叉口北200米,枣强县,衡水市,115.732932,37.315797,强迪电动三轮车(爱玛电动车),河北省
市场路与954县道交叉口南50米,宁晋县,邢台市,115.158979,37.712514,平栓家电商场爱玛电动车,河北省
庞佐路与282省道交叉口北200米,高阳县,保定市,115.877345,38.557694,雅马哈电动车(爱玛电动车),河北省
325省道北50米,南和县,邢台市,114.827963,37.071272,雅迪电动车(爱玛电动车店),河北省
赵川村东门口,宣化区,张家口市,115.357654,40.683414,爱玛小刀电动车,河北省
竞秀区七一路爱玛电动车,竞秀区,保定市,115.455119,38.881725,七一路爱玛绿源电动车,河北省
214省道附近,永年区,邯郸市,114.878799,36.764500,爱玛自行车电动车(曹庄专卖),河北省
太平北路与太平南路交叉口北50米,尚义县,张家口市,113.975374,41.080191,金泰美自行车(平安街店),河北省
黄各庄镇宣庄祥和家园底商,丰南区,唐山市,118.138418,39.509223,爱玛专卖店,河北省
镇内西街8,临城县,邢台市,114.602033,37.456616,爱玛专卖店,河北省
206县道赵店信用社南100米路西,武安市,邯郸市,114.317064,36.815109,赵店爱玛电动车专卖,河北省
福源北街208号附近,魏县,邯郸市,114.959718,36.143762,胜利商城爱玛,河北省
兴华中路98附近,定州市,保定市,114.989466,38.521371,爱玛骑行文化馆,河北省
蟠龙路27-10号,元氏县,石家庄市,114.536020,37.759022,爱玛服务中心(蟠龙路),河北省
106国道附近,任丘市,沧州市,116.190340,38.882850,苟各庄二街爱玛电动车专卖,河北省
农贸路与集英西街交叉口东北100米,高阳县,保定市,115.951798,38.642702,庞口新义力之星专卖店(爱玛电动车),河北省
机场街819号,沙河市,邢台市,114.493052,36.868529,都市风电动车(爱玛三轮车),河北省
古遂东路北50米,徐水区,保定市,115.541556,39.045253,立马电动车,河北省
竞秀区隆兴西路4019,竞秀区,保定市,115.395042,38.923027,金彭电动车(爱玛电动车专卖),河北省
302省道北50米,藁城区,石家庄市,114.776360,38.154117,爱玛专卖,河北省
靖远东路107号,盐山县,沧州市,117.232635,38.057151,盐山县跑狼电动车(靖远东路店),河北省
244乡道与356县道交叉口西北50米,安新县,保定市,115.847110,38.971860,金彭电动三轮车(三台店),河北省
中兴街与煎台路交叉口东南50米,霸州市,廊坊市,116.523435,39.109656,金彭大安电三轮专卖店霸州旗舰店(爱玛电动车旗舰店),河北省
建设大街118号附近,孟村回族自治县,沧州市,117.106912,38.058189,爱玛电动车售后服务,河北省
无,安新县,保定市,115.826340,38.879389,爱玛电动车售后服务站,河北省
富民大街东50米,高碑店市,保定市,116.035206,39.110528,爱玛电动车售后维修服务站,河北省
人民大街与向阳街交叉口西50米,雄县,保定市,116.101271,38.980336,爱玛电动车售后维修,河北省
槐安西路与槐安西路出口交叉口北100米,桥西区,石家庄市,114.445202,38.025065,爱玛电动车西二环售后服务中心,河北省
和平东路522号附近,长安区,石家庄市,114.563191,38.053706,爱玛修车,河北省
南羊市道21号附近,桥东区,邢台市,114.503403,37.053975,爱玛修车,河北省
莲池区永华北路秀水街24号,莲池区,保定市,115.496803,38.861797,爱玛修车,河北省
小马村国大药房与都市果园巷内,小店区,太原市,112.551430,37.778931,爱玛电动车,山西省
解放东路与迎春街交叉口东南50米,尧都区,临汾市,111.533044,36.080094,爱玛电动车,山西省
南大街与新市西街交叉口西100米,城区,晋城市,112.841196,35.499789,爱玛电动车,山西省
永兴北路405号,原平市,忻州市,112.733587,38.732730,爱玛电动车,山西省
凤城镇东关村东华路61号,阳城县,晋城市,112.436432,35.482845,爱玛电动车,山西省
开源街街道魏都大道开源街口西魏都新城F区北门,平城区,大同市,113.281654,40.054096,爱玛电动车,山西省
司令部街与武定街交叉口南100米,平城区,大同市,113.302009,40.096064,爱玛电动车,山西省
新城街道迎新街东二条与迎新街南二巷交叉口,尖草坪区,太原市,112.540705,37.951547,爱玛电动车,山西省
新建路25号附近,迎泽区,太原市,112.551106,37.863796,爱玛电动车,山西省
西峪东街口,晋源区,太原市,112.504544,37.809523,爱玛电动车,山西省
南庄路与龙潭街交叉口南100米,城区,阳泉市,113.589426,37.845990,爱玛电动车,山西省
建设南路服务楼对面,朔城区,朔州市,112.442322,39.319952,爱玛电动车,山西省
居民办事处玄帝庙巷第一职工幼儿园,繁峙县,忻州市,113.277362,39.188533,爱玛电动车,山西省
无,榆次区,晋中市,112.740259,37.705114,爱玛电动车,山西省
学府街101-17附近,小店区,太原市,112.565358,37.807824,爱玛电动车,山西省
顺城东街62东50米,榆次区,晋中市,112.764129,37.685625,爱玛电动车,山西省
桃园南路30附近,迎泽区,太原市,112.545911,37.852058,爱玛电动车,山西省
恒山路51号附近,尖草坪区,太原市,112.558940,37.927515,爱玛电动车,山西省
灵石县步行街11号附近,灵石县,晋中市,111.776553,36.848073,爱玛电动车,山西省
373县道南50米,平遥县,晋中市,112.245710,37.280189,爱玛电动车,山西省
西南线东50米,翼城县,临汾市,111.757018,35.670087,爱玛电动车,山西省
马练营村南,小店区,太原市,112.612180,37.753768,爱玛电动车,山西省
党校路与许坦西街交叉口西100米,小店区,太原市,112.572490,37.801153,爱玛电动车,山西省
两渡镇中心医院对面,灵石县,晋中市,111.776583,36.924992,爱玛电动车,山西省
经济技术开发区西太堡街三监宿舍,迎泽区,太原市,112.592636,37.823022,爱玛电动车,山西省
218省道东50米,临县,吕梁市,110.989605,37.845401,爱玛电动车,山西省
东涧河乡龙泉锦苑往东300米,杏花岭区,太原市,112.586335,37.920037,爱玛电动车,山西省
新建北路与237省道交叉口北150米,万荣县,运城市,110.841730,35.421234,爱玛电动车,山西省
巴马线南100米,泽州县,晋城市,112.891175,35.622082,爱玛电动车,山西省
河北街与207国道交叉口南150米,泽州县,晋城市,112.800853,35.401516,爱玛电动车,山西省
汾酒大道014乡附近,汾阳市,吕梁市,111.812755,37.308435,爱玛电动车,山西省
东关大街61号附近,代县,忻州市,112.966842,39.070980,爱玛电动车,山西省
和平北路266正东方向55米,尖草坪区,太原市,112.509244,37.900503,爱玛电动车,山西省
晋安西街北50米,杏花岭区,太原市,112.580206,37.898864,爱玛电动车,山西省
东峰路与马道坡街交叉口西100米,杏花岭区,太原市,112.622534,37.877796,爱玛电动车,山西省
常青宾馆(西环路店),洪洞县,临汾市,111.670001,36.257812,爱玛电动车,山西省
新港辉双塔寺摩配市场,迎泽区,太原市,112.548740,37.843890,爱玛电动车,山西省
华泰路东50米,芮城县,运城市,110.708616,34.688916,爱玛电动车,山西省
221省道东50米,灵石县,晋中市,111.772726,36.842379,爱玛电动车,山西省
332省道北50米,泽州县,晋城市,112.947518,35.541986,爱玛电动车,山西省
小井峪街16号,万柏林区,太原市,112.508537,37.851051,爱玛电动车,山西省
G108(京昆线),曲沃县,临汾市,111.465711,35.760950,爱玛电动车,山西省
316省道北50米,清徐县,太原市,112.476568,37.592771,爱玛电动车,山西省
喜羊羊幼儿园(下平线北),文水县,吕梁市,112.134712,37.278103,爱玛电动车,山西省
小牛线,小店区,太原市,112.538631,37.635714,爱玛电动车,山西省
迎泽西大街泽峪园小区底层7号,万柏林区,太原市,112.483740,37.858625,爱玛电动车,山西省
大同路280号附近,尖草坪区,太原市,112.532600,37.932952,爱玛电动车,山西省
漪兴路385号附近,万柏林区,太原市,112.523512,37.882631,爱玛电动车,山西省
洪乔线东50米,洪洞县,临汾市,111.586750,36.307022,爱玛电动车,山西省
福馨路130商铺附近,介休市,晋中市,111.899650,37.027258,爱玛电动车,山西省
大堡村,长子县,长治市,112.883788,36.068751,爱玛电动车,山西省
西铭路107号附近,万柏林区,太原市,112.447111,37.858850,爱玛电动车,山西省
232县道北50米,杏花岭区,太原市,112.591331,37.956223,爱玛电动车,山西省
233省道西150米,乡宁县,临汾市,111.012107,36.046899,爱玛电动车,山西省
221省道与379县道交叉口西南150米,介休市,晋中市,112.074427,37.133352,爱玛电动车,山西省
南大街,泽州县,晋城市,112.923971,35.507391,爱玛电动车,山西省
西矿街437附近,万柏林区,太原市,112.441660,37.846963,爱玛电动车,山西省
新建东街与颐塔街交叉口西南100米,应县,朔州市,113.190414,39.561218,爱玛电动车,山西省
侯安线,闻喜县,运城市,111.335236,35.504103,爱玛电动车,山西省
336省道北50米,盐湖区,运城市,110.789715,34.893385,爱玛电动车,山西省
商业西路与雷达街交叉口东北50米,盐湖区,运城市,111.044631,35.107159,爱玛电动车,山西省
华泰路东150米,芮城县,运城市,110.709789,34.688562,爱玛电动车,山西省
通顺街与龙山大街交叉口西南50米,尖草坪区,太原市,112.449111,38.006966,爱玛电动车,山西省
历山东路与舜王北街交叉口北150米垣曲县交通运输局附近,垣曲县,运城市,111.669544,35.303369,爱玛电动车,山西省
天坛东路与文昌南街交叉口东北100米浮山信访服务中心附近,浮山县,临汾市,111.855067,35.966611,爱玛电动车,山西省
227省道东100米,高平市,晋城市,112.868202,35.863408,爱玛电动车,山西省
金龙东街22号附近,盂县,阳泉市,113.413984,38.091454,爱玛电动车,山西省
台怀镇五台山风景区杨柏峪歌城院,五台县,忻州市,113.580971,38.989473,爱玛电动车,山西省
中山西街与015乡道交叉口西150米,永济市,运城市,110.401329,34.844707,爱玛电动车,山西省
G309(荣兰线),洪洞县,临汾市,111.718515,36.168812,爱玛电动车,山西省
三联面粉厂东南50米(冀孝线东),汾阳市,吕梁市,111.908868,37.150787,爱玛电动车,山西省
021乡道与831县道交叉口南50米,平陆县,运城市,110.950864,34.778118,爱玛电动车,山西省
012乡道与237省道交叉口西北50米,万荣县,运城市,110.716760,35.422450,爱玛电动车,山西省
端氏镇当湖街114号,沁水县,晋城市,112.518175,35.674559,爱玛电动车,山西省
泽古线北张镇政府东,新绛县,运城市,111.113186,35.704081,爱玛电动车,山西省
春风路26附近,昔阳县,晋中市,113.706227,37.602739,爱玛电动车,山西省
230省道西150米,绛县,运城市,111.674346,35.571144,爱玛电动车,山西省
039省道北50米,晋源区,太原市,112.388930,37.649321,爱玛电动车,山西省
下辛线公安局王家庄派出所西100米,原平市,忻州市,112.690046,38.652176,爱玛电动车,山西省
尧都区政府街,尧都区,临汾市,111.537426,36.120607,爱玛电动车,山西省
府东街与葵阁巷交叉口东100米,天镇县,大同市,114.093311,40.419829,爱玛电动车,山西省
侯堡镇珂溢市场南门,襄垣县,长治市,112.981996,36.438225,爱玛电动车,山西省
杨家峪街道凯旋街东峰碳素厂院内,杏花岭区,太原市,112.614563,37.892094,爱玛电动车,山西省
宁固镇综合职业技术学校附近,平遥县,晋中市,112.061487,37.225033,爱玛电动车,山西省
大东沟镇派出所隔壁,泽州县,晋城市,112.710653,35.563618,爱玛电动车,山西省
古楼街市场西150米(延安街南),石楼县,吕梁市,110.827435,37.000569,爱玛电动车,山西省
礼义镇礼夺线行源购物中心,陵川县,晋城市,113.123466,35.800625,爱玛电动车,山西省
迎新东街与迎新街交叉口西北100米,永济市,运城市,110.450434,34.869811,爱玛电动车,山西省
东华北路与迎宾东街交叉口西50米,上党区,长治市,113.060424,36.051437,爱玛电动车,山西省
河西镇仙井村书文汽贸,高平市,晋城市,112.958788,35.714398,爱玛电动车,山西省
府前街与681县道交叉口东北50米,上党区,长治市,113.118616,35.959956,爱玛电动车,山西省
新南街晶玉宾馆对过,代县,忻州市,112.964523,39.064006,爱玛电动车,山西省
神府西街35号,神池县,忻州市,112.200076,39.089083,爱玛电动车,山西省
岚漪镇永宁路99号,岢岚县,忻州市,111.566548,38.705362,爱玛电动车,山西省
安康北巷与林涛大道交叉口东50米,保德县,忻州市,111.080450,39.021535,爱玛电动车,山西省
新建南路与新建路交叉口南100米,壶关县,长治市,113.203922,36.106186,爱玛电动车,山西省
鼓楼街21号附近,左云县,大同市,112.708309,40.004907,爱玛电动车,山西省
309国道东50米,吉县,临汾市,110.894920,36.220256,爱玛电动车,山西省
203省道北50米,灵丘县,大同市,114.099657,39.410581,爱玛电动车,山西省
041乡道与337省道交叉口东南50米,芮城县,运城市,110.482878,34.679175,爱玛电动车,山西省
337省道南50米,芮城县,运城市,110.560009,34.687810,爱玛电动车,山西省
商业路与广泰西街交叉口西北50米,广灵县,大同市,114.277571,39.763797,爱玛电动车,山西省
009乡道与208国道交叉口南50米,山阴县,朔州市,112.787543,39.331956,爱玛电动车,山西省
迎宾北路东50米,阳城县,晋城市,112.569764,35.475604,爱玛电动车,山西省
017乡道与844县道交叉口南100米,闻喜县,运城市,111.208301,35.469610,爱玛电动车,山西省
007乡道与064乡道交叉口西南200米,万荣县,运城市,110.613363,35.457984,爱玛电动车,山西省
朝阳街274号,寿阳县,晋中市,113.163516,37.901096,爱玛电动车,山西省
527县道西50米,襄汾县,临汾市,111.523259,35.962392,爱玛电动车,山西省
神农东街与753县道交叉口往西200米路南,高平市,晋城市,112.971374,35.879133,爱玛电动车,山西省
753县道东50米,高平市,晋城市,112.896834,35.852627,爱玛电动车,山西省
巴公镇巴原街,泽州县,晋城市,112.905297,35.618377,爱玛电动车,山西省
011乡道西200米,文水县,吕梁市,112.254634,37.488019,爱玛电动车,山西省
319省道北50米,太谷县,晋中市,112.668350,37.429700,爱玛电动车,山西省
002乡道北50米,太谷县,晋中市,112.623368,37.480243,爱玛电动车,山西省
009乡道南50米,榆社县,晋中市,112.815546,37.047505,爱玛电动车,山西省
太和路与新和大街交叉口西南50米,和顺县,晋中市,113.577237,37.324477,爱玛电动车,山西省
解州镇车盘村,盐湖区,运城市,110.853463,34.909682,爱玛电动车,山西省
镇大西街10附近,清徐县,太原市,112.266895,37.600156,爱玛电动车,山西省
东冶镇聚贝商场南,五台县,忻州市,113.153419,38.644393,爱玛电动车,山西省
南樊镇曲绛线南樊家和购物广场,绛县,运城市,111.611974,35.603906,爱玛电动车,山西省
城南路南50米,平遥县,晋中市,112.227863,37.101730,爱玛电动车,山西省
西关街与西环南街交叉口西北100米,浮山县,临汾市,111.842985,35.973271,爱玛电动车,山西省
红旗路与058乡道交叉口西南100米,尧都区,临汾市,111.555846,36.185394,爱玛电动车,山西省
迎宾街与飞虹路交叉口东50米,黎城县,长治市,113.317976,36.456757,爱玛电动车,山西省
十字南街东50米,泽州县,晋城市,112.800730,35.462252,爱玛电动车,山西省
凤凰街南50米,长子县,长治市,112.777234,36.096658,爱玛电动车,山西省
慈林镇布村227省道东,长子县,长治市,112.936224,36.004120,爱玛电动车,山西省
225省道与226省道交叉口西100米,陵川县,晋城市,113.309202,35.839350,爱玛电动车,山西省
轩岗镇崞五线中国邮政西南100米,原平市,忻州市,112.437742,38.905139,爱玛电动车,山西省
甘亭镇商业街,洪洞县,临汾市,111.612389,36.182076,爱玛电动车,山西省
新华街荣霞相框对面,灵丘县,大同市,114.242182,39.440040,爱玛电动车,山西省
新建路西50米,朔城区,朔州市,112.553340,39.370726,爱玛电动车,山西省
914县道中国农业银行东南90米,清徐县,太原市,112.521402,37.557562,爱玛电动车,山西省
816县道与237省道交叉口旁,临猗县,运城市,110.512016,35.230568,爱玛电动车,山西省
108国道明姜镇委西南350米,洪洞县,临汾市,111.731910,36.333970,爱玛电动车,山西省
新建路与秀容街交叉口东150米,岚县,吕梁市,111.680490,38.279667,爱玛电动车,山西省
丰裕小区东南(新兰路南),尖草坪区,太原市,112.508476,37.993266,爱玛电动车,山西省
108国道东50米,原平市,忻州市,112.751122,38.886965,爱玛电动车,山西省
青年东路和阎家巷的交叉口,山阴县,朔州市,112.828899,39.521451,爱玛电动车,山西省
五一街药材公司北楼楼下,平陆县,运城市,111.215483,34.838219,爱玛电动车,山西省
皇埝线与812县道交叉口西北100米,万荣县,运城市,110.875052,35.338386,爱玛电动车,山西省
台运线和033乡道的交汇处附近,盐湖区,运城市,110.934241,35.145085,爱玛电动车,山西省
新城西街75,平鲁区,朔州市,112.284041,39.514729,爱玛电动车,山西省
028乡道与843县道交叉口西南200米,闻喜县,运城市,111.362053,35.340348,爱玛电动车,山西省
涧桥南路东50米,洪洞县,临汾市,111.665722,36.225090,爱玛电动车,山西省
滨河路124号附近,吉县,临汾市,110.676719,36.091431,爱玛电动车,山西省
府东南路95号,潞城区,长治市,113.230568,36.327873,爱玛电动车,山西省
东太路与商贸街交叉口西南150米,盂县,阳泉市,113.078451,38.180862,爱玛电动车,山西省
真武路92附近,小店区,太原市,112.576134,37.740815,爱玛电动车(康园店),山西省
体育路西50米,小店区,太原市,112.568755,37.833424,爱玛电动车(体育路),山西省
体育路与王村南街交叉口西北角119号,小店区,太原市,112.568808,37.831312,爱玛电动车(山西省体育中心家属院东南),山西省
长风街68号33所,小店区,太原市,112.582126,37.817314,爱玛电动车(长风街),山西省
广宣街与百纺路交叉口西北100米,尧都区,临汾市,111.528694,36.090508,爱玛电动车(向阳路店),山西省
花园路西21号,榆次区,晋中市,112.745383,37.683279,爱玛电动车(颐景新城东区东),山西省
北新街与开发南路交叉口北150米(国家外汇管理局朔州市支局南),朔城区,朔州市,112.435819,39.323936,爱玛电动车(开发南路),山西省
郝庄镇双塔北路春天广场对面,迎泽区,太原市,112.594530,37.849828,爱玛电动车(春天广场店),山西省
和平南路127号附近,万柏林区,太原市,112.511680,37.845855,爱玛电动车(和平南路店),山西省
梅园西街(陵川国土资源局南),陵川县,晋城市,113.276854,35.773215,爱玛电动车(陵川县国土资源局南),山西省
人民南路20号,小店区,太原市,112.569067,37.731061,爱玛电动车(人民南路店),山西省
经园路23号,迎泽区,太原市,112.612333,37.861469,爱玛电动车(经园路店),山西省
解放路162号(山西省工会小区东),杏花岭区,太原市,112.562187,37.882921,爱玛电动车(太原旗舰店),山西省
小王村大王路万搏摩托电动车市场B区136号,万柏林区,太原市,112.526086,37.836498,爱玛电动车(万博店),山西省
风陵渡镇摩托街爱玛专卖店,芮城县,运城市,110.321121,34.639651,爱玛电动车（风陵渡）,山西省
爱普科技北50米(步行南街西),侯马市,临汾市,111.382910,35.624848,爱玛电动车(侯马旗舰店),山西省
建设路口狄村街十字路口红海湾斜对面,迎泽区,太原市,112.585707,37.847551,爱玛电动车(建设南路店),山西省
平阳路125号(怡安装饰广场),小店区,太原市,112.550904,37.804377,爱玛电动车(平阳路怡安装饰广场),山西省
体育路西200米,小店区,太原市,112.567124,37.800096,爱玛电动车(开元市场),山西省
庆云街1号,小店区,太原市,112.584843,37.741859,爱玛电动车(海棠家园店),山西省
尚武南路与新建东街交叉口西100米,灵石县,晋中市,111.798249,36.856589,爱玛电动车(灵石总代理),山西省
南沙河南沿岸与双塔北路交叉口西100米,迎泽区,太原市,112.590386,37.846755,爱玛电动车(南坪头店),山西省
王郭村村委员会,晋源区,太原市,112.439303,37.679269,爱玛电动车(晋祠王郭店),山西省
北中环街入口与大同路交叉口东50米,杏花岭区,太原市,112.547451,37.898782,爱玛电动车(北中环大同路店),山西省
西十二米街正街97号,柳林县,吕梁市,110.897058,37.430746,爱玛电动车(柳林县西十二米街店),山西省
013乡道北50米,怀仁市,朔州市,112.992805,39.753790,爱玛电动车(新家园专卖店),山西省
乾阳街与古城路交叉口东南100米,晋源区,太原市,112.468305,37.720108,爱玛电动车(晋源新区店),山西省
涧河路160号附近,杏花岭区,太原市,112.571145,37.907549,爱玛电动车(动物园店),山西省
黄陵路37号,小店区,太原市,112.607366,37.778458,爱玛电动车(黄陵店),山西省
泫氏西街83号,高平市,晋城市,112.926463,35.790234,爱玛电动车(泫氏西街),山西省
222省道与394县道交叉口东100米,平遥县,晋中市,111.984175,37.235352,爱玛电动车(022乡道),山西省
相如路102号附近,古县,临汾市,111.916068,36.264355,爱玛电动车(康宁小区西),山西省
北王村,尧都区,临汾市,111.597245,36.094863,爱玛电动车(049乡道),山西省
郝庄正街精品商厦后门往西100米,迎泽区,太原市,112.593233,37.853467,爱玛电动车(服装城店),山西省
文昌东街与文昌西街交叉口东南150米,灵石县,晋中市,111.877498,36.891605,爱玛电动车(清文专卖店),山西省
迎宾路永泰花园,孝义市,吕梁市,111.790728,37.117703,爱玛电动车(永泰花园店),山西省
和平北路与西流南巷交叉口西50米,万柏林区,太原市,112.509568,37.888925,爱玛电动车(和平北路),山西省
开发街76号附近,交口县,吕梁市,111.511241,36.906786,爱玛电动车(双池中心卫生院西南),山西省
东镇甘泉摩托城,闻喜县,运城市,111.313370,35.432343,爱玛电动车(甘泉市场店),山西省
湖滨路封家峪小区南门,孝义市,吕梁市,111.768322,37.111895,爱玛电动车(朝阳街店),山西省
襄侯线西50米,襄汾县,临汾市,111.364291,35.725881,爱玛电动车(永固店),山西省
娄烦二中往东200米,娄烦县,太原市,111.810053,38.072644,爱玛电动车(大京线),山西省
京原南路西50米,原平市,忻州市,112.719721,38.727811,爱玛电动车(原平市经济普查办公室西),山西省
新城镇丁陶大卖场北外围,襄汾县,临汾市,111.427166,35.881986,爱玛电动车(党校北院西),山西省
民觉路与秀容街交叉口北100米,岚县,吕梁市,111.676602,38.273885,爱玛电动车(秀容街),山西省
供销街16号附近,五台县,忻州市,113.261850,38.721929,爱玛电动车(西米市街店),山西省
凤城镇东门外旧富康小区对面,文水县,吕梁市,112.043024,37.436537,爱玛电动车(则天大街店),山西省
006乡道与207国道交叉口东北150米,昔阳县,晋中市,113.706110,37.589901,爱玛电动车(006乡道店),山西省
万寿东街与万寿街交叉口南50米,左权县,晋中市,113.378779,37.079896,爱玛电动车(辽山路店),山西省
侯安线与334省道交叉口北50米,闻喜县,运城市,111.333953,35.448791,爱玛电动车(侯安线),山西省
001乡道与336省道交叉口西150米,永济市,运城市,110.689586,34.864624,爱玛电动车(清华卫生院西),山西省
034乡道与337省道交叉口东150米,芮城县,运城市,110.431895,34.666940,爱玛电动车(阳城老文专卖),山西省
北街与桥南路交叉口东50米,黎城县,长治市,113.387375,36.503733,爱玛电动车(桥南路店),山西省
020乡道与222省道交叉口北100米附近,沁源县,长治市,112.264296,36.742534,爱玛电动车(020乡道店),山西省
府后街与309国道交叉口东50米,安泽县,临汾市,112.247916,36.148505,爱玛电动车(安泽县财政局西北),山西省
下前线与108国道交叉口西150米,新绛县,运城市,111.109731,35.601848,爱玛电动车(029乡道店),山西省
208国道西50米,山阴县,朔州市,112.828104,39.597262,爱玛电动车(周庄专卖店),山西省
南熏街6号楼5号6号底商,汾阳市,吕梁市,111.780414,37.260826,爱玛电动车(汾阳总店),山西省
新华东街与013乡道交叉口南150米,吉县,临汾市,110.687425,36.110137,爱玛电动车(金叶小区南),山西省
224省道东50米,交口县,吕梁市,111.478765,36.984455,爱玛电动车(子巷村办公楼东南),山西省
016乡道与239省道交叉口西100米,盐湖区,运城市,110.839428,34.948400,爱玛电动车(016乡道),山西省
职工医院对面,新绛县,运城市,111.235775,35.615833,爱玛电动车(临夏线),山西省
千峰北路与和平北路北巷交叉口北100米,尖草坪区,太原市,112.517661,37.895753,爱玛电动车(千峰北路店),山西省
迎宾西街52号,五寨县,忻州市,111.838546,38.917629,爱玛电动车(五寨店),山西省
232省道南50米,新绛县,运城市,111.127658,35.506155,爱玛电动车(新绛县农业技术推广站东),山西省
008乡道与840县道交叉口东北150米,夏县,运城市,111.293049,35.223879,爱玛电动车(南大里乡人民政府西南),山西省
新城镇玉林东街农业银行对面,右玉县,朔州市,112.470249,39.988540,爱玛电动车(新城镇店),山西省
定中线附近,沁水县,晋城市,111.995920,35.563538,爱玛电动车(中村专卖店),山西省
八芹线与芹张线交叉口西150米,阳城县,晋城市,112.333081,35.601551,爱玛电动车(芹池镇人民政府西),山西省
河西路地税局斜对面,永和县,临汾市,110.630672,36.755431,爱玛电动车(河西路店),山西省
005乡道(小梁供销社日用品超市南侧路对面),河津市,运城市,110.699642,35.511186,爱玛电动车(小梁乡品牌店),山西省
207国道东50米,高平市,晋城市,112.969689,35.842817,爱玛电动车(三甲国土资源所南),山西省
汾河大街与西林路交叉口东50米,静乐县,忻州市,111.938794,38.355637,爱玛电动车(静乐专卖店),山西省
昌宁镇文笔路二中背后,乡宁县,临汾市,110.847913,35.968397,爱玛电动车(乡宁认定店),山西省
238省道与811县道交叉口东北150米,临猗县,运城市,110.556730,35.092384,爱玛电动车(青谷专卖店),山西省
畅安路与百灵街交叉口北200米,城区,晋城市,112.902592,35.543035,爱玛电动车(岚郡银河北),山西省
奇村镇奇村客运站西,忻府区,忻州市,112.614092,38.537057,爱玛电动车(奇村店),山西省
希望街与晋铝西路交叉口西南50米,河津市,运城市,110.672917,35.639979,爱玛电动车(晋铝西路),山西省
迎泽街37号,尧都区,临汾市,111.632434,36.117270,爱玛电动车(海刚车行),山西省
东北街与新安东街交叉口东北150米,阳曲县,太原市,112.679027,38.061968,爱玛电动车(城东路店),山西省
金牛大街16号,古交市,太原市,112.167743,37.913505,爱玛电动车(金牛大街),山西省
云中镇仁里路28号,怀仁市,朔州市,113.098525,39.827200,爱玛电动车(仁里北路),山西省
013乡道与015乡道交叉口西北100米,万荣县,运城市,110.707350,35.458855,爱玛电动车(小梁专卖店),山西省
334省道西50米(绛县横水中心医院东北),绛县,运城市,111.660147,35.510538,爱玛电动车(025乡道店),山西省
334省道(绛县横水中心医院东北),绛县,运城市,111.461539,35.470997,爱玛电动车(绛县横水中心医院东北),山西省
828县道(永济市开张镇财政管理所西),永济市,运城市,110.554151,34.947868,爱玛电动车(中共开张镇委员会西),山西省
804县道与808县道交叉口西南50米,万荣县,运城市,110.815861,35.479949,爱玛电动车(里望乡人民政府东),山西省
811县道东50米,万荣县,运城市,110.623917,35.290142,爱玛电动车(青谷专卖店),山西省
文庙北路18号甲附近,新绛县,运城市,111.230309,35.614239,爱玛电动车(服务中心),山西省
028乡道西50米,平陆县,运城市,111.021345,34.779060,爱玛电动车(028乡道店),山西省
021乡道与805县道交叉口东100米,稷山县,运城市,110.885162,35.656511,爱玛电动车(021乡道店),山西省
814县道(荣河镇人民政府北),万荣县,运城市,110.551984,35.357146,爱玛电动车(中共荣河镇委员会北),山西省
赵东路与010乡道交叉口东100米,河津市,运城市,110.775873,35.618815,爱玛电动车(赵家庄专卖店),山西省
大峪沟新民焦电对面,临县,吕梁市,110.988491,37.855351,爱玛电动车(中共临县大禹乡委员会北),山西省
太和北路宝岛眼镜旁,临县,吕梁市,110.994058,37.956895,爱玛电动车(太和北路店),山西省
中和路与新安街交叉口南200米,孝义市,吕梁市,111.811640,37.133651,爱玛电动车(楼西东城华府东南),山西省
水头镇迎宾街交警队对面,交口县,吕梁市,111.189180,36.981962,爱玛电动车(交口专卖),山西省
贺昌大街100号,柳林县,吕梁市,110.898866,37.432170,爱玛电动车(贺昌大街店),山西省
新建西路与环城公路交叉口东北150米,兴县,吕梁市,111.116226,38.468717,爱玛电动车(006乡道店),山西省
图书馆对面,方山县,吕梁市,111.242601,37.894756,爱玛电动车(方正街店),山西省
赵城西环路线东200米,洪洞县,临汾市,111.679863,36.384256,爱玛电动车(赵城店),山西省
霍侯一级公路西50米,襄汾县,临汾市,111.464334,35.992181,爱玛电动车(邓庄镇卫生院张礼分院西南),山西省
新建路84号,隰县,临汾市,110.933672,36.690623,爱玛电动车(新建南路店),山西省
西街29号附近,大宁县,临汾市,110.747475,36.463360,爱玛电动车(西街),山西省
西大街附近,汾西县,临汾市,111.552258,36.655876,爱玛电动车(西大街店),山西省
兴隆东街26幢附近,曲沃县,临汾市,111.478559,35.642558,爱玛电动车(兴隆东街店),山西省
黑龙关镇电影院,蒲县,临汾市,111.260119,36.283948,爱玛电动车(迎宾西街),山西省
泫氏西街82号一中斜对面,高平市,晋城市,112.926620,35.790191,爱玛电动车(泫氏西街店),山西省
上村镇北大门,屯留区,长治市,113.004639,36.325366,爱玛电动车(屯留美特好上村专卖店),山西省
人民路105号,沁县,长治市,112.697783,36.758753,爱玛电动车(人民路),山西省
获壁街68号,屯留区,长治市,112.892029,36.312786,爱玛电动车(获壁街店),山西省
326省道(宋村国土所东),长子县,长治市,112.967242,36.141496,爱玛电动车(宋村国土所东),山西省
丹朱东街5号(近丹朱东街),长子县,长治市,112.888360,36.112082,爱玛电动车(丹朱东街店),山西省
102省道南50米,太谷县,晋中市,112.792131,37.483508,爱玛电动车(范村分店),山西省
昭馀镇新建南路162号,祁县,晋中市,112.330745,37.350170,爱玛电动车(新建南路店),山西省
003乡道与320省道交叉口西北50米,祁县,晋中市,112.311332,37.355986,爱玛电动车(003乡道),山西省
城区管理委员会迎春北路42号,榆社县,晋中市,112.972904,37.073392,爱玛电动车(迎春北路店),山西省
秀水镇金龙街4号楼,盂县,阳泉市,113.416356,38.084448,爱玛电动车(秀水东街店),山西省
西关街路,浑源县,大同市,113.687397,39.697574,爱玛电动车(永安西街店),山西省
大南街181号,阳高县,大同市,113.756116,40.364327,爱玛电动车(大西街),山西省
新兰路与汾泉路交叉口东北150米,尖草坪区,太原市,112.444544,38.006832,爱玛电动车(龙山大街),山西省
文源路中段82,清徐县,太原市,112.350316,37.606613,爱玛电动车(清徐旗舰店),山西省
京原南路与青年街交叉口西100米,原平市,忻州市,112.717588,38.721979,爱玛电动车(青年街),山西省
京原南路2180号附近(原平市经济普查办公室西),原平市,忻州市,112.719174,38.725782,爱玛电动车(怡康园南),山西省
古马线东50米,山阴县,朔州市,112.937130,39.441642,爱玛电动车(古城镇专卖店),山西省
前进路与青龙巷交叉口东北50米,城区,晋城市,112.836512,35.500069,爱玛电动车(新市西街),山西省
解放路162号(山西省工会小区东),杏花岭区,太原市,112.562146,37.882342,爱玛电动车(山西省工会小区东),山西省
红星东街与207国道交叉口南50米,泽州县,晋城市,112.897900,35.495686,爱玛电动车(富士康专卖店),山西省
梅辉坡巷与炉坊巷交叉口南100米,潞州区,长治市,113.109792,36.180303,爱玛电动车(英雄南路),山西省
东门街与城中街交叉口东南50米,定襄县,忻州市,112.960401,38.489035,爱玛电动车(元安小区西南),山西省
洞宾西街与西矿路交叉口西100米,芮城县,运城市,110.682549,34.697054,爱玛电动车(邮政大楼东),山西省
五槐路与青龙大街交叉口西南100米,柳林县,吕梁市,110.914272,37.440786,爱玛电动车(青龙大街店),山西省
许坦东街御警苑小区4号楼803号,小店区,太原市,112.615036,37.801194,爱玛电动车(许坦东街店),山西省
东华门街与石头街交叉口东北100米,潞州区,长治市,113.109474,36.179775,爱玛电动车(园丁公寓西),山西省
新市西街1525号,城区,晋城市,112.837281,35.499372,爱玛电动车(新市西街),山西省
新建南路10号,忻府区,忻州市,112.742360,38.406785,爱玛电动车(新建南路),山西省
绿色都城房产大厦(上西关街北),平遥县,晋中市,112.160811,37.195933,爱玛电动车(上西关街店),山西省
新耿街与莲池路交叉口东100米,河津市,运城市,110.712390,35.585355,爱玛电动车(莲池路店),山西省
东关路与李家胡同交叉口东100米,尧都区,临汾市,111.529450,36.077424,爱玛电动车(东关路店),山西省
北街锦绣花城(南区西北门)附近,盐湖区,运城市,110.991934,35.048265,爱玛电动车(幸福庄北巷),山西省
英雄中路13号,潞州区,长治市,113.118988,36.201662,爱玛电动车(长治市潞州区总专卖店),山西省
鑫迎宾宾馆西北(禹都东街北),盐湖区,运城市,111.024796,35.051462,爱玛电动车(西片社区卫生服务站南),山西省
振兴东街与文公南路交叉口东150米,绛县,运城市,111.583648,35.491307,爱玛电动车(振兴东街店),山西省
双塔南路696号(临猗县交通局南),临猗县,运城市,110.777512,35.137853,爱玛电动车(临猗县交通局南),山西省
凤凰南路36号,盐湖区,运城市,110.996329,35.016014,爱玛电动车(凤凰路店),山西省
建设南街39号,离石区,吕梁市,111.146394,37.516991,爱玛电动车(建设街店),山西省
新义街574-1号,孝义市,吕梁市,111.774133,37.141773,爱玛电动车(孝义旗舰店),山西省
八一南路与红旗街交叉口南50米,翼城县,临汾市,111.705082,35.741262,爱玛电动车(红旗街),山西省
天河电子城,侯马市,临汾市,111.382942,35.624369,爱玛电动车(侯马4S店),山西省
体育南街49号,尧都区,临汾市,111.514909,36.075721,爱玛电动车(体育南街店),山西省
平阳南街96号,尧都区,临汾市,111.521698,36.071466,爱玛电动车(临汾旗舰店),山西省
食品街1号,沁水县,晋城市,112.191498,35.690508,爱玛电动车(东关街店),山西省
新市西街1547号,城区,晋城市,112.836784,35.498569,爱玛电动车(前进路店),山西省
体育路与北河沿街交叉口西北150米,介休市,晋中市,111.913597,37.030508,爱玛电动车(北河沿街店),山西省
新建西路永安大厦1层,介休市,晋中市,111.920862,37.020924,爱玛电动车(新建西路),山西省
平泉路与泉落路交叉口西北50米(平泉路西),云冈区,大同市,113.168024,39.998042,爱玛电动车(大同友好专营店),山西省
光明东街与古楼广场交叉口西150米,忻府区,忻州市,112.740796,38.403546,爱玛电动车(秀容东街店),山西省
敦化南路顶好电动车交易市场中通道,杏花岭区,太原市,112.590480,37.885363,爱玛,山西省
人民路沁源春景小区西门对面,沁源县,长治市,112.342730,36.493397,爱玛(沁源店),山西省
通达街136附近,小店区,太原市,112.572935,37.729943,爱玛电动车通达店,山西省
恒山路中国石油火红油站旁,尖草坪区,太原市,112.560588,37.920158,爱玛电动车售后服务,山西省
237省道附近,万荣县,运城市,110.841620,35.419347,爱玛电动车服务中心(新建北路店),山西省
昌宁街与永泰南路交叉口西南100米,平城区,大同市,113.301879,40.050977,东信爱玛电动车,山西省
837县道建华家具商场旁,夏县,运城市,111.119140,35.235949,天能电池爱玛电动车,山西省
西里村,稷山县,运城市,110.979723,35.508998,西里爱玛电动车,山西省
232省道西50米,闻喜县,运城市,111.157700,35.448281,爱玛电动车凹底销售店,山西省
京原南路79附近,原平市,忻州市,112.718618,38.723527,爱玛三轮车原平总经销,山西省
解放北路太钢二十小区,尖草坪区,太原市,112.563646,37.915885,爱玛运动自行车体验店(尖草坪街),山西省
阳明堡汽车站爱玛总经销,代县,忻州市,112.875347,39.014885,爱玛专卖(阳明堡店),山西省
古韩镇西街襄垣宾馆附近,襄垣县,长治市,113.042632,36.534769,爱玛山地车小岛电动车,山西省
如意开发区内蒙古呼和浩特前不塔气村军悦酒店往南500米路东,赛罕区,呼和浩特市,111.788333,40.844181,爱玛电动车,内蒙古自治区
包百商业步行街与青年路交叉口东150米,昆都仑区,包头市,109.818230,40.664509,爱玛电动车,内蒙古自治区
康巴什区民族路41栋附近,康巴什区,鄂尔多斯市,109.786905,39.614306,爱玛电动车,内蒙古自治区
鄂尔多斯大街聚能大厦,康巴什区,鄂尔多斯市,109.802250,39.606280,爱玛电动车,内蒙古自治区
毫沁营路东50米,新城区,呼和浩特市,111.719352,40.874912,爱玛电动车,内蒙古自治区
人民路与甘德尔街交叉口北150米,海勃湾区,乌海市,106.820071,39.665081,爱玛电动车,内蒙古自治区
兴安西街2付7号附近,海拉尔区,呼伦贝尔市,119.741961,49.216177,爱玛电动车,内蒙古自治区
树贵路与阿拉腾路交叉口南50米,阿拉善右旗,阿拉善盟,101.675352,39.209471,爱玛电动车,内蒙古自治区
棋盘井大街与阿尔寨路交叉口西北150米,鄂托克旗,鄂尔多斯市,107.019528,39.379404,爱玛电动车,内蒙古自治区
无,临河区,巴彦淖尔市,107.497841,40.821275,爱玛电动车,内蒙古自治区
赤水线北50米,松山区,赤峰市,118.990794,42.342446,爱玛电动车,内蒙古自治区
天山线北50米,宁城县,赤峰市,119.141313,41.529494,爱玛电动车,内蒙古自治区
白安线,松山区,赤峰市,119.345781,42.433619,爱玛电动车,内蒙古自治区
文化路32号附近,四子王旗,乌兰察布市,111.692836,41.525976,爱玛电动车,内蒙古自治区
106乡道与463县道交叉口东北200米,科尔沁左翼中旗,通辽市,121.701226,44.040657,爱玛电动车,内蒙古自治区
西西线与230县道交叉口西50米,喀喇沁旗,赤峰市,119.135824,41.862828,爱玛电动车,内蒙古自治区
皇明一切皆可太阳能(景泉街),宁城县,赤峰市,118.749291,41.507511,爱玛电动车,内蒙古自治区
427县道南50米,科尔沁右翼中旗,兴安盟,121.486993,45.055422,爱玛电动车,内蒙古自治区
轩商务宾馆(卓资中学北),卓资县,乌兰察布市,112.573908,40.900045,爱玛电动车,内蒙古自治区
110国道南50米,临河区,巴彦淖尔市,107.491928,40.813118,爱玛电动车,内蒙古自治区
兴隆街与友谊路交叉口东50米,宁城县,赤峰市,119.332830,41.594520,爱玛电动车,内蒙古自治区
东一环附近,锡林浩特市,锡林郭勒盟,116.109234,43.942559,爱玛电动车,内蒙古自治区
111国道东50米,松山区,赤峰市,119.164425,42.354110,爱玛电动车,内蒙古自治区
团结新村C019,海勃湾区,乌海市,106.794483,39.813295,爱玛电动车,内蒙古自治区
上湾村金龙路人寿保险对面,伊金霍洛旗,鄂尔多斯市,110.192764,39.293475,爱玛电动车,内蒙古自治区
乌兰镇天荣大酒店东十字街,鄂托克旗,鄂尔多斯市,107.988222,39.095794,爱玛电动车,内蒙古自治区
和盛路与红旗街交叉口东100米,和林格尔县,呼和浩特市,111.832216,40.381189,爱玛电动车,内蒙古自治区
乌兰大街与交通路交叉口西150米,乌拉特中旗,巴彦淖尔市,108.519987,41.564902,爱玛电动车,内蒙古自治区
131乡道北50米,科尔沁左翼后旗,通辽市,123.568999,43.382845,爱玛电动车,内蒙古自治区
百灵路,杭锦旗,鄂尔多斯市,108.724801,39.841338,爱玛电动车,内蒙古自治区
八仙筒镇中学南250米,奈曼旗,通辽市,121.056475,43.216582,爱玛电动车,内蒙古自治区
大杨树镇甘奎路北,鄂伦春自治旗,呼伦贝尔市,124.604882,49.747865,爱玛电动车,内蒙古自治区
110国道西50米,鄂托克旗,鄂尔多斯市,106.757090,39.927174,爱玛电动车,内蒙古自治区
黄花山镇,扎鲁特旗,通辽市,121.225259,44.651178,爱玛电动车,内蒙古自治区
兴元路与赤元线交叉口西南100米,元宝山区,赤峰市,119.294541,42.304518,爱玛电动车,内蒙古自治区
203国道与464县道交叉口西南150米,科尔沁左翼后旗,通辽市,123.501216,43.124280,爱玛电动车,内蒙古自治区
呼格吉路与新宝拉格街交叉口西南100米,镶黄旗,锡林郭勒盟,113.844623,42.238693,爱玛电动车,内蒙古自治区
和平路与西市路交叉口东50米,阿鲁科尔沁旗,赤峰市,120.088445,43.880281,爱玛电动车,内蒙古自治区
306国道东50米,克什克腾旗,赤峰市,118.358785,43.102041,爱玛电动车,内蒙古自治区
大板街南50米,巴林右旗,赤峰市,118.686167,43.527190,爱玛电动车,内蒙古自治区
安宁巷与解放路交叉口东北50米,察哈尔右翼前旗,乌兰察布市,113.213742,40.785623,爱玛电动车,内蒙古自治区
哈撒尔路18附近,额尔古纳市,呼伦贝尔市,120.176597,50.247337,爱玛电动车,内蒙古自治区
乌力吉街与赛乌素路交叉口东100米,乌拉特后旗,巴彦淖尔市,107.077865,41.090003,爱玛电动车,内蒙古自治区
雄鹏北800米大众书店隔壁,准格尔旗,鄂尔多斯市,111.231027,39.869109,爱玛电动车,内蒙古自治区
明达商业广场5A号-8,海南区,乌海市,106.883416,39.439120,爱玛电动车,内蒙古自治区
上都北路与医院北巷交叉口南150米,多伦县,锡林郭勒盟,116.475150,42.197082,爱玛电动车,内蒙古自治区
团结大街与建设路交叉口东150米,东乌珠穆沁旗,锡林郭勒盟,118.835747,45.717707,爱玛电动车,内蒙古自治区
农林巷与新风路交叉口西50米,商都县,乌兰察布市,113.552813,41.559888,爱玛电动车,内蒙古自治区
中国农业银行(巴音陶亥分理处)附近,海南区,乌海市,106.872953,39.154308,爱玛电动车,内蒙古自治区
宝威创业商厦对面,固阳县,包头市,110.064539,41.031186,爱玛电动车,内蒙古自治区
沙河街富康小区13号,九原区,包头市,109.960365,40.603130,爱玛电动车九原区专卖店,内蒙古自治区
三道街62-3号附近,红山区,赤峰市,118.962145,42.279308,爱玛电动车(三道西街店),内蒙古自治区
巴彦浩特镇腾格里路010-5号,阿拉善左旗,阿拉善盟,105.671958,38.831762,爱玛电动车(吉兰泰路一巷店),内蒙古自治区
中心西街与民族路交叉口东北100米,扎赉特旗,兴安盟,122.906893,46.721798,爱玛电动车(三江百货购物广场东北),内蒙古自治区
无,乌达区,乌海市,106.713086,39.516626,爱玛电动车(乌达店),内蒙古自治区
林荫巷与阿勒腾席热路交叉口南100米(阿勒腾席热路西),伊金霍洛旗,鄂尔多斯市,109.754868,39.569479,爱玛电动车(阿勒腾席热路店),内蒙古自治区
城关镇永安西街民族幼儿园,清水河县,呼和浩特市,111.667992,39.916940,爱玛电动车(永安西街),内蒙古自治区
振兴路(宝恒小区东北),霍林郭勒市,通辽市,119.655791,45.532947,爱玛电动车(宝恒小区东北),内蒙古自治区
尼尔基镇同安医院对面,莫力达瓦达斡尔族自治旗,呼伦贝尔市,124.491297,48.474504,爱玛电动车(和平路),内蒙古自治区
大南街附近,土默特右旗,包头市,110.519683,40.549769,爱玛电动车(大南街店),内蒙古自治区
公园路与巴音赛街交叉口东150米,乌达区,乌海市,106.724187,39.499402,爱玛电动车(乌达二店),内蒙古自治区
新华街,四子王旗,乌兰察布市,111.698489,41.522443,爱玛电动车(四子王旗交通局东),内蒙古自治区
五化镇宋三家村,宁城县,赤峰市,119.270734,41.358724,爱玛电动车(中共宁城县五化镇委员会西北),内蒙古自治区
306国道东50米,宁城县,赤峰市,118.993292,41.770494,爱玛电动车(宁城县小城子镇卫生院西南),内蒙古自治区
206省道西50米,喀喇沁旗,赤峰市,118.793232,42.107815,爱玛电动车(喀旗二院东北),内蒙古自治区
南区三道街馨苑小区1号楼2号,满洲里市,呼伦贝尔市,117.455838,49.580782,爱玛电动车(馨苑小区店),内蒙古自治区
怀远南路与581县道交叉口西北150米,察哈尔右翼前旗,乌兰察布市,113.135173,40.933128,爱玛电动车(平地泉专卖店),内蒙古自治区
人民路83号,土默特左旗,呼和浩特市,111.133775,40.716793,爱玛电动车(土默特左旗房产管理所西北),内蒙古自治区
中山北路与隆兴昌东街交叉口西南100米,五原县,巴彦淖尔市,108.275914,41.100866,爱玛电动车(隆兴昌东街),内蒙古自治区
广通路与新民街交叉口西50米,和林格尔县,呼和浩特市,111.816256,40.378695,爱玛电动车(广通路),内蒙古自治区
红卫中路东50米,乌拉特前旗,巴彦淖尔市,108.653366,40.725086,爱玛电动车(红卫中路),内蒙古自治区
111国道南50米,红山区,赤峰市,119.078879,42.307446,爱玛电动车(赤元线店),内蒙古自治区
巴彦查干西街与查干淖尔南路交叉口西北50米,阿巴嘎旗,锡林郭勒盟,114.963853,44.019213,爱玛电动车(阿巴嘎西街店),内蒙古自治区
察哈尔大街与巴音路交叉口北200米,察哈尔右翼中旗,乌兰察布市,112.630914,41.276728,爱玛电动车(中旗专卖店),内蒙古自治区
盛乐经济工业园区路华枫学校对面,和林格尔县,呼和浩特市,111.774861,40.480648,爱玛电动车(蒙牛专卖店),内蒙古自治区
温州商业街与迎宾路交叉口东北150米,丰镇市,乌兰察布市,113.159805,40.439342,爱玛电动车(温州商业街店),内蒙古自治区
兴盛路与阜顺街交叉口东150米,兴和县,乌兰察布市,113.833487,40.873423,爱玛电动车(兴和专卖店),内蒙古自治区
巴彦呼舒镇金润小区门市,科尔沁右翼中旗,兴安盟,121.472266,45.060975,爱玛电动车(巴彦呼舒大街店),内蒙古自治区
友谊路与恐龙大街交叉口西北150米,二连浩特市,锡林郭勒盟,111.989918,43.650085,爱玛电动车(友谊路),内蒙古自治区
罕乌拉路与道劳德街交叉口东南100米,东乌珠穆沁旗,锡林郭勒盟,116.969026,45.511817,爱玛电动车(道劳德街店),内蒙古自治区
乌宁巴图东街与育才路交叉口西150米,正镶白旗,锡林郭勒盟,115.006197,42.311064,爱玛电动车(乌宁巴图东街店),内蒙古自治区
建设南街,太仆寺旗,锡林郭勒盟,115.283674,41.887873,爱玛电动车(紫金花园西南),内蒙古自治区
杭盖路与脑穆根街交叉口东南200米,苏尼特右旗,锡林郭勒盟,112.657960,42.741354,爱玛电动车(杭盖路),内蒙古自治区
东风路2号,磴口县,巴彦淖尔市,107.011817,40.329374,爱玛电动车(和平路),内蒙古自治区
陕坝镇陕坝二运东侧,杭锦后旗,巴彦淖尔市,107.147010,40.882232,爱玛电动车(福林家园西北),内蒙古自治区
三段地路,鄂托克前旗,鄂尔多斯市,107.481933,38.187598,爱玛电动车(苏力迪东街),内蒙古自治区
内环西路北50米,元宝山区,赤峰市,119.294686,42.037410,爱玛电动车(内环西路店),内蒙古自治区
207省道东50米,宁城县,赤峰市,118.838497,41.414801,爱玛电动车(甸子供销社东北),内蒙古自治区
牛营子镇本街,喀喇沁旗,赤峰市,118.707085,41.926447,爱玛电动车(喀喇沁旗一建卫生所西北),内蒙古自治区
205省道与304乡道交叉口西50米,翁牛特旗,赤峰市,118.913861,42.611512,爱玛电动车(桥头村卫生室东北),内蒙古自治区
307省道西50米,巴林左旗,赤峰市,119.283362,44.269449,爱玛电动车(杨家营子卫生院西南),内蒙古自治区
新华街121号,翁牛特旗,赤峰市,119.031261,42.935734,爱玛电动车(翁牛特旗卫生局东),内蒙古自治区
天平线附近,宁城县,赤峰市,119.264286,41.794914,爱玛电动车(天平线店),内蒙古自治区
明仁街与民族路交叉口南100米,开鲁县,通辽市,121.308873,43.598283,爱玛电动车(开东线),内蒙古自治区
团结路与建设大街交叉口东100米,科尔沁左翼中旗,通辽市,123.311029,44.128882,爱玛电动车(文明路店),内蒙古自治区
农林路附近,察哈尔右翼后旗,乌兰察布市,113.188304,41.447051,爱玛电动车(农林路),内蒙古自治区
金三角路东侧,化德县,乌兰察布市,114.013447,41.892724,爱玛电动车(二完小北路店),内蒙古自治区
宣德街与新华路交叉口东北100米,凉城县,乌兰察布市,112.500373,40.526338,爱玛电动车(凉城县粮食局西),内蒙古自治区
公园路与巴音赛街交叉口东南100米,乌达区,乌海市,106.723430,39.498931,爱玛电动车(乌达旗舰店),内蒙古自治区
吉祥路与百灵大街交叉口西南100米,达尔罕茂明安联合旗,包头市,110.443907,41.701738,爱玛电动车(达茂店),内蒙古自治区
河西路(巴彦镇环卫管理站西),赛罕区,呼和浩特市,111.830854,40.863855,爱玛电动车(巴彦镇环卫管理站西),内蒙古自治区
云中中路西50米,托克托县,呼和浩特市,111.199708,40.275784,爱玛电动车(托克托县农牧业局西南),内蒙古自治区
盛乐镇盛乐街路北维多利往北20米,和林格尔县,呼和浩特市,111.824263,40.379432,爱玛电动车(盛乐街),内蒙古自治区
市场南路与影视西街交叉口北100米,武川县,呼和浩特市,111.458020,41.094505,爱玛电动车(市场南路店),内蒙古自治区
白云鄂博路与长青道交叉口西南100米,昆都仑区,包头市,109.810634,40.648866,爱玛自行车,内蒙古自治区
新华大街335附近,新城区,呼和浩特市,111.703370,40.830074,爱玛电动车(新华东街),内蒙古自治区
呼伦贝尔南路与鄂尔多斯大街交叉口东南150米,赛罕区,呼和浩特市,111.688103,40.799353,爱玛电动车(呼伦贝尔南路),内蒙古自治区
206省道东50米,喀喇沁旗,赤峰市,118.865285,42.225422,爱玛电动车(宝鸽三轮车),内蒙古自治区
五一南大路20号包商银行西侧,乌兰浩特市,兴安盟,122.076197,46.071378,爱玛电动车(五一南路店),内蒙古自治区
鄂尔多斯大街75号附近,玉泉区,呼和浩特市,111.650736,40.793484,爱玛电动车(风荷苑1期东南),内蒙古自治区
解放西街14号附近,临河区,巴彦淖尔市,107.404847,40.766640,爱玛电动车(临河区博爱医院东南),内蒙古自治区
鄂尔多斯大街61附近,玉泉区,呼和浩特市,111.665908,40.794345,爱玛电动车(鄂尔多斯大街),内蒙古自治区
贡格尔街南50米,克什克腾旗,赤峰市,117.546210,43.250940,爱玛电动车(贡格尔街店),内蒙古自治区
石东路办事处鄂尔多斯大街13号石羊桥十字路口西,玉泉区,呼和浩特市,111.664956,40.794117,爱玛电动车(卷烟厂小区南),内蒙古自治区
中山东路23号,新城区,呼和浩特市,111.672938,40.819109,爱玛电动车(中山东路),内蒙古自治区
乌审街,乌审旗,鄂尔多斯市,108.845963,38.592307,爱玛电动车(乌审街店),内蒙古自治区
乃日音希热街与巴彦敖包路交叉口西北150米,正蓝旗,锡林郭勒盟,115.999848,42.247502,爱玛电动车(乃日音希热街店),内蒙古自治区
林城路温州城2号楼4层东北方向24米,牙克石市,呼伦贝尔市,120.736945,49.283561,爱玛电动车(林城路店),内蒙古自治区
中央大街与振宇路交叉口西北50米,阿荣旗,呼伦贝尔市,123.468456,48.130068,爱玛电动车(中央大街店),内蒙古自治区
中央北路87号,扎兰屯市,呼伦贝尔市,122.748063,47.998386,爱玛电动车(立新街),内蒙古自治区
华丰街与团结路交叉口东100米,突泉县,兴安盟,121.560641,45.382214,爱玛电动车(华丰街店),内蒙古自治区
杭盖路458号,锡林浩特市,锡林郭勒盟,116.088710,43.950740,爱玛电动车(锡盟旗舰店),内蒙古自治区
内鄂托克东街8号附19号(五洲大酒店东南),东胜区,鄂尔多斯市,110.002639,39.822284,爱玛电动车(鄂托克东街),内蒙古自治区
树林召大街与长胜路交叉口东南100米,达拉特旗,鄂尔多斯市,110.034733,40.403551,爱玛电动车(树林召大街店),内蒙古自治区
兴隆街附近,宁城县,赤峰市,119.333685,41.594992,爱玛电动车(兴隆街店),内蒙古自治区
新惠镇,敖汉旗,赤峰市,119.904109,42.282285,爱玛电动车(旗舰店),内蒙古自治区
百合家园西门,霍林郭勒市,通辽市,119.658818,45.532504,爱玛电动车(宝恒小区东北),内蒙古自治区
奈曼大街2970号附近,奈曼旗,通辽市,120.655686,42.846691,爱玛电动车(奈曼大街店),内蒙古自治区
交通路756号,科尔沁区,通辽市,122.258186,43.608129,爱玛电动车(交通路店),内蒙古自治区
桥东街道桥东四马路7号楼,集宁区,乌兰察布市,113.104265,41.032415,爱玛电动车(鸿雁街店),内蒙古自治区
南门外街道南门外大街10号包百大楼,东河区,包头市,110.028666,40.579065,爱玛电动车(南门外大街),内蒙古自治区
五黄段300号附近,奈曼旗,通辽市,121.040026,42.619044,金彭电动三轮车(奈曼新镇旗舰店),内蒙古自治区
207省道西50米,宁城县,赤峰市,118.879097,41.634075,宁城爱玛(三座店分店),内蒙古自治区
利民街临河区第五中学校西门对面,临河区,巴彦淖尔市,107.402519,40.755470,临河区爱玛电动车专卖,内蒙古自治区
白山路172-34门附近,于洪区,沈阳市,123.369987,41.856667,爱玛电动车,辽宁省
牡丹江街54号附近,皇姑区,沈阳市,123.419723,41.876890,爱玛电动车,辽宁省
解放路二段72-88号,古塔区,锦州市,121.126268,41.116119,爱玛电动车,辽宁省
辽河南路122号,兴隆台区,盘锦市,122.046442,41.128354,爱玛电动车,辽宁省
海星街道双富市场,鲅鱼圈区,营口市,122.131816,40.271448,爱玛电动车,辽宁省
沈辽路4号,铁西区,沈阳市,123.269826,41.754880,爱玛电动车,辽宁省
商贸北街与泰山中路交叉口东150米,大洼区,盘锦市,122.074452,41.079131,爱玛电动车,辽宁省
建设街与育红路交叉口西北50米,双台子区,盘锦市,122.060378,41.191445,爱玛电动车,辽宁省
南八东路17号1门,铁西区,沈阳市,123.375854,41.783827,爱玛电动车,辽宁省
营顺路819号,旅顺口区,大连市,121.251850,38.846853,爱玛电动车,辽宁省
兴隆镇兴隆五金电器厂附近,新民市,沈阳市,123.055449,41.977931,爱玛电动车,辽宁省
凡河新区泰山路新都花园北门西300米,铁岭县,铁岭市,123.735051,42.237850,爱玛电动车,辽宁省
乐园西街与长征路交叉口西南50米,宏伟区,辽阳市,123.200676,41.206313,爱玛电动车,辽宁省
健康路19区1号楼,宏伟区,辽阳市,123.198216,41.204691,爱玛电动车,辽宁省
四百线,凌源市,朝阳市,119.485679,40.907058,爱玛电动车,辽宁省
无,于洪区,沈阳市,123.241522,41.896459,爱玛电动车,辽宁省
106省道附近,新民市,沈阳市,123.025691,42.167134,爱玛电动车,辽宁省
繁荣路与龙山大街交叉口旁,老边区,营口市,122.377081,40.675785,爱玛电动车,辽宁省
延安路西50米,庄河市,大连市,122.976006,39.704243,爱玛电动车,辽宁省
中心路34-7号附近,大洼区,盘锦市,122.156599,41.032878,爱玛电动车,辽宁省
富华街与315县道交叉口东100米,台安县,鞍山市,122.341573,41.252937,爱玛电动车,辽宁省
102国道与723县道交叉口西150米附近,黑山县,锦州市,122.441044,41.863610,爱玛电动车,辽宁省
汤析线与312省道交叉口东北50米,海城市,鞍山市,122.909990,40.701615,爱玛电动车,辽宁省
石桥街西50米,建昌县,葫芦岛市,120.150438,40.799688,爱玛电动车,辽宁省
大炮线与205省道交叉口西北200米,朝阳县,朝阳市,120.260972,41.691308,爱玛电动车,辽宁省
前朱线与沙范线交叉口东北150米,绥中县,葫芦岛市,120.038255,40.299480,爱玛电动车,辽宁省
八一街16号24附近,凌海市,锦州市,121.367372,41.168844,爱玛电动车,辽宁省
G306(绥克线),凌源市,朝阳市,119.587967,41.044920,爱玛电动车,辽宁省
联合路与高官台街交叉口北100米,大东区,沈阳市,123.511921,41.840562,爱玛电动车,辽宁省
过街楼东街北50米,宽甸满族自治县,丹东市,124.810575,40.725555,爱玛电动车,辽宁省
S315(老宽线),凌源市,朝阳市,119.120869,40.758805,爱玛电动车,辽宁省
101国道与205省道交叉口西南100米附近,阜新蒙古族自治县,阜新市,121.720913,42.118429,爱玛电动车,辽宁省
105省道东50米,昌图县,铁岭市,123.800248,42.921772,爱玛电动车,辽宁省
304省道南50米,黑山县,锦州市,122.275466,41.658885,爱玛电动车,辽宁省
东嘎中学南(昌图县东嘎镇政府东北),昌图县,铁岭市,123.872090,43.000045,爱玛电动车,辽宁省
长车线西50米,宽甸满族自治县,丹东市,124.809958,40.483088,爱玛电动车,辽宁省
705县道南50米,黑山县,锦州市,122.146042,41.618248,爱玛电动车,辽宁省
中国石油加油站西80米(大锦线南),大洼区,盘锦市,121.964808,41.087305,爱玛电动车,辽宁省
南大街24b-1附近,凌源市,朝阳市,119.401941,41.231384,爱玛电动车,辽宁省
八亮线东50米,开原市,铁岭市,123.878206,42.629320,爱玛电动车,辽宁省
叶苗线东50米,法库县,沈阳市,123.312416,42.203087,爱玛电动车,辽宁省
十两线东50米,昌图县,铁岭市,123.668192,42.685052,爱玛电动车,辽宁省
临港工业区新港假日小区37号楼一层,瓦房店市,大连市,121.377984,39.569461,爱玛电动车,辽宁省
北环西路与西营一路交叉口西150米,宽甸满族自治县,丹东市,124.776489,40.737237,爱玛电动车,辽宁省
二西线西50米,开原市,铁岭市,123.890463,42.431557,爱玛电动车,辽宁省
铁柏线,铁岭县,铁岭市,123.711236,42.468381,爱玛电动车,辽宁省
辉山北大街166-12号-12门,沈北新区,沈阳市,123.613830,42.027090,爱玛电动车,辽宁省
丛氏家电(新梨线北),昌图县,铁岭市,123.712075,42.804761,爱玛电动车,辽宁省
女儿河乡汤河子造纸厂大门西侧,太和区,锦州市,120.974645,41.059114,爱玛电动车,辽宁省
211省道南50米,大洼区,盘锦市,122.131576,40.832727,爱玛电动车,辽宁省
306省道东50米西营子乡初级中学附近,朝阳县,朝阳市,120.521525,41.363831,爱玛电动车,辽宁省
新华路(东台村卫生所东南),建平县,朝阳市,119.431480,42.074894,爱玛电动车,辽宁省
双八线东50米,昌图县,铁岭市,124.207203,42.954234,爱玛电动车,辽宁省
光辉路西50米,于洪区,沈阳市,123.159283,41.954141,爱玛电动车,辽宁省
G101(京沈线),龙城区,朝阳市,120.373001,41.547394,爱玛电动车,辽宁省
政府路25号附近,凌源市,朝阳市,119.257640,41.203113,爱玛电动车,辽宁省
清水镇中心路79号附近,大洼区,盘锦市,121.987909,41.041297,爱玛电动车,辽宁省
新工街路北盘化社区19栋,兴隆台区,盘锦市,122.107078,41.166838,爱玛电动车,辽宁省
302省道东50米,昌图县,铁岭市,123.745687,42.658206,爱玛电动车,辽宁省
牛高线与307省道交叉口东南150米,海城市,鞍山市,122.664934,41.136633,爱玛电动车,辽宁省
柳芦线附近,北镇市,锦州市,122.120021,41.504023,爱玛电动车,辽宁省
沈于线与106省道交叉口东南50米,新民市,沈阳市,123.019807,42.162009,爱玛电动车,辽宁省
幸福东路与102省道交叉口东100米,台安县,鞍山市,122.550711,41.435040,爱玛电动车,辽宁省
中央大街与铁秀路交叉口西北50米,调兵山市,铁岭市,123.553861,42.459272,爱玛电动车,辽宁省
龙山路与龙首路交叉口西北50米,南票区,葫芦岛市,120.750425,41.104712,爱玛电动车,辽宁省
213省道南50米,绥中县,葫芦岛市,120.016856,40.361437,爱玛电动车,辽宁省
新府路东50米,桓仁满族自治县,本溪市,125.470820,41.483124,爱玛电动车,辽宁省
211省道西50米,阜新蒙古族自治县,阜新市,122.259557,42.108458,爱玛电动车,辽宁省
丰庆街二段与关王线交叉口西北100米,兴城市,葫芦岛市,120.445741,40.366819,爱玛电动车,辽宁省
影院大街与昌盛路交叉口西南100米,昌图县,铁岭市,124.105877,42.776574,爱玛电动车,辽宁省
303省道南50米,开原市,铁岭市,123.864826,42.553400,爱玛电动车,辽宁省
关王线南50米,兴城市,葫芦岛市,120.574144,40.420103,爱玛电动车,辽宁省
二十家子镇(医院斜对面),朝阳县,朝阳市,120.546391,41.282858,爱玛电动车,辽宁省
白云街3号,清原满族自治县,抚顺市,124.937427,42.101564,爱玛电动车,辽宁省
新昌路与清远街交叉口东北150米,清河门区,阜新市,121.426064,41.780908,爱玛电动车,辽宁省
丰利大街与芦鞍线交叉口东南150米,庄河市,大连市,123.296452,39.851534,爱玛电动车,辽宁省
兰唐线南50米,辽阳县,辽阳市,122.730564,41.182401,爱玛电动车,辽宁省
后四线与102国道交叉口北150米,兴城市,葫芦岛市,120.663713,40.564623,爱玛电动车,辽宁省
高平街高升镇政府西南50米,盘山县,盘锦市,122.204702,41.342563,爱玛电动车,辽宁省
312省道北50米,海城市,鞍山市,122.446076,40.970557,爱玛电动车,辽宁省
长兴岛经济区三堂红时代旁,瓦房店市,大连市,121.457456,39.597102,爱玛电动车,辽宁省
中心南街54附近,苏家屯区,沈阳市,123.297206,41.548982,爱玛电动车,辽宁省
关李线东50米,瓦房店市,大连市,121.813626,39.653538,爱玛电动车,辽宁省
东龙线与北共济街交叉口西北100米,瓦房店市,大连市,122.012218,39.686757,爱玛电动车,辽宁省
牛庄镇东方红大街26-7,海城市,鞍山市,122.540204,40.948166,爱玛电动车,辽宁省
106省道西50米,法库县,沈阳市,123.130293,42.287285,爱玛电动车,辽宁省
中兰线北50米,开原市,铁岭市,124.232132,42.279456,爱玛电动车,辽宁省
九华山路与天王路交叉口东南150米,太和区,锦州市,121.063416,40.849990,爱玛电动车,辽宁省
101国道东50米,双塔区,朝阳市,120.507386,41.624852,爱玛电动车,辽宁省
召都巴村二组228,龙城区,朝阳市,120.400032,41.688391,爱玛电动车,辽宁省
前吕线东50米,绥中县,葫芦岛市,120.137998,40.152131,爱玛电动车,辽宁省
怡园北路与怡园路交叉口东150米,兴隆台区,盘锦市,121.910836,41.206102,爱玛电动车,辽宁省
314省道南50米,新民市,沈阳市,122.653794,42.057623,爱玛电动车,辽宁省
军民路北50米,北镇市,锦州市,122.062120,41.546500,爱玛电动车,辽宁省
浑南区104省道北100米,浑南区,沈阳市,123.684467,41.856146,爱玛电动车,辽宁省
交通街附近,黑山县,锦州市,122.168959,42.006700,爱玛电动车,辽宁省
南台镇广场路8号,海城市,鞍山市,122.806858,40.923901,爱玛电动车,辽宁省
长江街27-3号附近,北票市,朝阳市,120.767059,41.812808,爱玛电动车,辽宁省
红兴线南50米,新民市,沈阳市,123.051118,41.978114,爱玛电动车,辽宁省
柳条寨镇沈半线中国邮政西南50米,灯塔市,辽阳市,123.200146,41.478908,爱玛电动车,辽宁省
卧榆线与030县道交叉口东南50米,南票区,葫芦岛市,120.939515,41.037292,爱玛电动车,辽宁省
张相公屯乡新钱线张相公农贸市场附近(加油站东南),南票区,葫芦岛市,120.756138,40.981276,爱玛电动车,辽宁省
叶苗线与101国道交叉口西北200米,新民市,沈阳市,123.181228,42.185704,爱玛电动车,辽宁省
贺运品牌手机城(沈于线北),新民市,沈阳市,123.112789,42.076332,爱玛电动车,辽宁省
胡大线大民屯医院,新民市,沈阳市,122.962335,41.853596,爱玛电动车,辽宁省
102国道东50米,南票区,葫芦岛市,120.999334,40.899289,爱玛电动车,辽宁省
辽中区107省道东50米,辽中区,沈阳市,122.810579,41.731201,爱玛电动车,辽宁省
303省道南50米,康平县,沈阳市,123.164310,42.770224,爱玛电动车,辽宁省
朝阳大街与黄河路交叉口西南50米,双塔区,朝阳市,120.463979,41.591071,爱玛电动车,辽宁省
水门洞胡同与永宁街交叉口西南50米,兴城市,葫芦岛市,120.709651,40.621743,爱玛电动车,辽宁省
二缸线,朝阳县,朝阳市,120.548934,41.276453,爱玛电动车,辽宁省
灌水镇镇医院对面,宽甸满族自治县,丹东市,124.578707,40.877486,爱玛电动车,辽宁省
南七中路13号,铁西区,沈阳市,123.366578,41.790587,爱玛电动车(志成里小区东),辽宁省
民政街155号,金州区,大连市,121.719419,39.106594,爱玛电动车(民政街店),辽宁省
南顺城路63号,沈河区,沈阳市,123.458656,41.792729,爱玛电动车(大方向旗舰店),辽宁省
繁荣街18号,灯塔市,辽阳市,123.321092,41.431461,爱玛电动车(繁荣街店),辽宁省
民族路27号,桓仁满族自治县,本溪市,125.361237,41.272202,爱玛电动车(分店),辽宁省
G102(京哈线),龙港区,葫芦岛市,120.788212,40.697275,爱玛电动车(双树店),辽宁省
南环东路与102国道交叉口东南200米,北镇市,锦州市,121.794300,41.590062,爱玛电动车(北镇专卖店),辽宁省
沈大路15号-2门(于洪街道办事处东),于洪区,沈阳市,123.311556,41.801473,爱玛电动车(迎宾路高架辅路店),辽宁省
卫国东路与繁荣街交叉口南150米,灯塔市,辽阳市,123.321714,41.433240,爱玛电动车(繁荣街店),辽宁省
204省道西50米,义县,锦州市,121.261017,41.335686,爱玛电动车(七里河经济开发区南),辽宁省
朝大线西50米,朝阳县,朝阳市,120.050515,41.349721,爱玛电动车(朝大线),辽宁省
沙河营乡南马线沙河营卫生院西北,连山区,葫芦岛市,120.771875,40.826952,爱玛电动车(新钱线),辽宁省
椅圈大街98号附近,东港市,丹东市,123.767804,39.879982,爱玛电动车(椅圈店),辽宁省
桓仁镇木兰路7号,溪湖区,本溪市,123.725066,41.453042,爱玛电动车(中共石桥子街道工作委员会西南),辽宁省
东平湖街249号附近,于洪区,沈阳市,123.292299,41.829067,爱玛电动车(东平湖街店),辽宁省
051县道南50米,台安县,鞍山市,122.520149,41.206721,爱玛电动车(五星福田),辽宁省
中国移动(天宇指定专营店),海城市,鞍山市,122.716311,40.983549,爱玛电动车(东四方台店),辽宁省
伟业门窗西(务欢池北桥北),阜新蒙古族自治县,阜新市,121.910781,42.326017,爱玛电动车(务平线店),辽宁省
大屯镇海华路93号,千山区,鞍山市,122.910757,40.997512,爱玛电动车(大屯店),辽宁省
石闻线南50米,兴城市,葫芦岛市,120.580478,40.481987,爱玛电动车(石闻线),辽宁省
金张线与208省道交叉口北150米,建平县,朝阳市,119.596539,41.633591,爱玛电动车(中共小塘镇委员会东),辽宁省
104省道东50米,抚顺县,抚顺市,124.220341,41.704921,爱玛电动车(东南书香苑北),辽宁省
303省道与514乡道交叉口西50米,桓仁满族自治县,本溪市,125.381902,41.475864,爱玛电动车(514乡道店),辽宁省
101国道与211省道交叉口北100米,彰武县,阜新市,122.131680,42.487550,爱玛电动车(哈尔套专卖),辽宁省
城东路41-1号附近,岫岩满族自治县,鞍山市,123.293202,40.282264,爱玛电动车(岫岩专卖店),辽宁省
大召线与101国道交叉口东北200米,北票市,朝阳市,120.621756,41.805316,爱玛电动车(大三家乡医院西南),辽宁省
320省道东50米,宏伟区,辽阳市,123.169572,41.200229,爱玛电动车(兰家镇人民政府西),辽宁省
101国道附近,双塔区,朝阳市,120.576288,41.683298,爱玛电动车(桃花吐镇人民政府西南),辽宁省
凤凰经济区凤山路86号交通旅社综合楼03032号,凤城市,丹东市,124.080120,40.462990,爱玛电动车(支农路店),辽宁省
聚农路东100米,沈北新区,沈阳市,123.584747,41.921340,爱玛电动车(聚农路店),辽宁省
东街与鱼市胡同交叉口西北50米,义县,锦州市,121.246345,41.543473,爱玛电动车(鱼市胡同),辽宁省
102省道南50米,盘山县,盘锦市,122.122872,41.359277,爱玛电动车(盘山县大荒乡医院东),辽宁省
318省道北50米,兴城市,葫芦岛市,120.499391,40.726346,爱玛电动车(中共旧门满族乡委员会西北),辽宁省
解放西路110-17号附近,太和区,锦州市,121.090807,41.098195,爱玛电动车(新民专卖店),辽宁省
赵河线南50米,法库县,沈阳市,123.458353,42.318491,爱玛电动车(学武专卖店),辽宁省
009县道西50米,辽阳县,辽阳市,122.797349,41.103556,爱玛电动车(东穆村卫生所西北),辽宁省
宝黄线西50米,东港市,丹东市,123.743511,40.013448,爱玛电动车(龙王庙店),辽宁省
中大街与双泉路交叉口西南50米,东港市,丹东市,123.599503,39.895493,爱玛电动车(孤山店),辽宁省
新宾镇肇兴路91号,新宾满族自治县,抚顺市,125.044724,41.727264,爱玛电动车(新宾店),辽宁省
蒲北路与道义北大街交叉口南100米,沈北新区,沈阳市,123.391945,41.935801,爱玛电动车(普及店),辽宁省
通远路与203省道交叉口东北150米,凤城市,丹东市,123.925609,40.781707,爱玛电动车(通远堡林场东南),辽宁省
金山大街397号海尔旁,元宝区,丹东市,124.371986,40.169662,爱玛电动车(金山大街店),辽宁省
友好路99-14-10,东港市,丹东市,124.172916,39.887081,爱玛电动车(桥东分店),辽宁省
102大街与305国道交叉口东北150米,北镇市,锦州市,121.773430,41.367260,爱玛电动车(恒信小区南),辽宁省
千金路八道街,新抚区,抚顺市,123.878211,41.858462,爱玛电动车(宇恒电动车行),辽宁省
永康路与211省道交叉口西北100米,台安县,鞍山市,122.470517,41.159780,爱玛电动车(高力房专卖店),辽宁省
欧式街南50米,弓长岭区,辽阳市,123.430997,41.159402,爱玛电动车(欧式街店),辽宁省
石河桥南商店(202国道北),金州区,大连市,121.852242,39.337613,爱玛电动车(宏业路店),辽宁省
银杏路东50米,庄河市,大连市,122.641975,39.558091,爱玛电动车(银杏路店),辽宁省
官元线西50米,康平县,沈阳市,122.997731,42.688077,爱玛电动车(官元线),辽宁省
建工路16号附近,康平县,沈阳市,123.350596,42.742808,爱玛电动车(建工路),辽宁省
蒲河路24号附近,新民市,沈阳市,123.071634,41.784640,爱玛电动车(金汇温泉雅苑西),辽宁省
149县道附近,康平县,沈阳市,123.208446,42.892395,爱玛电动车(中共康平县小城子镇委员会西北),辽宁省
永宁街与西关街交叉口西50米,兴城市,葫芦岛市,120.707288,40.621559,爱玛电动车(西关街),辽宁省
安阳大街22-8号,东港市,丹东市,124.205189,39.959738,爱玛电动车(前阳店),辽宁省
辽鞍路38栋-9号,辽阳县,辽阳市,123.075610,41.219360,爱玛电动车(人民街),辽宁省
双羊镇大锦线振兴小区,凌海市,锦州市,121.275941,41.115908,爱玛电动车(双何线店),辽宁省
胡家镇工业街40号,盘山县,盘锦市,121.952991,41.287177,爱玛电动车(鑫兴专卖店),辽宁省
朝阳大街一段127-2号,双塔区,朝阳市,120.459635,41.587898,爱玛电动车(大庆路专卖店),辽宁省
贵派电器附近,建平县,朝阳市,119.918818,41.655176,爱玛电动车(高杖子村卫生所西南),辽宁省
团结路28号附近,喀喇沁左翼蒙古族自治县,朝阳市,119.749577,41.125521,爱玛电动车(团结路店),辽宁省
206省道西50米,朝阳县,朝阳市,120.339563,41.105468,爱玛电动车(尚志店),辽宁省
106省道南50米(中共小北河镇委员会北),辽阳县,辽阳市,122.845789,41.364656,爱玛电动车(中共小北河镇委员会北),辽宁省
101省道西50米,海城市,鞍山市,122.765594,41.031916,爱玛电动车(东四方台专卖),辽宁省
保安街与大西门里街交叉口东南50米,海城市,鞍山市,122.824433,41.078391,爱玛电动车(腾鳌专卖店),辽宁省
皮口镇西山街243号,普兰店区,大连市,122.346055,39.401132,爱玛电动车(宋大线店),辽宁省
大宽街3段-14号,瓦房店市,大连市,122.004108,39.620337,爱玛电动车(大宽街三段店),辽宁省
英楼线附近,庄河市,大连市,123.182435,39.709153,爱玛电动车(黑岛供销社分店),辽宁省
复州城(秀秀书店偏边),瓦房店市,大连市,121.714659,39.734287,爱玛电动车(凤荷新居东南),辽宁省
331省道西50米,铁岭县,铁岭市,123.548995,42.259200,爱玛电动车(阿吉镇人民政府西南),辽宁省
清刁线与清河路交叉口东50米,清河区,铁岭市,124.134706,42.543812,爱玛电动车(清河路店),辽宁省
102国道西50米,昌图县,铁岭市,124.302019,43.044679,爱玛电动车(毛家店专卖店),辽宁省
塔山路7-2门附近,苏家屯区,沈阳市,123.513222,41.573203,爱玛电动车(塔山路),辽宁省
101国道北50米,法库县,沈阳市,123.037812,42.356939,爱玛电动车(秀水河子专卖店),辽宁省
华西路与茨榆大街交叉口东北150米,辽中区,沈阳市,122.891447,41.515258,爱玛电动车(中兴花园西北),辽宁省
冷西街与107省道交叉口东北50米,辽中区,沈阳市,122.794308,41.694871,爱玛电动车(冷西街),辽宁省
财吉街27附近,苏家屯区,沈阳市,123.374618,41.513351,爱玛电动车(十里河街道办事处南),辽宁省
兴法路260号附近,法库县,沈阳市,123.423890,42.504007,爱玛电动车(法库县信访大厅西),辽宁省
体育馆路与文化街交叉口东南50米,银州区,铁岭市,123.850094,42.287583,爱玛电动车(文化街),辽宁省
丰乐二街7-1号2门,沈河区,沈阳市,123.485592,41.765718,爱玛电动车(长青路),辽宁省
东新路与辽河大街交叉口东50米,站前区,营口市,122.257219,40.679849,爱玛电动车(辽河大街店),辽宁省
沈辽路261-2号,于洪区,沈阳市,123.301465,41.761652,爱玛电动车(青霖家园东),辽宁省
盖州路西50米,盖州市,营口市,122.353778,40.399762,爱玛电动车(枫景名城北),辽宁省
建设路9号楼附近,双塔区,朝阳市,120.448786,41.576853,爱玛电动车(建设路),辽宁省
振兴路32之4-5门,海州区,阜新市,121.656705,41.997723,爱玛电动车(振兴路),辽宁省
中富街3-6号,元宝区,丹东市,124.399421,40.137083,爱玛电动车(中富街店),辽宁省
兴三街益天龙商厦西门,兴隆台区,盘锦市,122.070269,41.127075,爱玛电动车(盘锦兴隆台永发电动车专卖店),辽宁省
红岩路841号,庄河市,大连市,122.979017,39.701522,爱玛电动车(红岩路店),辽宁省
新华大街28号楼J号商铺,连山区,葫芦岛市,120.846336,40.749097,爱玛电动车(新华街韩氏专卖店),辽宁省
绥中镇新街口乾元宾馆斜对面,绥中县,葫芦岛市,120.341658,40.327899,爱玛电动车(绥中县广播电视局西南),辽宁省
文化街13附近,建平县,朝阳市,119.638882,41.403522,爱玛电动车(兴工路店),辽宁省
南大街62-10号,凌源市,朝阳市,119.404248,41.236677,爱玛电动车(南大街),辽宁省
新华路252号(近西三道街),白塔区,辽阳市,123.185746,41.270243,爱玛电动车(西三道街店),辽宁省
彰武镇解放大街109-6门,彰武县,阜新市,122.532482,42.385174,爱玛电动车(解放大街),辽宁省
大石桥文化馆东北60米(繁荣大街北),大石桥市,营口市,122.502887,40.635418,爱玛电动车(繁荣大街店),辽宁省
解放路70-3号,古塔区,锦州市,121.125020,41.115943,爱玛电动车(解放路),辽宁省
镇北街40号宏达车行,东港市,丹东市,124.146223,39.887292,爱玛电动车(迎宾西大街),辽宁省
天华山路与新华街交叉口西北50米,宽甸满族自治县,丹东市,124.782980,40.728273,爱玛电动车(新华西街店),辽宁省
胜利东路6-6号,台安县,鞍山市,122.431775,41.388244,爱玛电动车(富强街),辽宁省
铁东二道街124号,铁东区,鞍山市,122.994347,41.118741,爱玛电动车(铁东二道街店),辽宁省
中街路与筢头街交叉口东北100米,海城市,鞍山市,122.750536,40.846184,爱玛电动车(中街路店),辽宁省
中心路一段29之5-6,普兰店区,大连市,121.971636,39.407986,爱玛电动车(中心路一段),辽宁省
中兴西路86号,新民市,沈阳市,122.826391,41.994572,爱玛电动车(中远旗舰店),辽宁省
昆山西路108号-12门,皇姑区,沈阳市,123.378139,41.828192,爱玛专卖店,辽宁省
友谊大街与建设路交叉口东南50米,双塔区,朝阳市,120.443023,41.577682,爱玛,辽宁省
102省道北50米,铁西区,沈阳市,122.954616,41.579295,大个爱玛电动车,辽宁省
前所镇绥电线前所医院北300米,绥中县,葫芦岛市,119.953672,40.097533,二成爱玛电动车,辽宁省
西安民村一组,振兴区,丹东市,124.311598,39.995947,爱玛电动车自行车专卖,辽宁省
辽中区商业街57号,辽中区,沈阳市,122.734971,41.514836,雷丁电动汽车(辽中专卖店),辽宁省
新工街南50米,兴隆台区,盘锦市,122.087138,41.167868,爱玛电动车网购店,辽宁省
吴家镇兴榆街183号,盘山县,盘锦市,122.140438,41.163045,金彭电动三轮车&爱玛电动车(吴家旗舰店),辽宁省
府前街与201国道交叉口北100米,东港市,丹东市,123.661583,39.920304,兄弟爱玛电动车行,辽宁省
东平湖街35号2门爱玛电动车行,于洪区,沈阳市,123.286657,41.802189,爱玛电动车电动车修理,辽宁省
沙岭镇中兴路148号宝岛电动车,盘山县,盘锦市,122.370834,41.141238,宝岛电动车&爱玛电动车,辽宁省
102国道南50米,凌海市,锦州市,121.403726,41.184781,小白爱玛电动车,辽宁省
兴明街与建设北一路交叉口南150米,沈北新区,沈阳市,123.518257,41.945402,天缘电动车行爱玛电动车,辽宁省
鞍蛤线与003县道交叉口西北150米,辽阳县,辽阳市,122.916744,41.214993,爱玛电动车刘二堡专卖,辽宁省
322省道北50米,海城市,鞍山市,122.557762,40.817438,豪顺电动车&爱玛电动车(天昕专卖店),辽宁省
友谊大街3段4-4号,双塔区,朝阳市,120.443058,41.577700,爱玛电动车朝阳旗舰店,辽宁省
211省道西50米,大洼区,盘锦市,122.296195,41.050930,鹏宇爱玛金彭电动车,辽宁省
东郭大街192号附近,盘山县,盘锦市,121.667299,41.182512,爱玛专卖店,辽宁省
辽中区潘乌线,辽中区,沈阳市,122.885417,41.661572,爱玛小刀专卖店,辽宁省
马宋公路与103省道交叉口西南100米,浑南区,沈阳市,123.583482,41.855867,都市风(爱玛电动车专卖店),辽宁省
长征街-26、28号,开原市,铁岭市,124.054195,42.536223,开原爱玛旗舰店,辽宁省
红绫路35号楼2门洞1楼1,沙河口区,大连市,121.545425,38.918482,电动车专卖,辽宁省
045县道南50米,东辽县,辽源市,125.273904,42.794023,爱玛电动车,吉林省
黑林子环路343附近,公主岭市,四平市,124.874743,43.695311,爱玛电动车,吉林省
大兴街与金城路交叉口东北50米,桦甸市,吉林市,126.739941,42.968080,爱玛电动车,吉林省
西门立元花园第二门,磐石市,吉林市,126.054964,42.945886,爱玛电动车(立元花园店),吉林省
兴政路与合隆大街交叉口西北50米(近繁华路),宽城区,长春市,125.176733,44.058747,爱玛电动车,吉林省
士英街与振瀛大路交叉口西南50米(脉灵康健康体验馆北),扶余市,松原市,126.034445,44.984135,爱玛电动车(脉灵康健康体验馆北),吉林省
向海南街159号附近,通榆县,白城市,123.083359,44.804318,爱玛电动车,吉林省
富兴路1328号附近,榆树市,长春市,126.417909,45.132029,爱玛电动车,吉林省
113县道南50米,通榆县,白城市,123.263919,45.085629,爱玛电动车,吉林省
友谊街与口岸大路交叉口东北50米,珲春市,延边朝鲜族自治州,130.353917,42.861768,爱玛电动车(友谊街),吉林省
延安路与302国道交叉口东南50米,安图县,延边朝鲜族自治州,128.911306,43.103979,爱玛电动车(延安路),吉林省
203国道北50米,双辽市,四平市,123.763847,43.526828,爱玛电动车,吉林省
洮河镇,洮北区,白城市,123.026168,45.482064,爱玛电动车,吉林省
001乡道与303国道交叉口西南50米,集安市,通化市,125.883462,41.517615,爱玛电动车,吉林省
搜登站二段南50米,船营区,吉林市,126.226706,43.841535,爱玛电动车(搜登站专卖店),吉林省
龙安路与302国道交叉口东南50米,安图县,延边朝鲜族自治州,128.909671,43.104228,爱玛电动车(安图县妇幼保健所西北),吉林省
卡伦老街599号客运站北行150米三标对面,九台区,长春市,125.557776,44.030232,小刀电动车爱玛电动车,吉林省
健康街289号附近,九台区,长春市,125.655029,44.066485,爱玛电动车,吉林省
顺通路与303省道交叉口西100米,德惠市,长春市,125.848487,44.536231,新日电动车&爱玛电动车,吉林省
双黄岔线东50米,永吉县,吉林市,125.983139,43.709374,爱玛电动车,吉林省
新立镇新立高级中学北150米,榆树市,长春市,126.739389,44.678622,爱玛电动车,吉林省
树俭胡同与西买卖大街交叉口西100米,梨树县,四平市,124.331211,43.311466,爱玛电动车,吉林省
参花街1770号,延吉市,延边朝鲜族自治州,129.505271,42.914457,爱玛电动车,吉林省
002乡道与059县道交叉口西南50米,长岭县,松原市,124.645525,44.166129,爱玛电动车,吉林省
拥政路与烟筒山大街交叉口南50米,磐石市,吉林市,126.022604,43.289026,爱玛电动车(拥政路),吉林省
017县道东50米,德惠市,长春市,126.318328,44.575350,爱玛电动车,吉林省
和龙大街25号,和龙市,延边朝鲜族自治州,129.004640,42.542289,爱玛电动车,吉林省
三道街与矿泉北路交叉口西北50米,靖宇县,白山市,126.802388,42.393785,爱玛电动车,吉林省
新安镇供销大厦西南150米,长岭县,松原市,123.862069,44.051577,爱玛电动车(新安镇供销大厦店),吉林省
锦华路170号,大安市,白城市,124.292248,45.511551,爱玛电动车,吉林省
105省道北50米,公主岭市,四平市,124.596461,43.795596,爱玛电动车,吉林省
007乡道与024乡道交叉口东150米,农安县,长春市,124.998814,43.993247,爱玛电动车,吉林省
站前街与鸭江路交叉口西100米,集安市,通化市,126.205518,41.134229,爱玛电动车,吉林省
建设大街与新胜胡同交叉口东南50米,东昌区,通化市,125.966174,41.738738,爱玛电动车,吉林省
新华街309号,德惠市,长春市,125.711430,44.537671,爱玛电动车(新华街店),吉林省
太平山镇街里路与106省道交叉口东150米,长岭县,松原市,124.565144,44.211970,爱玛电动车(太平山专卖店),吉林省
双河大街与文化路交叉口北100米,永吉县,吉林市,126.177752,43.474847,爱玛电动车,吉林省
012县道东100米,前郭尔罗斯蒙古族自治县,松原市,124.433596,44.658780,爱玛电动车,吉林省
301省道北50米,乾安县,松原市,123.645198,44.863052,爱玛电动车,吉林省
144县道南50米,扶余市,松原市,125.301492,44.982877,爱玛电动车,吉林省
001省道布海镇政府南100米,德惠市,长春市,125.759960,44.387981,吉国亮爱玛电动车,吉林省
1234舞时尚音乐广场(金福商贸城东),扶余市,松原市,125.374269,45.122203,爱玛电动车,吉林省
团结东路512号,镇赉县,白城市,123.210822,45.851961,爱玛电动车(胜利卫生院东北),吉林省
城壕路与榆树大街交叉口南50米,榆树市,长春市,126.564233,44.832213,爱玛电动车(榆树大街店),吉林省
农前线西50米,前郭尔罗斯蒙古族自治县,松原市,124.765144,45.030361,爱玛电动车(农前线店),吉林省
105省道北50米,公主岭市,四平市,125.011874,43.872229,爱玛电动车(大岭店),吉林省
175乡道与203国道交叉口北200米,双辽市,四平市,123.848266,43.869900,爱玛电动车(中共双辽市兴隆镇委员会北),吉林省
站前路与062县道交叉口东50米路南,双辽市,四平市,123.420003,43.970595,爱玛电动车(顺园小区西北),吉林省
301省道北50米,扶余市,松原市,125.082170,45.162416,爱玛电动车(永平乡永平村卫生所东北),吉林省
东交大街184号,东辽县,辽源市,125.003894,42.922614,爱玛电动车(东交大街辅路店),吉林省
陶柳线东50米,公主岭市,四平市,124.992357,43.645898,爱玛电动车,吉林省
开发街与民营路交叉口北50米,榆树市,长春市,126.301345,44.799844,爱玛电动车(刘家专卖店),吉林省
吉林大街302号,船营区,吉林市,126.566491,43.856294,爱玛电动车(宝丰名苑东南),吉林省
207省道附近,双辽市,四平市,123.490903,43.813754,爱玛电动车,吉林省
岭城西路与永治北街交汇处西北50米,长岭县,松原市,123.978612,44.276594,爱玛电动车,吉林省
光明南路158号,桦甸市,吉林市,126.755168,42.968297,爱玛电动车(向阳街店),吉林省
062乡道与102国道交叉口东北150米,梨树县,四平市,124.673176,43.413652,爱玛电动车(蔡家镇动物检疫申报点西南),吉林省
长东线县营城子镇政府西北400米,伊通满族自治县,四平市,125.504398,43.186705,爱玛电动车,吉林省
建安镇(原中心小学校斜对过),东辽县,辽源市,125.090292,43.080867,爱玛电动车,吉林省
长安街刘家馆子镇东大桥西行200米,梨树县,四平市,123.879857,43.522229,爱玛电动车(刘家馆子镇专卖店),吉林省
029乡道南50米,扶余市,松原市,125.680681,44.965811,爱玛电动车,吉林省
兴隆街与向阳路交叉口西50米,东丰县,辽源市,125.533115,42.673417,爱玛电动车,吉林省
赛罕塔拉大街与232国道交叉口西南50米,前郭尔罗斯蒙古族自治县,松原市,124.104848,44.604093,爱玛电动车,吉林省
文明东路与正阳北街交叉口南200米,扶余市,松原市,126.141458,45.114659,爱玛电动车,吉林省
伊通镇中华西路福隆·时代广场北50米,伊通满族自治县,四平市,125.291251,43.343552,爱玛电动车,吉林省
米沙子镇农村商业银行旁,宽城区,长春市,125.478361,44.138720,爱玛电动车,吉林省
汪清街西259号,汪清县,延边朝鲜族自治州,129.763950,43.316036,爱玛电动车,吉林省
浑江大街315-8号,浑江区,白山市,126.404169,41.924019,爱玛电动车(浑江大街),吉林省
龙和路129号附近,龙井市,延边朝鲜族自治州,129.413185,42.768281,爱玛电动车(龙和路),吉林省
翰章大街1956号,敦化市,延边朝鲜族自治州,128.233155,43.362540,爱玛电动车(翰章大街),吉林省
蛟河大街,蛟河市,吉林市,127.347743,43.724001,爱玛电动车,吉林省
东光北街与东春路交汇处西北100米,双辽市,四平市,123.507982,43.510656,爱玛电动车(新市街),吉林省
河南街与长白山西路交叉口东南50米,延吉市,延边朝鲜族自治州,129.510420,42.893532,爱玛电动车(长白山西路店),吉林省
江源大街西50米,江源区,白山市,126.602463,42.072047,踏浪&爱玛电动车,吉林省
抚松大街与民康路交叉口东南50米,抚松县,白山市,127.275220,42.323934,爱玛电动车(民康路),吉林省
144县道南50米,扶余市,松原市,125.479972,44.974894,爱玛电动车(俊达家园东),吉林省
060县道西50米,长岭县,松原市,124.300640,44.134816,爱玛电动车(利发盛专卖店),吉林省
012县道与207省道交叉口北100米,长岭县,松原市,123.196514,44.405199,爱玛电动车(太平川专卖店),吉林省
302国道东100米,前郭尔罗斯蒙古族自治县,松原市,124.470767,45.314673,爱玛电动车(长山专卖店),吉林省
和平街,宁江区,松原市,124.827755,45.181705,爱玛电动车(服务中心),吉林省
锦江大街150号(国贸与二分局之间),宁江区,松原市,124.809211,45.118972,爱玛电动车(锦江大街店),吉林省
辽河大路5585号,龙山区,辽源市,125.149390,42.895444,爱玛电动车(辽河大路店),吉林省
富文东路283号,洮南市,白城市,122.788663,45.344076,爱玛电动车(富文东路),吉林省
爱国南街与长白西路交叉口东50米,大安市,白城市,123.766392,45.586758,爱玛电动车(大安总代理店),吉林省
前进街76-1号,辉南县,通化市,126.047586,42.682778,爱玛电动车(东前进街店),吉林省
沈长线英额布镇政府西北50米,通化县,通化市,125.565707,41.733821,爱玛电动车(英戈市专卖店),吉林省
柳河大街1744号,柳河县,通化市,125.745749,42.285059,爱玛电动车(柳河大街),吉林省
梅河大街2210,梅河口市,通化市,125.682466,42.526030,爱玛电动车,吉林省
南一经街1224号,铁东区,四平市,124.378502,43.160270,爱玛电动车(四平市散装水泥办公室西南),吉林省
河南大街附近,公主岭市,四平市,124.814180,43.499208,爱玛电动车(国文大街),吉林省
松江南路与松江西路交叉口北100米天润社区居委会附近,丰满区,吉林市,126.534255,43.808462,爱玛电动车(温德社区卫生服务站西北),吉林省
天岗大路东50米,蛟河市,吉林市,126.952778,43.904842,爱玛电动车(天岗专卖店),吉林省
三道街635号,舒兰市,吉林市,126.950963,44.407276,爱玛电动车(舒兰专卖店),吉林省
福安街道人民路1233号,磐石市,吉林市,126.054909,42.945986,磐石市永通车行,吉林省
吉林大街334-7号,昌邑区,吉林市,126.566754,43.859548,爱玛电动车(吉林大街),吉林省
大马路826号(中共南关区新春街道工作委员会西北),南关区,长春市,125.340253,43.895137,爱玛电动车(大马路店),吉林省
文化街56号,农安县,长春市,125.180389,44.436125,爱玛电动车(文化街店),吉林省
西双阳大街232号,双阳区,长春市,125.669355,43.525173,爱玛电动车(双阳大街店),吉林省
