address,city,districd,lat,lon,name,province,street,town
湖北省十堰市竹山县城关镇北大街科技馆一楼,十堰市,竹山县,32.2303040603762,110.23558156764314,竹山县台铃,湖北省,,
湖北十堰郧西县彩虹路10号,十堰市,郧西县,32.99916700753649,110.43247261847287,郧西县台铃,湖北省,,
湖北省十堰市竹溪县城关音阁 69号台铃专卖店,十堰市,竹溪县,32.32412004885334,109.72154249888798,竹溪县台铃,湖北省,,
湖北十偃丹江口市丹江大道三角地对面,南阳市,淅川县,33.21051056723449,111.0867006136064,丹江县台铃,河南省,,
湖北省十堰市车城南路38号,哈尔滨市,道外区,45.796094119695994,126.65416082325429,市辖区台铃,黑龙江省,,
