address,city,districd,lat,lon,name,province,street,town
河南省周口市川汇区交通西路金汇花园楼下,周口市,川汇区,33.65299710281438,114.6576017405623,川汇区台铃,河南省,,
河南省周口太康县谢安路和光明路交叉口中国银行旁,周口市,太康县,34.07003838224778,114.84438388999658,太康县台铃,河南省,,
河南省周口市郸城县人民路和新华路交叉口商贸城东门对面,周口市,郸城县,33.65082795504896,115.18347760136133,郸城县台铃,河南省,,
河南省周口市鹿邑县卫真路宝岛车行,周口市,鹿邑县,33.8671732903174,115.49058525860173,鹿邑县台铃,河南省,,
周口市扶沟县新建东路192号阿米尼专卖店,周口市,扶沟县,34.065906253969246,114.4015098413696,扶沟县台铃,河南省,,
河南省项城市青年路中段路西,周口市,项城市,33.473007441429914,114.88151400079326,项城市台铃,河南省,,
河南周口淮阳电动车市场台铃专卖店,周口市,淮阳县,33.737347183458404,114.89258615518705,淮阳县台铃,河南省,,
河南周口市西华县箕城路北段文化小区12号楼台铃专卖店,周口市,西华县,33.77321533492214,114.53559667094417,西华县台铃,河南省,,
河南省周口项城市青年路中段,周口市,项城市,33.473007441429914,114.88151400079326,项城县台铃,河南省,,
