address,city,districd,lat,lon,name,province,street,town
湖南省岳阳市华容县章华镇港东南路160号,岳阳市,华容县,29.536286434381537,112.54746151216173,华容县台铃,湖南省,,
湖南省岳阳市花板桥摩托车市场台铃专卖店,哈尔滨市,道外区,45.796094119695994,126.65416082325429,市辖区台铃,黑龙江省,,
湖南省岳阳市湘阴县文星镇兴湘市场107号,岳阳市,湘阴县,28.676676377581405,112.88952187736018,湘阴县台铃,湖南省,,
湖南省岳阳市岳阳县荣家湾镇荣新路,岳阳市,岳阳县,29.150269316045275,113.12254448250472,岳阳县台铃,湖南省,,
湖南岳阳市云溪区云溪镇金盆路25-31号,哈尔滨市,道外区,45.796094119695994,126.65416082325429,市辖区台铃,黑龙江省,,
湖南省岳阳市华容县港东南路73号,岳阳市,华容县,29.536286434381537,112.54746151216173,华容县台铃,湖南省,,
湖南岳阳汨罗市高泉南路,岳阳市,汨罗市,28.81245469481151,113.07349286947077,汨罗县台铃,湖南省,,
湖南省岳阳市平江小码头润泰摩托车市场内,岳阳市,平江县,28.70756424811539,113.58760362283579,平江县台铃,湖南省,,
湖南省岳阳市长炼石油厂旁奇蕾电动车行,池州市,石台县,30.216530337189035,117.49239440959089,长炼石台铃,安徽省,,
