address,city,districd,lat,lon,name,province,street,town
河南省开封市禹王台区华夏大道中段【原机场北路】和平农副产品中心西南门,开封市,禹王台区,34.78347210591688,114.35439775974605,禹王台区台铃,河南省,,
河南省开封市杞县市场大街与广场交叉口台铃专卖店,开封市,杞县,34.564727379508106,114.76228962330501,杞县台铃,河南省,,
河南省开封市祥符区城关镇五星钻豹电动车店,哈尔滨市,道外区,45.796094119695994,126.65416082325429,市辖区台铃,黑龙江省,,
河南省开封市兰考县坝头乡台铃专卖店,开封市,兰考县,34.828492897237666,114.8274607124941,兰考县台铃,河南省,,
河南省开封市尉氏县铁道北街与工业路交叉口南300米,开封市,尉氏县,34.41722801035352,114.1995611508576,尉氏县台铃,河南省,,
河南省开封市通许县文卫路台铃专卖店,开封市,通许县,34.48677180265463,114.47343590592583,通许县台铃,河南省,,
