address,city,districd,lat,lon,name,province,street,town
河北省承德市围场满族自治县天宝路,承德市,围场满族蒙古族自治县,41.9443237736111,117.76656434784968,围场满族蒙古族自治县台铃,河北省,,
河北省承德市承德县下板城,承德市,承德县,40.77436719493557,118.1804557369944,承德县台铃,河北省,,
河北省承德市隆化县兴洲路,承德市,隆化县,41.31989880502099,117.74545102429592,隆化县台铃,河北省,,
河北省承德市鹰手营子矿区中心商贸城,哈尔滨市,道外区,45.796094119695994,126.65416082325429,市辖区台铃,黑龙江省,,
河北承德丰宁县宁丰路东房地产大厦6号底商,承德市,丰宁满族自治县,41.21533638000358,116.65239270009364,丰宁满族自治县台铃,河北省,,
承德平泉县市场北路东六栋商品房2号,承德市,平泉市,41.07530376870277,118.73932350857935,平泉县台铃,河北省,,
