address,city,districd,lat,lon,name,province,street,town
河南省新乡封丘县北干道东方名郡楼下,新乡市,封丘县,35.0468575316508,114.42560616803036,封丘县台铃,河南省,,
河南省新乡市卫辉市仿古街南段,新乡市,卫辉市,35.40406888214502,114.07160094452217,卫辉市台铃,河南省,,
新乡市牧野区宏力大道西段飞龙三轮车厂院内台铃电动车仓库,哈尔滨市,道外区,45.796094119695994,126.65416082325429,市辖区台铃,黑龙江省,,
河南省新乡县小冀镇香港路,新乡市,新乡县,35.19656440899276,113.81159378076424,新乡县台铃,河南省,,
河南省新乡市原阳师寨街道,新乡市,原阳县,35.07116386446907,113.94662374129375,原阳县台铃,河南省,,
河南新乡辉县共城大道辉城港湾楼下台铃电动车,新乡市,辉县市,35.467957818375645,113.81157302990697,辉县台铃,河南省,,
河南省新乡市长垣县赵堤镇镇政府隔壁永收车行,新乡市,长垣县,35.20719822456536,114.67560989145973,长垣县台铃,河南省,,
