address,city,districd,lat,lon,name,province,street,town
山东省济南市商河县商中路北首金桥家居南邻路西,济南市,商河县,37.31497071555638,117.16352979289881,商河县台铃,山东省,,
济南市章丘区汇泉路章丘商业大厦,济南市,章丘区,36.685532751420155,117.53256537436938,章丘县台铃,山东省,,
山东省古城商业街28号台铃专卖店,济南市,槐荫区,36.65756173442624,116.90745837507174,槐荫县台铃,山东省,,
山东济南平阴县黄河路,济南市,平阴县,36.29486132106647,116.46261667805571,平阴县台铃,山东省,,
济南盖家沟（零点高速）二环东路（将军路）第一个红绿灯右拐,济南市,历下区,36.67216295004278,117.08256731389552,历下县台铃,山东省,,
