address,city,districd,lat,lon,name,province,street,town
浙江省湖州市长兴县小浦镇高地村镇湾桥西侧三百米,湖州市,长兴县,31.006182057384837,119.91876753962431,长兴县台铃,浙江省,,
浙江省湖州市安吉县昌硕街道浦源大道499号,湖州市,安吉县,30.644424794113846,119.68656337875633,安吉县台铃,浙江省,,
浙江省湖州市南浔区南浔镇常增路127号,湖州市,南浔区,30.855242982242903,120.42460139422415,南浔区台铃,浙江省,,
浙江省湖州市德清县新市镇环城西路134号,湖州市,德清县,30.548628239138925,119.98346466845346,德清县台铃,浙江省,,
浙江省湖州市长兴县仓前二街309号,湖州市,长兴县,31.006182057384837,119.91876753962431,长兴县台铃,浙江省,,
湖州市吴兴区外环东路50号,哈尔滨市,道外区,45.796094119695994,126.65416082325429,市辖区台铃,黑龙江省,,
浙江省湖州市吴兴区织里镇珍贝路215号,哈尔滨市,道外区,45.796094119695994,126.65416082325429,市辖区台铃,黑龙江省,,
