address,city,districd,lat,lon,name,province,street,town
河南南乐县福勘镇卞辛庄,濮阳市,南乐县,36.076030832875425,115.21138615694532,南乐县台铃,河南省,,
河南省濮阳市范县老城北街小鸟电动车门店,濮阳市,范县,35.85765508771859,115.51058621044251,范县台铃,河南省,,
河南省台前县侯庙镇加油站对面,濮阳市,台前县,35.97501271252134,115.87856816938043,台前县台铃,河南省,,
河南省清丰县人民路亿州乐活城市广场,濮阳市,清丰县,35.89130816827738,115.11047186341266,清丰县台铃,河南省,,
河南濮阳县棉花站街西段天能电池,濮阳市,濮阳县,35.717888889374784,115.03558408559006,濮阳县台铃,河南省,,
