address,city,districd,lat,lon,name,province,street,town
山东省烟台市开发区泰山路,哈尔滨市,道外区,45.796094119695994,126.65416082325429,市辖区台铃,黑龙江省,,
山东省烟台市莱山区迎春大街292号钱江摩托,哈尔滨市,道外区,45.796094119695994,126.65416082325429,市辖区台铃,黑龙江省,,
山东市烟台市莱阳市冯格庄开发区,烟台市,莱阳市,36.9846355683041,120.718414309578,莱阳市台铃,山东省,,
山东省烟台市芝罘区芝罘屯路73号,哈尔滨市,道外区,45.796094119695994,126.65416082325429,市辖区台铃,黑龙江省,,
山东省烟台莱州市府东路中段,烟台市,莱州市,37.18263660907421,119.94859307736998,莱州市台铃,山东省,,
山东海阳市海阳路49号,烟台市,海阳市,36.693269738228416,121.1804581977879,海阳县台铃,山东省,,
山东烟台招远三毛电动车超市,烟台市,招远市,37.36113714256612,120.44060165264568,招远县台铃,山东省,,
