address,city,districd,lat,lon,name,province,street,town
河北省衡水市桃城区和平路与红旗大街交叉口西行200米路北,衡水市,桃城区,37.741636751694145,115.68139532011222,桃城区台铃,河北省,,
河北省衡水市武邑县腾达北大街147号,衡水市,武邑县,37.807764276867424,115.89451363116582,武邑县台铃,河北省,,
河北省衡水市冀州区迎宾大街与和平路交叉口路东,哈尔滨市,道外区,45.796094119695994,126.65416082325429,市辖区台铃,黑龙江省,,
河北省衡水市饶阳县五公镇广聚摩托城,衡水市,饶阳县,38.24103752542849,115.73257160535455,饶阳县台铃,河北省,,
河北省衡水市枣强县胜利南路54号,衡水市,枣强县,37.51936368976413,115.7305629044037,枣强县台铃,河北省,,
河北省衡水市武强县新开街31号,衡水市,武强县,38.04685680523654,115.98961391177681,武强县台铃,河北省,,
