address,city,districd,lat,lon,name,province,street,town
四川省达州市渠县渠光东路50号,达州市,渠县,30.84229928348102,106.97958296702429,渠县台铃,四川省,,
四川省达州市达川区通达西路新日电动车,达州市,通川区,31.214307723927455,107.47459385897544,达州区台铃,四川省,,
开江县新宁镇金山大道71到81号,达州市,开江县,31.089372149065603,107.87542487414112,开江县台铃,四川省,,
大竹县白塔街道竹阳北路202号,达州市,大竹县,30.74207661790974,107.21157970735341,大竹县台铃,四川省,,
四川省达州市达川区翠屏街道通达西路432-436号,哈尔滨市,道外区,45.796094119695994,126.65416082325429,市辖区台铃,黑龙江省,,
