address,city,districd,lat,lon,name,province,street,town
河南省驻马店正阳县南环路,驻马店市,正阳县,32.6116410772727,114.39949655906064,正阳县台铃,河南省,,
河南省驻马店市新蔡县振兴路,驻马店市,新蔡县,32.75526886730577,114.9924692838248,新蔡县台铃,河南省,,
河南驻马店市平舆县挚地大道富康小区楼下台铃专卖店,驻马店市,平舆县,32.96798240043784,114.62542865923078,平舆县台铃,河南省,,
河南省驻马店市泌阳县文化路与人民路交叉处台铃专卖店,驻马店市,泌阳县,32.729730650434554,113.33355798837405,泌阳县台铃,河南省,,
河南省驻马店市汝南县天中综合市南头路西台铃专卖店,驻马店市,汝南县,33.01314088199241,114.36940889397054,汝南县台铃,河南省,,
河南驻马店雪松大道自由街,哈尔滨市,道外区,45.796094119695994,126.65416082325429,市辖区台铃,黑龙江省,,
河南省驻马店市上蔡县白云商场对面（秦湘商场一楼）台铃专卖店。收货人电话：15938011799,驻马店市,上蔡县,33.268511215884224,114.27048686239792,上蔡县台铃,河南省,,
