address,city,districd,lat,lon,name,province,street,town
福建省龙岩市武平县环城西路57-8号,龙岩市,武平县,25.100855173343017,116.10758916743498,武平县台铃,福建省,,
福建省龙岩市永定县凤城镇沿河北路1-3号,龙岩市,永定区,24.869137411286772,116.89244722514579,永定区台铃,福建省,,
福建省龙岩漳平市万成和平北路89号,龙岩市,漳平市,25.295743499251625,117.426556325259,漳平市台铃,福建省,,
福建省龙岩市上杭县北环中路63号(汽车站对面)台铃专卖店,龙岩市,上杭县,25.055570401525458,116.42644288775742,上杭县台铃,福建省,,
福建龙岩长汀县城关金谷园沿街2至3号,龙岩市,长汀县,25.83918461828047,116.36356796987941,长汀县台铃,福建省,,
福建省龙岩市新罗区沿河路22号,哈尔滨市,道外区,45.796094119695994,126.65416082325429,市辖区台铃,黑龙江省,,
福建省龙岩市连城县莲峰镇北街东路14号,龙岩市,连城县,25.71633738185191,116.76044617117844,连城县台铃,福建省,,
