address,city,districd,lat,lon,name,province,street,town
宁夏省石嘴山市大武口区文明北路隆兴商业广场A区,石嘴山市,大武口区,39.02484775662651,106.37461049759675,大武口区横源电动车行,宁夏回族自治区,,
宁夏省石嘴山市惠农区邮政路嘉园小区5号楼7号,石嘴山市,惠农区,39.24538810836003,106.78843002230066,惠农区爱青电动车商行,宁夏回族自治区,,
宁夏省吴忠市青铜峡市小坝古峡西街,吴忠市,青铜峡市,38.02643307162622,106.0781102357335,青铜峡市爱玛电动车经销部,宁夏回族自治区,,
宁夏省固原市中山南路,固原市,原州区,36.02161725801098,106.24857742607188,宁夏省固原市邵莉,宁夏回族自治区,,
宁夏省中卫市鼓楼大街爱玛专卖店,中卫市,沙坡头区,37.5212952021802,105.20508571346862,中卫市成丰商贸有限公司,宁夏回族自治区,,
宁夏省中卫市中宁县西街影剧院爱玛电动车专卖店,中卫市,中宁县,37.4944585181057,105.67873103947541,中宁县爱玛电动车销售维修部,宁夏回族自治区,,
宁夏省中卫市海原县海城镇东环路,中卫市,海原县,36.566183663384,105.65610701757939,海原县海城镇爱玛电动车行,宁夏回族自治区,,
宁夏省银川市兴庆区建发家世界广场,银川市,金凤区,38.492460055509596,106.23849358740017,银川市宁捷商贸有限公司,宁夏回族自治区,,
