address,city,districd,lat,lon,name,province,street,town
重庆市重庆市南岸区长生桥镇河街19号,重庆市,南岸区,29.506374160032582,106.677520270133,重庆市长生桥镇夏杰伟,重庆市,,
重庆市渝北区双龙西路145-5号门市,重庆市,渝北区,29.723927343006626,106.6375590606026,渝北区顺鑫摩托车经营部,重庆市,,
重庆市铜梁区巴川街道办事处中南路,重庆市,渝中区,29.568996245338923,106.55843415537664,重庆市奇锳摩托车销售有限公司,重庆市,,
"重庆市永川区渝西大道中段507,493-6号",重庆市,永川区,29.362046335949085,105.93349936145171,重庆市永川区彭志鹏,重庆市,,
重庆市奉节县朱衣镇黄果村1社,重庆市,奉节县,31.024601766549154,109.47047275630993,奉节县旭铭汽贸有限公司,重庆市,,
重庆市万州区白岩路538号,重庆市,万州区,30.82169361721228,108.36993065788707,万州区白岩路豪顺摩托车经营部,重庆市,,
重庆市涪陵区顺园路爱玛专卖店,重庆市,涪陵区,29.70927819797873,107.39641979754104,重庆市涪陵区李科,重庆市,,
