address,area,city,lat,lng,name,province,tel,topic
长江西路,邳州市,徐州市,117.967574,34.338274,金箭电动车,江苏省,无,金箭电动车
福州路88号附近,邳州市,徐州市,117.975494,34.326889,金箭电动车,江苏省,无,金箭电动车
戴圩镇曲坊小学附近,邳州市,徐州市,117.938248,34.388113,金箭电动车,江苏省,无,金箭电动车
邹庄镇奋达路,邳州市,徐州市,118.055547,34.598291,金箭电动车(邹庄专卖店),江苏省,无,金箭电动车
炮车镇炮车中学后门金箭电动车,邳州市,徐州市,118.055056,34.337936,金箭电动车果果车行,江苏省,无,金箭电动车
华山路与珠江西路交叉口东北150米,邳州市,徐州市,117.951435,34.324444,金箭电动车华山路旗舰店,江苏省,无,金箭电动车
205县道西200米,邳州市,徐州市,117.945582,34.411302,金彭电动三轮车(红旗专卖店),江苏省,18361366668;15952277588,金箭电动车
