add_time,address,area,city,lat,lng,name,province,tel,topic
2019-09-09,,东城区,北京市,116.416734,39.938583,小刀电动车,北京市,无,小刀
2019-09-09,X011(潞西路),通州区,北京市,116.681382,39.794835,小刀电动车,北京市,无,小刀
2019-09-09,,密云区,北京市,116.985834,40.567381,小刀电动车,北京市,无,小刀
2019-09-09,,顺义区,北京市,116.668350,40.042370,小刀电动车,北京市,无,小刀
2019-09-09,,大兴区,北京市,116.515784,39.675680,小刀电动车,北京市,无,小刀
2019-09-09,,通州区,北京市,116.652985,39.748611,小刀电动车,北京市,无,小刀
2019-09-09,,平谷区,北京市,117.113687,40.116243,小刀电动车,北京市,无,小刀
2019-09-09,,大兴区,北京市,116.492480,39.618728,小刀电动车,北京市,无,小刀
2019-09-09,大辛庄村张凤路东侧,通州区,北京市,116.724345,39.826992,小刀电动车(大辛庄),北京市,13683602450,小刀
2019-09-09,马坊村小刀电动车136号,昌平区,北京市,116.404920,40.153582,小刀电动车(马坊),北京市,无,小刀
2019-09-09,魏善庄镇天和利民农贸市场小刀电动车,大兴区,北京市,116.406983,39.667736,小刀电动车,北京市,无,小刀
2019-09-09,南湖一街与南湖二街交叉口东150米,顺义区,北京市,116.565515,40.134304,小刀电动车,北京市,无,小刀
2019-09-09,宋庄村委会对面小刀电动车店,通州区,北京市,116.730080,39.947971,小刀电动车,北京市,13671153410,小刀
2019-09-09,尚上路北50米,昌平区,北京市,116.321603,40.147556,小刀电动车,北京市,18701099043,小刀
2019-09-09,立汤路511号附近,昌平区,北京市,116.414540,40.085061,小刀电动车,北京市,无,小刀
2019-09-09,文明大街与王家场西长街交叉口东100米,顺义区,北京市,116.710291,40.077485,小刀电动车,北京市,无,小刀
2019-09-09,漷县镇镇政府西行200米红绿灯,通州区,北京市,116.658186,39.831369,小刀电动车,北京市,无,小刀
2019-09-09,新华南路43号,通州区,北京市,116.657752,39.904766,小刀电动车通州总店,北京市,010-69521822,小刀
2019-09-09,广渠门外大街北50米,朝阳区,北京市,116.453678,39.893881,小刀电动车,北京市,无,小刀
2019-09-09,张镇大街10号附近,顺义区,北京市,116.949699,40.151144,小刀电动车,北京市,无,小刀
2019-09-09,兴寿镇兴寿村731号,昌平区,北京市,116.415574,40.220255,小刀电动车,北京市,18518096596,小刀
2019-09-09,朝内大街131-1号,东城区,北京市,116.425903,39.924704,小刀电动车(朝阳门店),北京市,无,小刀
2019-09-09,兴隆商业街143号附近,延庆区,北京市,115.901013,40.375079,小刀电动车,北京市,无,小刀
2019-09-09,长沟北大街340号附近,房山区,北京市,115.903189,39.583454,小刀电动车,北京市,无,小刀
2019-09-09,沙河镇星星幼儿园旁,昌平区,北京市,116.325630,40.126667,小刀电动车,北京市,无,小刀
2019-09-09,南郝庄瑞明路12号,昌平区,北京市,116.220001,40.214156,小刀电动车,北京市,无,小刀
2019-09-09,北苑东路与太歇路交叉口东150米,昌平区,北京市,116.443869,40.072602,小刀电动车,北京市,无,小刀
2019-09-09,府前街1-2附近,平谷区,北京市,117.123548,40.140826,小刀电动车,北京市,无,小刀
2019-09-09,鼓楼西街11号楼8号,昌平区,北京市,116.224084,40.223823,小刀电动车(十八里店),北京市,15911115118,小刀
2019-09-09,沙河镇巩华城大街44号,昌平区,北京市,116.268261,40.125141,小刀电动车,北京市,13371706189,小刀
2019-09-09,沿河村邮局东侧50米,顺义区,北京市,116.716873,40.040087,小刀电动车,北京市,18801468158,小刀
2019-09-09,古城南路2号附近,石景山区,北京市,116.194062,39.913033,小刀电动车,北京市,无,小刀
2019-09-09,梨园新华联南区怡乐北街底商12号,通州区,北京市,116.641916,39.888453,小刀电动车,北京市,15652689994,小刀
2019-09-09,拱辰南大街85号院附近,房山区,北京市,116.141886,39.727094,小刀电动车,北京市,无,小刀
2019-09-09,青礼路与黄徐路交叉口东北100米,大兴区,北京市,116.492861,39.617767,小刀电动车,北京市,无,小刀
2019-09-09,潞苑南大街494号小刀车行(荟友居旁边),通州区,北京市,116.676787,39.929440,小刀电动车(通州区潞苑南大街分店),北京市,18500756649,小刀
2019-09-09,前街西一条5号东80米,顺义区,北京市,116.497872,40.171288,小刀电动车,北京市,无,小刀
2019-09-09,东四北大街与东四十三条交叉口西50米,东城区,北京市,116.416828,39.936262,小刀电动车,北京市,无,小刀
2019-09-09,漷城路与漷马路交叉口西50米,通州区,北京市,116.789447,39.777616,小刀电动车,北京市,13263372335,小刀
2019-09-09,中心东街与610乡道交叉口东50米,顺义区,北京市,116.642755,40.063665,小刀电动车,北京市,无,小刀
2019-09-09,天竺路与铁东街交叉口南50米,顺义区,北京市,116.567684,40.099179,小刀电动车,北京市,无,小刀
2019-09-09,东大街与平沿路交叉口南50米,顺义区,北京市,116.700495,40.101461,小刀电动车,北京市,无,小刀
2019-09-09,建材城西路25号,海淀区,北京市,116.352270,40.061627,小刀电动车,北京市,13301054990,小刀
2019-09-09,崔各庄镇京旺家园四区北门底商,朝阳区,北京市,116.531152,40.012204,小刀电动车,北京市,13910585728;13911572186,小刀
2019-09-09,张采路旧线二与瓜厂路交叉口北150米,通州区,北京市,116.705019,39.845741,小刀电动车(瓜厂路),北京市,无,小刀
2019-09-09,三间房高碑店双桥路康惠园5号院2号楼,朝阳区,北京市,116.578061,39.904043,小刀电动车(双桥路店),北京市,无,小刀
2019-09-09,回龙观西大街40号西北60米,昌平区,北京市,116.329927,40.078728,小刀电动车,北京市,无,小刀
2019-09-09,城关街道农林路祺兴缘底商1单元102号,房山区,北京市,115.984621,39.688065,小刀电动车(房山店),北京市,无,小刀
2019-09-09,冷泉路东50米,海淀区,北京市,116.223852,40.037515,小刀电动车,北京市,无,小刀
2019-09-09,金盏乡金盏大街7号金榆商务楼附近(京客隆西),朝阳区,北京市,116.576609,40.002438,小刀电动车(金盏路店),北京市,4000589988,小刀
2019-09-09,顾郑路东50米,房山区,北京市,115.964161,39.614480,小刀电动车(赵各庄路店),北京市,无,小刀
2019-09-09,狼垡村长丰园小区商业街,大兴区,北京市,116.286823,39.781946,小刀电动车(狼垡东路),北京市,15313961993,小刀
2019-09-09,顺密路南50米,顺义区,北京市,116.779375,40.245175,小刀电动车(木林镇林业工作站西南),北京市,15311498522,小刀
2019-09-09,觅子店北口南200米,通州区,北京市,116.882122,39.715673,小刀电动车(觅子店店),北京市,无,小刀
2019-09-09,京密路与新南路交叉口北100米,密云区,北京市,116.843978,40.369995,小刀电动车(密云专卖店),北京市,15811526889,小刀
2019-09-09,新海东路2号院9号楼,通州区,北京市,116.547076,39.762887,小刀电动车(永昌南路),北京市,010-80595515,小刀
2019-09-09,南农家园南侧小刀电动车,昌平区,北京市,116.118550,40.209395,小刀电动车,北京市,13716147366;18518192366,小刀
2019-09-09,北法信信中路五号,顺义区,北京市,116.612886,40.137608,小刀电动车,北京市,无,小刀
2019-09-09,二号路附近,宝坻区,天津市,117.435439,39.451883,小刀科技股份有限公司,天津市,无,小刀
2019-09-09,,宁河区,天津市,117.846274,39.349587,小刀电动车,天津市,13821865767,小刀
2019-09-09,蓟州区西龙虎欲镇燕各庄13区12号,蓟州区,天津市,117.711415,39.999561,小刀电动车,天津市,无,小刀
2019-09-09,,河东区,天津市,117.270982,39.106408,小刀电动车,天津市,无,小刀
2019-09-09,幸福路,西青区,天津市,117.210273,39.007355,小刀电动车,天津市,无,小刀
2019-09-09,林钟公路附近,宝坻区,天津市,117.570889,39.691955,小刀电动车,天津市,无,小刀
2019-09-09,305省道附近,宝坻区,天津市,117.381236,39.449370,小刀电动车,天津市,无,小刀
2019-09-09,福滨二支路东50米,津南区,天津市,117.500312,38.986587,小刀电动车,天津市,无,小刀
2019-09-09,丰崔路与团静路交叉口东南150米,静海区,天津市,117.008114,38.895355,小刀电动车,天津市,无,小刀
2019-09-09,旭源路与梨双路交叉口西150米,西青区,天津市,117.213108,39.030467,小刀电动车,天津市,无,小刀
2019-09-09,东海街道枫林路11号小刀电动车黑底红线,河西区,天津市,117.256284,39.060644,小刀电动车(黑底红线),天津市,无,小刀
2019-09-09,碧野新苑北临武静线,北辰区,天津市,117.033099,39.195119,小刀电动车,天津市,无,小刀
2019-09-09,精武镇荣华道8号,西青区,天津市,117.100257,39.033851,小刀电动车,天津市,15602033530,小刀
2019-09-09,昆仑路57号附近,东丽区,天津市,117.273782,39.124606,小刀电动车(昆仑路辅路),天津市,13622166190,小刀
2019-09-09,蔡中路38号附近,静海区,天津市,117.120211,38.688601,小刀电动车,天津市,无,小刀
2019-09-09,南淮淀路北50米,宁河区,天津市,117.572839,39.260998,小刀电动车,天津市,无,小刀
2019-09-09,一纬路与合兴路交叉口西南100米,东丽区,天津市,117.368629,39.074881,小刀电动车,天津市,无,小刀
2019-09-09,二纬二支路与杨北公路交叉口北150米,东丽区,天津市,117.388821,39.177656,小刀电动车(华明镇),天津市,13821779092,小刀
2019-09-09,梅厂镇北王平对面底商,武清区,天津市,117.205587,39.356500,小刀电动车,天津市,无,小刀
2019-09-09,沙高路48号附近,武清区,天津市,116.883642,39.636243,小刀电动车,天津市,无,小刀
2019-09-09,振华西道1号附近,武清区,天津市,117.056736,39.374870,小刀电动车,天津市,无,小刀
2019-09-09,周牛路北50米,宝坻区,天津市,117.300125,39.523926,小刀电动车,天津市,无,小刀
2019-09-09,靖江路金沙江里底商安徽板面王旁,河北区,天津市,117.246052,39.167257,小刀电动车,天津市,无,小刀
2019-09-09,双街新城龙顺道160号,北辰区,天津市,117.104067,39.260007,小刀电动车总代理,天津市,无,小刀
2019-09-09,蓟州区别山镇大市场里中段,蓟州区,天津市,117.499556,39.957763,小刀电动车,天津市,无,小刀
2019-09-09,西翟庄乡西翟庄医院附近,静海区,天津市,117.010710,38.769440,小刀电动车,天津市,无,小刀
2019-09-09,梁台路与静霸公路交叉口西北50米,静海区,天津市,116.791660,39.021947,小刀电动车,天津市,无,小刀
2019-09-09,杨柳青商贸街广汇商厦D座一楼14号,西青区,天津市,117.010935,39.138358,小刀电动车(广汇商厦店),天津市,无,小刀
2019-09-09,蓟州区超前手机西胡同南100米路东,蓟州区,天津市,117.413146,40.038515,小刀电动车,天津市,无,小刀
2019-09-09,辛口镇当城村,西青区,天津市,116.950314,39.091238,小刀电动车,天津市,无,小刀
2019-09-09,蓟州区仓台路与仓桑路交叉口西北100米,蓟州区,天津市,117.386652,39.904256,小刀电动车(仓桑路),天津市,无,小刀
2019-09-09,津沽公路与雅润路交叉口东南200米,津南区,天津市,117.375976,39.003445,小刀电动车,天津市,13920079576;13012201846,小刀
2019-09-09,紫园34号楼底商8,东丽区,天津市,117.389029,39.177572,四顺车行(裕和路),天津市,13821779092,小刀
2019-09-09,密云路53号昔阳南里底商,南开区,天津市,117.126662,39.132484,小刀电动车,天津市,13299920165,小刀
2019-09-09,咸阳路与嘉陵道交叉咸阳北里小区16号楼下底商小刀电动车,南开区,天津市,117.139082,39.126393,小刀电动车(嘉陵道),天津市,无,小刀
2019-09-09,,河东区,天津市,117.225897,39.126753,小刀电动车,天津市,15022705001,小刀
2019-09-09,碧泉商务会馆旁龙武道45号,北辰区,天津市,117.112053,39.192163,小刀电动车(龙武道店),天津市,无,小刀
2019-09-09,南开五马路41号,南开区,天津市,117.169898,39.129747,小刀电动车(南开五马路旗舰店),天津市,022-87478801,小刀
2019-09-09,盈江路盈江东里7号楼底商,南开区,天津市,117.136279,39.099095,小刀电动车(盈江路),天津市,无,小刀
2019-09-09,长江北道10号附近,静海区,天津市,117.066403,38.837389,小刀电动车(长江道),天津市,无,小刀
2019-09-09,榆关道,河北区,天津市,117.181608,39.177942,小刀电动车,天津市,无,小刀
2019-09-09,华昌大街22号东盈园8号,河东区,天津市,117.229720,39.139716,小刀电动车(华昌道),天津市,无,小刀
2019-09-09,蓟州区淋平公路北50米,蓟州区,天津市,117.715795,40.075786,小刀电动车,天津市,无,小刀
2019-09-09,商业道2号,宁河区,天津市,117.831266,39.335936,小刀电动车专卖店,天津市,无,小刀
2019-09-09,向阳西街57号正东方向74米,滨海新区,天津市,117.663559,39.025939,小刀双动力电动车,天津市,15302186900,小刀
2019-09-09,密云一支路与延安路交叉口西南150米,南开区,天津市,117.118509,39.129598,小刀电动车(密云一支路),天津市,13299920165,小刀
2019-09-09,曹子里镇工贸街59号,武清区,天津市,117.130987,39.415137,小刀电动车,天津市,15822008599,小刀
2019-09-09,静海镇东方红路东兴菜市场南门东150米,静海区,天津市,116.949882,38.932992,小刀电动车,天津市,无,小刀
2019-09-09,福海园14号楼底商,津南区,天津市,117.509956,38.991162,小刀电动车(葛沽红玲),天津市,13132275631,小刀
2019-09-09,西青道229号冬云里1号楼底商,西青区,天津市,117.119996,39.153026,小刀电动车(西青道辅路店),天津市,无,小刀
2019-09-09,独流镇三道街,静海区,天津市,116.911125,39.023534,小刀电动车,天津市,022-68815896,小刀
2019-09-09,王口镇津文线天津农商银行西,静海区,天津市,116.745829,38.934189,小刀电动车,天津市,无,小刀
2019-09-09,蓟州区京哈公路与西唐路交叉口西100米,蓟州区,天津市,117.261995,39.990712,小刀电动车(西唐路),天津市,无,小刀
2019-09-09,杨崔公路西50米,武清区,天津市,117.193781,39.529548,小刀电动车(小劳专卖),天津市,无,小刀
2019-09-09,南城路158号,宝坻区,天津市,117.304193,39.723691,小岛电动车,天津市,13652017565,小刀
2019-09-09,蓟州区津围公路与玉国路交叉口西南150米,蓟州区,天津市,117.422322,39.784756,小刀电动车(玉国路),天津市,无,小刀
2019-09-09,子牙镇团大线农村商业银行东南,静海区,天津市,116.770577,38.823520,小刀电动车(陈大公路店),天津市,15002261707,小刀
2019-09-09,津塘路207号振华里3号楼底商,东丽区,天津市,117.318092,39.090227,小刀电动车(津塘路辅路),天津市,无,小刀
2019-09-09,双塘镇东双塘,静海区,天津市,116.920518,38.871768,小刀电动车(东双塘专卖),天津市,无,小刀
2019-09-09,商业道2号,宁河区,天津市,117.831295,39.335911,小刀电动车(沿河路店),天津市,无,小刀
2019-09-09,花园路314号,滨海新区,天津市,117.506082,38.724119,电动车,天津市,13662041586,小刀
2019-09-09,李七庄杨楼口津涞公路与香霞路交口向西10米,西青区,天津市,117.176953,39.062100,小刀电动车原兴旺车行,天津市,无,小刀
2019-09-09,光明路与王台路交叉口西北200米,西青区,天津市,117.156229,39.055227,洪宁小刀电动车,天津市,无,小刀
2019-09-09,三号路12号,红桥区,天津市,117.140370,39.184768,刀xdau小刀电动车,天津市,无,小刀
2019-09-09,永泰路10巷10巷15号附近,裕华区,石家庄市,114.509142,37.980558,小刀电动车,河北省,无,小刀
2019-09-09,槐安路与翟营大街交口西行80米路北,裕华区,石家庄市,114.553152,38.022929,小刀电动车(万达店),河北省,13733315200,小刀
2019-09-09,栾城区X017(商品街),栾城区,石家庄市,114.572246,37.883380,小刀电动车,河北省,无,小刀
2019-09-09,上庄镇商品街南行100米路西,鹿泉区,石家庄市,114.384378,38.035769,小刀电动车,河北省,无,小刀
2019-09-09,和平东路530附近,长安区,石家庄市,114.564170,38.054279,小刀电动车(钢厂店),河北省,无,小刀
2019-09-09,健康路11-付4号附近,长安区,石家庄市,114.515830,38.050491,小刀电动车,河北省,无,小刀
2019-09-09,003县道与039省道交叉口北200米,晋州市,石家庄市,115.140382,38.073248,小刀电动车,河北省,无,小刀
2019-09-09,回新线与308国道交叉口西北100米,赵县,石家庄市,114.719453,37.805250,小刀电动车,河北省,无,小刀
2019-09-09,无极西路与英杰巷交叉口西50米,无极县,石家庄市,114.971375,38.177426,小刀电动车,河北省,0311-85577518,小刀
2019-09-09,商业街东50米,正定县,石家庄市,114.506682,38.189653,小刀电动车,河北省,无,小刀
2019-09-09,凤中路与北新街交叉口南50米,高邑县,石家庄市,114.605969,37.604171,小刀电动车,河北省,无,小刀
2019-09-09,,赵县,石家庄市,115.037570,37.757725,小刀电动车,河北省,无,小刀
2019-09-09,北二环赵陵路中国工商银行对面,新华区,石家庄市,114.475043,38.095442,小刀电动车(北郡店),河北省,无,小刀
2019-09-09,西大陈村,辛集市,石家庄市,115.299801,37.986532,小刀电动车,河北省,无,小刀
2019-09-09,高新区黄河大道98号一山摩托城B座,裕华区,石家庄市,114.606755,38.042457,小刀电动车,河北省,18032157596,小刀
2019-09-09,栾城区G308(青石线),栾城区,石家庄市,114.608052,37.921833,小刀电动车,河北省,无,小刀
2019-09-09,杏花路与矿市南街交叉口东北100米,井陉矿区,石家庄市,114.061926,38.059658,小刀电动车,河北省,无,小刀
2019-09-09,建明中路与谈固东街交叉口西北50米,长安区,石家庄市,114.570031,38.040453,小刀电动车,河北省,无,小刀
2019-09-09,大马圈村文明路39号,赵县,石家庄市,115.012536,37.841647,小刀电动车经销处,河北省,无,小刀
2019-09-09,赵佗路菜市场A7,新华区,石家庄市,114.489313,38.094285,小刀电动车(赵佗路专卖店),河北省,15032661277,小刀
2019-09-09,富强大街5附近,裕华区,石家庄市,114.526395,38.024176,小刀电动车(怀特店),河北省,无,小刀
2019-09-09,栾城区008县道西50米,栾城区,石家庄市,114.658154,37.932113,小刀电动车,河北省,无,小刀
2019-09-09,车站南街060乡附近,正定县,石家庄市,114.625575,38.222393,小刀电动车,河北省,无,小刀
2019-09-09,煤机街北宋路交叉口向东行100米路北,长安区,石家庄市,114.550582,38.044738,小刀电动车,河北省,无,小刀
2019-09-09,长兴街珍膳坊对面南行100米路西,桥西区,石家庄市,114.408552,38.053994,小刀电动车,河北省,无,小刀
2019-09-09,和平西路641号附近,新华区,石家庄市,114.417240,38.069536,小刀电动车,河北省,无,小刀
2019-09-09,东岗路与谈固大街交口西行50米路北,裕华区,石家庄市,114.562011,38.016307,小刀电动车,河北省,无,小刀
2019-09-09,裕华东路167-2号附近,长安区,石家庄市,114.555034,38.036662,小刀电动车,河北省,无,小刀
2019-09-09,槐安西路246-6号,桥西区,石家庄市,114.439104,38.024153,小刀电动车,河北省,无,小刀
2019-09-09,联盟路高中街高华路南行10米,新华区,石家庄市,114.469888,38.079254,小刀电动车,河北省,13126129060,小刀
2019-09-09,栾城区三言路与阳光大道交叉口西100米,栾城区,石家庄市,114.595097,37.958108,小刀电动车,河北省,13230137820,小刀
2019-09-09,西北贸易大街与201省道交叉口西南150米,灵寿县,石家庄市,114.320950,38.457036,小刀电动车,河北省,无,小刀
2019-09-09,中华北大街与柏林南路交叉口西50米,新华区,石家庄市,114.478163,38.071876,小刀电动车,河北省,无,小刀
2019-09-09,翟营大街方兴路交口东行1000米路南(安苑B区),裕华区,石家庄市,114.563710,37.989716,小刀电动车,河北省,无,小刀
2019-09-09,微水镇伊凡车行,井陉县,石家庄市,114.140815,38.035855,小刀电动车,河北省,无,小刀
2019-09-09,邯邰镇信用社东邻路北58米,新乐市,石家庄市,114.845942,38.318266,小刀电动车,河北省,无,小刀
2019-09-09,燕赵南大街108号华阳东门对过,正定县,石家庄市,114.571612,38.145107,小刀电动车(燕赵南大街店),河北省,无,小刀
2019-09-09,昌泰路与107国道交叉口东北150米,正定县,石家庄市,114.656488,38.290623,小刀电动车,河北省,无,小刀
2019-09-09,兴发街与新园街交叉口东南100米,晋州市,石家庄市,115.062816,38.021903,小刀电动车(兴发街店),河北省,无,小刀
2019-09-09,010县道东50米,元氏县,石家庄市,114.522289,37.685344,小刀电动车(东正直营店),河北省,13673185025,小刀
2019-09-09,昌盛街与胜利东路交叉口北100米,藁城区,石家庄市,114.952152,37.871027,小刀电动车,河北省,无,小刀
2019-09-09,东王镇卫生院附近,新乐市,石家庄市,114.892054,38.320912,小刀电动车,河北省,无,小刀
2019-09-09,围村北路与204省道交叉口南150米,藁城区,石家庄市,114.743120,38.219277,小刀电动车福乐美电动三轮车,河北省,13933190413,小刀
2019-09-09,平山镇冶河东路73号中山广场,平山县,石家庄市,114.203678,38.257959,小刀电动车,河北省,无,小刀
2019-09-09,鲜虞街35号,新乐市,石家庄市,114.691468,38.345571,小刀电动车(鲜虞街),河北省,无,小刀
2019-09-09,人民东路113号,灵寿县,石家庄市,114.392059,38.309500,小刀双动力电动车(人民东路店),河北省,无,小刀
2019-09-09,香港路158号,行唐县,石家庄市,114.563012,38.441989,小刀电动车(行唐专卖店),河北省,15032136238,小刀
2019-09-09,彭后街道槐安东路1号华夏商务酒店北侧底商,桥西区,石家庄市,114.494915,38.023571,小刀电动车(大经街),河北省,无,小刀
2019-09-09,赵州镇建设路宝宝秀双语幼儿园北100米,赵县,石家庄市,114.769072,37.751125,小刀电动车(赵县店),河北省,15831987270,小刀
2019-09-09,石清路南50米,鹿泉区,石家庄市,114.349566,38.197945,小刀电动车(李村专卖店),河北省,13483164195;13383119250,小刀
2019-09-09,槐阳镇蟠龙路56-11号,元氏县,石家庄市,114.535031,37.758534,小刀电动车(蟠龙路店),河北省,无,小刀
2019-09-09,开泰街61号西北100米,桥西区,石家庄市,114.432090,38.058863,小刀电动车,河北省,无,小刀
2019-09-09,石清路南50米,鹿泉区,石家庄市,114.346840,38.197150,五星钻豹小刀电动车,河北省,无,小刀
2019-09-09,曙光路北50米,正定县,石家庄市,114.539330,38.168563,峰峰车行小刀电动车,河北省,无,小刀
2019-09-09,西山道232号附近,路北区,唐山市,118.141962,39.630038,小刀电动车,河北省,无,小刀
2019-09-09,华岩北路5号附近,路北区,唐山市,118.171830,39.642829,小刀电动车,河北省,无,小刀
2019-09-09,新华路100号,丰南区,唐山市,118.102305,39.562554,小刀电动车,河北省,无,小刀
2019-09-09,,乐亭县,唐山市,119.190269,39.439263,小刀电动车,河北省,无,小刀
2019-09-09,,迁安市,唐山市,118.635847,39.936258,小刀电动车,河北省,无,小刀
2019-09-09,邱柳线附近,丰润区,唐山市,118.133705,39.840220,小刀电动车,河北省,无,小刀
2019-09-09,长宁道祥丰里,路北区,唐山市,118.165795,39.667151,小刀电动车,河北省,无,小刀
2019-09-09,光明南路与谊园道交叉口东150米,路南区,唐山市,118.136656,39.608932,小刀电动车,河北省,无,小刀
2019-09-09,唐山高新技术产业开发区庆南道35中300米路北,路北区,唐山市,118.199434,39.690438,小刀电动车,河北省,无,小刀
2019-09-09,范董线南50米,丰南区,唐山市,118.193514,39.470506,小刀电动车,河北省,无,小刀
2019-09-09,港欣街西100米,乐亭县,唐山市,118.983837,39.235930,小刀电动车,河北省,无,小刀
2019-09-09,京哈公路南50米,玉田县,唐山市,117.654990,39.905174,小刀电动车,河北省,无,小刀
2019-09-09,303省道南50米,玉田县,唐山市,117.581300,39.837564,小刀电动车,河北省,无,小刀
2019-09-09,京哈公路北50米,玉田县,唐山市,117.608580,39.920472,小刀电动车,河北省,无,小刀
2019-09-09,014乡道与112国道交叉口西北150米,遵化市,唐山市,117.978351,40.130291,小刀电动车,河北省,无,小刀
2019-09-09,西城路37号附近,开平区,唐山市,118.263671,39.679637,小刀电动车,河北省,无,小刀
2019-09-09,祺光大街1211号附近,迁安市,唐山市,118.694517,40.024796,小刀电动车,河北省,无,小刀
2019-09-09,102国道北50米,迁安市,唐山市,118.581986,39.866115,小刀电动车,河北省,无,小刀
2019-09-09,兴隆道附近,丰润区,唐山市,118.040171,39.639256,云海车业小刀电动车专卖,河北省,无,小刀
2019-09-09,荣国南大路95号,丰润区,唐山市,118.128395,39.812799,小刀电动车(大悦新城店),河北省,15531552352,小刀
2019-09-09,豪门路西100米,玉田县,唐山市,117.666551,39.849964,小刀电动车(林南仓东六小区西南),河北省,无,小刀
2019-09-09,361省道(秀伟卫生所西),丰润区,唐山市,117.955805,39.643968,小刀电动车(秀伟卫生所西),河北省,无,小刀
2019-09-09,万嘉商贸园小百批发市场1-9-1,迁安市,唐山市,118.722171,40.027634,小刀电动车,河北省,无,小刀
2019-09-09,建明镇洪火线圣地亚购物广场西北,遵化市,唐山市,118.114728,40.191139,小刀双动力电动车,河北省,无,小刀
2019-09-09,发展道与开放路交叉口西50米,曹妃甸区,唐山市,118.213273,39.244302,小刀电动车,河北省,无,小刀
2019-09-09,郭新线西50米,玉田县,唐山市,117.538599,39.902707,小刀电动车,河北省,无,小刀
2019-09-09,复兴路176号,路南区,唐山市,118.210933,39.620498,小刀电动车(复兴路店),河北省,无,小刀
2019-09-09,彭李线彭店子初级中学南400米,迁安市,唐山市,118.844257,39.918663,小刀电动车,河北省,无,小刀
2019-09-09,滦州市杨柳庄北加油站北140米(迁曹线北),滦州市,唐山市,118.385622,39.921092,小刀电动车,河北省,无,小刀
2019-09-09,三抚线与景忠南路交叉口北150米,迁西县,唐山市,118.208758,40.214904,小刀电动车,河北省,无,小刀
2019-09-09,102国道南50米,丰润区,唐山市,117.939489,39.875081,小刀电动车,河北省,无,小刀
2019-09-09,100乡道西50米,滦南县,唐山市,118.711918,39.604175,小刀电动车,河北省,无,小刀
2019-09-09,县城县城供销大厦南下坡,玉田县,唐山市,117.779258,39.669122,电动车专卖,河北省,无,小刀
2019-09-09,京华东道与城乡路交叉口西150米,古冶区,唐山市,118.488076,39.751191,小刀电动车,河北省,无,小刀
2019-09-09,平东线北50米,遵化市,唐山市,117.792723,40.054485,小刀电动车,河北省,无,小刀
2019-09-09,黄各庄镇胥涧线惠祥园东北400米,丰南区,唐山市,118.142270,39.488572,小刀电动车(惠祥园店),河北省,无,小刀
2019-09-09,河北路街道河北路与庆南道交叉口西行50米,路北区,唐山市,118.206808,39.690919,小刀,河北省,无,小刀
2019-09-09,城南大街10号,滦南县,唐山市,118.679139,39.507927,小刀电动车,河北省,无,小刀
2019-09-09,楼118楼,古冶区,唐山市,118.452607,39.716401,小刀电动车,河北省,13231558067,小刀
2019-09-09,南关西大街与铁南街交叉口西50米,玉田县,唐山市,117.757691,39.882727,小刀电动车(玉田专卖店),河北省,无,小刀
2019-09-09,韩城万都国际附近,丰润区,唐山市,118.047553,39.638261,小刀电动车(韩城专卖店),河北省,无,小刀
2019-09-09,葛杨线与102国道交叉口西北100米,滦州市,唐山市,118.419528,39.864138,小刀电动车(葛杨线),河北省,无,小刀
2019-09-09,更新大街28号附近,玉田县,唐山市,117.863262,39.752201,小刀双动力电动车,河北省,无,小刀
2019-09-09,294乡道西50米,迁安市,唐山市,118.643407,40.096429,小刀电动车,河北省,无,小刀
2019-09-09,杨店子镇彭李线汇丰园大酒店南150米,迁安市,唐山市,118.577850,40.007550,小刀电动车,河北省,无,小刀
2019-09-09,长大线北50米,滦南县,唐山市,118.509598,39.443273,小刀电动车(长大线),河北省,无,小刀
2019-09-09,垦丰大街48-3号,曹妃甸区,唐山市,118.453909,39.272294,小刀电动车(垦丰大街),河北省,0315-8722632,小刀
2019-09-09,昌盛大路和景福街的交叉口附近,迁安市,唐山市,118.697239,40.012520,小刀电动车(昌盛大路店),河北省,无,小刀
2019-09-09,南大路3号,乐亭县,唐山市,118.911656,39.424028,小刀电动车(南大路店),河北省,0315-4631568,小刀
2019-09-09,通华西街46号附近,遵化市,唐山市,117.961307,40.187647,小刀电动车(遵化旗舰店),河北省,无,小刀
2019-09-09,三抚公路与208乡道交叉口北200米河北省迁西县新店供销合作社附近,迁西县,唐山市,118.527820,40.165844,罗屯新店小刀电动车,河北省,无,小刀
2019-09-09,中心路与362省道交叉口西北150米,丰南区,唐山市,118.375874,39.569847,欧皇重三轮车小刀电动车(钱营专卖店),河北省,无,小刀
2019-09-09,燕山西路470附近,青龙满族自治县,秦皇岛市,118.930887,40.409795,小刀电动车,河北省,无,小刀
2019-09-09,102国道北50米,海港区,秦皇岛市,119.436435,39.936058,小刀电动车,河北省,无,小刀
2019-09-09,站南大街与635县道交叉口西南150米,北戴河区,秦皇岛市,119.411552,39.842240,小刀电动车,河北省,无,小刀
2019-09-09,205国道东50米,抚宁区,秦皇岛市,119.289427,39.776140,小刀电动车,河北省,13623343667,小刀
2019-09-09,251省道东50米,海港区,秦皇岛市,119.529312,40.023049,小刀电动车,河北省,无,小刀
2019-09-09,蛇刘线西50米,卢龙县,秦皇岛市,118.931116,40.049732,小刀电动车,河北省,无,小刀
2019-09-09,和平大街与海阳路交叉口西南100米,海港区,秦皇岛市,119.591959,39.935130,小刀电动车(和平大街店),河北省,13081845093,小刀
2019-09-09,北门外路与滨河大街交叉口西北50米,卢龙县,秦皇岛市,118.877284,39.889810,小刀电动车(永平大街),河北省,无,小刀
2019-09-09,天马大街中段,抚宁区,秦皇岛市,119.245439,39.885008,小刀电动车(骊城龙园店),河北省,15133511168,小刀
2019-09-09,363省道北50米,卢龙县,秦皇岛市,118.935109,40.109005,小刀电动车(中共卢龙县刘家营乡委员会东),河北省,无,小刀
2019-09-09,,永年区,邯郸市,114.658282,36.726351,小刀电动车,河北省,无,小刀
2019-09-09,复兴路92号附近,复兴区,邯郸市,114.469769,36.607684,小刀电动车(复兴路店),河北省,无,小刀
2019-09-09,106国道与313省道交叉口西北150米附近,大名县,邯郸市,115.234194,36.222795,小刀电动车,河北省,无,小刀
2019-09-09,邯馆公路与073乡道交叉口西100米,肥乡区,邯郸市,114.985481,36.556230,小刀电动车,河北省,无,小刀
2019-09-09,丛峰线附近,临漳县,邯郸市,114.525902,36.189096,小刀电动车,河北省,无,小刀
2019-09-09,156县道北50米,复兴区,邯郸市,114.320711,36.483129,小刀电动车,河北省,无,小刀
2019-09-09,107国道西50米,邯山区,邯郸市,114.431305,36.475661,小刀电动车,河北省,无,小刀
2019-09-09,邯馆公路321附近,邯山区,邯郸市,114.600888,36.585811,小刀电动车,河北省,无,小刀
2019-09-09,浮图店乡浮东一村派出所以北,鸡泽县,邯郸市,114.774615,36.887793,小刀电动车,河北省,无,小刀
2019-09-09,沙口集乡邯大公路沙口集乡政府东侧附近,魏县,邯郸市,115.025420,36.304996,小刀电动车,河北省,15232892492,小刀
2019-09-09,030乡道东100米,魏县,邯郸市,114.800250,36.270354,小刀电动车,河北省,无,小刀
2019-09-09,先锋路与建设大街交叉口东北100米,复兴区,邯郸市,114.460379,36.616404,小刀电动车,河北省,无,小刀
2019-09-09,318省道新人民旁,永年区,邯郸市,114.578487,36.818475,小刀电动车,河北省,无,小刀
2019-09-09,南开街与振兴东路交叉口东南50米,曲周县,邯郸市,114.961642,36.773892,小刀电动车,河北省,无,小刀
2019-09-09,临漳镇邺都大街与南二环交叉口东行50米路南,临漳县,邯郸市,114.613985,36.331222,小刀电动车(江春苑店),河北省,13832075345,小刀
2019-09-09,工农路北100米,峰峰矿区,邯郸市,114.156845,36.481357,小刀电动车,河北省,无,小刀
2019-09-09,从峰线与159乡道交叉口西100米,磁县,邯郸市,114.221116,36.286640,小刀电动车,河北省,无,小刀
2019-09-09,育才路与长安街交叉口东150米,武安市,邯郸市,114.233703,36.736610,小刀电动车,河北省,无,小刀
2019-09-09,001县道与121乡道交叉口南100米,丛台区,邯郸市,114.671989,36.638420,小刀电动车,河北省,无,小刀
2019-09-09,318省道北50米,永年区,邯郸市,114.524175,36.805975,小刀电动车,河北省,无,小刀
2019-09-09,兼庄乡东环路与和平路交叉路口南行二百米路东,丛台区,邯郸市,114.540248,36.597320,小刀电动车,河北省,无,小刀
2019-09-09,邯馆公路343号附近,邯山区,邯郸市,114.596196,36.586403,小刀电动车(代召店),河北省,13903102865,小刀
2019-09-09,124乡道东100米,永年区,邯郸市,114.481808,36.781685,小刀电动车,河北省,无,小刀
2019-09-09,曲周镇光明街南桥口468号,曲周县,邯郸市,114.949310,36.766799,小刀电动车,河北省,15032892956;13623109338,小刀
2019-09-09,141乡道与315省道交叉口东150米,邯山区,邯郸市,114.478157,36.462119,小刀电动车,河北省,无,小刀
2019-09-09,邯临公路北50米,丛台区,邯郸市,114.667907,36.671522,小刀电动车,河北省,无,小刀
2019-09-09,邯临公路南50米,丛台区,邯郸市,114.707782,36.673271,小刀电动车,河北省,无,小刀
2019-09-09,312省道和西环路交叉口西南角,武安市,邯郸市,114.162874,36.713380,小刀电动车金彭三轮车,河北省,15830096735,小刀
2019-09-09,临水镇一矿加油站北行50米路东,峰峰矿区,邯郸市,114.212074,36.448648,小刀电动车,河北省,无,小刀
2019-09-09,铁西南大街20号西60米,复兴区,邯郸市,114.469014,36.601750,小刀电动车,河北省,无,小刀
2019-09-09,151县道南50米,曲周县,邯郸市,114.976979,36.672014,金彭电动三轮车(安寨旗舰店),河北省,0310-4580039;13932032687,小刀
2019-09-09,牌坊路与贸易街交叉口西100米,涉县,邯郸市,113.668432,36.560766,小刀电动车,河北省,无,小刀
2019-09-09,望远北街215号附近,魏县,邯郸市,114.932360,36.367358,小刀电动车,河北省,无,小刀
2019-09-09,顺平街9号附近,魏县,邯郸市,114.932001,36.310971,小刀电动车,河北省,无,小刀
2019-09-09,从峰线与046乡道交叉口西50米,大名县,邯郸市,115.209852,36.290831,小刀电动车,河北省,无,小刀
2019-09-09,桃园街与桥西路交叉口西北50米,武安市,邯郸市,114.209875,36.687083,小刀电动车,河北省,13932093711,小刀
2019-09-09,陵西大街55号西70米,丛台区,邯郸市,114.481938,36.605595,小刀电动车,河北省,15830059000,小刀
2019-09-09,和平路新新家园楼下,邯山区,邯郸市,114.515291,36.600477,小刀电动车,河北省,无,小刀
2019-09-09,城南街22号附近,丛台区,邯郸市,114.486703,36.605445,小刀电动车售后服务中心,河北省,15373733685,小刀
2019-09-09,广平镇老工商局南288米路西,广平县,邯郸市,114.948159,36.474711,小刀电动车(广平专卖店),河北省,0310-2526896,小刀
2019-09-09,临漳镇邺都大街与南二环交叉口东行50米路南,临漳县,邯郸市,114.614657,36.331555,小刀城市休闲车,河北省,13832075345,小刀
2019-09-09,318省道南50米,永年区,邯郸市,114.646648,36.838631,小刀电动车,河北省,无,小刀
2019-09-09,建设街58号,邱县,邯郸市,115.170436,36.818719,小刀电动车,河北省,15226931322,小刀
2019-09-09,309国道南50米,武安市,邯郸市,114.098849,36.651192,小刀电动车,河北省,无,小刀
2019-09-09,魏城镇望远北街101号,魏县,邯郸市,114.932648,36.364177,小刀双动力电动车(魏县专卖店),河北省,无,小刀
2019-09-09,202省道北50米,武安市,邯郸市,113.904826,36.731357,小刀电动车(阳邑镇财政所东),河北省,15832012444,小刀
2019-09-09,313省道附近,大名县,邯郸市,115.426207,36.225691,小刀电动车(北峰专卖),河北省,无,小刀
2019-09-09,滏阳西路108号附近,峰峰矿区,邯郸市,114.182705,36.420978,小刀电动车(三和路),河北省,无,小刀
2019-09-09,邯邢路与政府街交叉口处南行,永年区,邯郸市,114.485484,36.775679,小刀电动车(豪雅花园西北),河北省,0310-8302999,小刀
2019-09-09,中山西路100-2号,磁县,邯郸市,114.380199,36.360645,小刀电动车(中山西路),河北省,无,小刀
2019-09-09,邯钢路与浴新南大街交叉口南100米路西,邯山区,邯郸市,114.477204,36.589220,小刀电动车,河北省,无,小刀
2019-09-09,105乡道南50米,曲周县,邯郸市,114.884656,36.725860,小富车业小刀电动车,河北省,0310-8922018,小刀
2019-09-09,S282(清临路),清河县,邢台市,115.690744,36.997755,小刀电动车(杜林康胜车行),河北省,无,小刀
2019-09-09,,巨鹿县,邢台市,115.136707,37.281906,小刀电动车,河北省,无,小刀
2019-09-09,G107(京深线),沙河市,邢台市,114.507506,36.985581,小刀电动车,河北省,13831911270,小刀
2019-09-09,,隆尧县,邢台市,114.751689,37.284334,小刀电动车,河北省,13363736366,小刀
2019-09-09,南街与051乡道交叉口南100米,邢台县,邢台市,114.609579,37.121846,小刀电动车专卖店,河北省,无,小刀
2019-09-09,大陆村大一街南行100米路东,宁晋县,邢台市,115.051840,37.670736,小刀电动车,河北省,无,小刀
2019-09-09,323省道北50米,邢台县,邢台市,113.939635,37.093394,小刀电动车,河北省,无,小刀
2019-09-09,金店镇金店市场东段路北,内丘县,邢台市,114.587908,37.277481,小刀电动车,河北省,无,小刀
2019-09-09,昌盛大街,邢台县,邢台市,114.544157,37.017599,小刀电动车,河北省,无,小刀
2019-09-09,006乡道南50米,沙河市,邢台市,114.541775,36.954413,小刀电动车,河北省,无,小刀
2019-09-09,324省道西50米,任县,邢台市,114.781584,37.245416,小刀电动车,河北省,无,小刀
2019-09-09,永福庄乡二大队,任县,邢台市,114.714740,37.205719,小刀电动车,河北省,无,小刀
2019-09-09,河渠镇,宁晋县,邢台市,114.833748,37.596759,河渠小刀电动车专卖店,河北省,无,小刀
2019-09-09,玉兰东路与905县道交叉口东50米,临西县,邢台市,115.503383,36.859250,小刀电动车,河北省,无,小刀
2019-09-09,任城镇老大街279,任县,邢台市,114.683976,37.123673,小刀电动车,河北省,无,小刀
2019-09-09,泉南大街兴达路滨河上品家园,桥西区,邢台市,114.492906,37.083062,小刀电动车,河北省,18131952307,小刀
2019-09-09,S234(东兴街),宁晋县,邢台市,114.944958,37.548779,小刀电动车,河北省,无,小刀
2019-09-09,龙泉东大街1095附近,邢台县,邢台市,114.548946,37.040620,小刀电动车,河北省,无,小刀
2019-09-09,建设大街与育才路交叉口东南50米,桥西区,邢台市,114.471082,37.053791,小刀电动车,河北省,无,小刀
2019-09-09,308国道与403乡道交叉口东南150米,宁晋县,邢台市,115.074633,37.518648,小刀电动车艾(辛庄专卖店),河北省,无,小刀
2019-09-09,海河路大曹庄中学,宁晋县,邢台市,114.936802,37.558841,小刀电动车,河北省,无,小刀
2019-09-09,先锋路与复兴大街交叉口北200米,临西县,邢台市,115.684161,36.855586,小刀电动车,河北省,无,小刀
2019-09-09,兴广南路15附近,广宗县,邢台市,115.145771,37.075561,小刀电动车,河北省,无,小刀
2019-09-09,迎宾路与034省道交叉口西150米,柏乡县,邢台市,114.656104,37.479357,小刀电动车,河北省,无,小刀
2019-09-09,龙岗西大街与321省道交叉口南100米,邢台县,邢台市,114.463440,37.130384,小刀电动车,河北省,15028898565,小刀
2019-09-09,007县道西50米,柏乡县,邢台市,114.705085,37.528087,小刀电动车,河北省,无,小刀
2019-09-09,234省道东50米,宁晋县,邢台市,115.003128,37.444593,小刀电动车,河北省,无,小刀
2019-09-09,393省道附近,柏乡县,邢台市,114.749780,37.599988,小刀电动车,河北省,无,小刀
2019-09-09,冶金北路与泉南西大街交叉口西100米,桥西区,邢台市,114.473410,37.082654,小刀电动车,河北省,无,小刀
2019-09-09,宁司线,宁晋县,邢台市,115.099487,37.754466,小刀电动车,河北省,无,小刀
2019-09-09,321省道东50米,邢台县,邢台市,114.315244,37.210357,小刀电动车,河北省,无,小刀
2019-09-09,地税内大孟税务分局,内丘县,邢台市,114.486917,37.226153,小刀电动车(大孟专卖店),河北省,13932981201,小刀
2019-09-09,新华南街274号附近,巨鹿县,邢台市,115.036334,37.212019,小刀电动车,河北省,13230966368,小刀
2019-09-09,顺城路152号附近,威县,邢台市,115.266064,36.980774,小刀电动车,河北省,无,小刀
2019-09-09,新华路与809县道交叉口西100米,清河县,邢台市,115.591305,37.024821,小刀电动车(王官庄专卖店),河北省,15233911144,小刀
2019-09-09,006乡道南50米,沙河市,邢台市,114.553642,36.954792,小刀电动车三轮车,河北省,无,小刀
2019-09-09,和阳镇建设大街上园宾馆(怡和花园附近),南和县,邢台市,114.692700,37.007882,小刀双动力电动车(建设大街),河北省,无,小刀
2019-09-09,325省道与永泰街交叉口东100米,平乡县,邢台市,115.024668,37.062783,小刀电动车(中华小区南),河北省,无,小刀
2019-09-09,329省道西50米,沙河市,邢台市,114.068056,36.991731,小刀电动车,河北省,无,小刀
2019-09-09,308国道与709乡道交叉口东南150米,清河县,邢台市,115.739433,37.022361,小刀电动车,河北省,无,小刀
2019-09-09,南园街与新华南路交叉口西北100米,桥东区,邢台市,114.498893,37.057078,小刀电动车(邢台现代生殖医院南),河北省,无,小刀
2019-09-09,东华路与王快北街交叉口东南50米,邢台县,邢台市,114.571317,37.025413,小刀电动车(王快北街店),河北省,无,小刀
2019-09-09,234省道西50米,宁晋县,邢台市,114.992545,37.450785,万达车业宁晋旗舰店,河北省,15930964789;0319-5587568,小刀
2019-09-09,234省道东50米,巨鹿县,邢台市,115.058414,37.343684,小刀电动车(巨鹿官亭医院南),河北省,无,小刀
2019-09-09,月城路金聚福便利店北侧,宁晋县,邢台市,114.926198,37.622631,小刀电动车(宁晋旗舰店),河北省,无,小刀
2019-09-09,换马店村,宁晋县,邢台市,114.853323,37.686880,小刀电动车,河北省,无,小刀
2019-09-09,南园街与新华南路交叉口西北50米,桥东区,邢台市,114.499392,37.059254,小刀电动车(新华南路店),河北省,无,小刀
2019-09-09,中兴东大街189号物美百货1层,桥东区,邢台市,114.507825,37.063582,小刀电动车(府前南街店),河北省,无,小刀
2019-09-09,文昌北路与文昌路交叉口西100米,清河县,邢台市,115.670403,37.063584,小刀电动车(文昌路),河北省,无,小刀
2019-09-09,凤凰街与宋璟路交叉口北100米,沙河市,邢台市,114.500215,36.866425,小刀电动车(凤凰街店),河北省,0319-7253888,小刀
2019-09-09,,定兴县,保定市,115.566379,39.210212,小刀电动车(张家庄店),河北省,无,小刀
2019-09-09,满城区,满城区,保定市,115.343767,39.015466,小刀电动车,河北省,无,小刀
2019-09-09,向东路,曲阳县,保定市,114.645136,38.788523,小刀电动车,河北省,无,小刀
2019-09-09,,徐水区,保定市,115.751217,38.994977,小刀电动车,河北省,无,小刀
2019-09-09,三义街,涿州市,保定市,115.943551,39.417502,小刀电动车(松林店),河北省,无,小刀
2019-09-09,农贸路,高阳县,保定市,115.951266,38.642663,小刀电动车,河北省,无,小刀
2019-09-09,莲池区长城北大街1976东北50米,莲池区,保定市,115.537536,38.899468,小刀电动车,河北省,无,小刀
2019-09-09,,满城区,保定市,115.408118,38.992436,小刀电动车,河北省,无,小刀
2019-09-09,,蠡县,保定市,115.679451,38.640716,小刀电动车,河北省,无,小刀
2019-09-09,,满城区,保定市,115.299541,39.065446,小刀电动车,河北省,无,小刀
2019-09-09,,安国市,保定市,115.321688,38.413500,小刀电动车,河北省,无,小刀
2019-09-09,,高阳县,保定市,115.885281,38.538555,小刀电动车,河北省,无,小刀
2019-09-09,莲池区朝阳南大街,莲池区,保定市,115.468277,38.846552,小刀电动车,河北省,无,小刀
2019-09-09,,蠡县,保定市,115.704547,38.574568,小刀电动车,河北省,无,小刀
2019-09-09,南关街50号附近,涿州市,保定市,115.971742,39.483399,小刀电动车,河北省,无,小刀
2019-09-09,砖路镇台头村后街23号附近,定州市,保定市,114.874755,38.655628,小刀电动车,河北省,无,小刀
2019-09-09,军工路78附近,定州市,保定市,114.957712,38.536408,小刀电动车,河北省,无,小刀
2019-09-09,竞秀区春台路,满城区,保定市,115.396734,38.953482,小刀电动车,河北省,无,小刀
2019-09-09,泰元南大街41号附近,易县,保定市,115.508732,39.344927,小刀电动车,河北省,无,小刀
2019-09-09,保新公路附近,清苑区,保定市,115.607112,38.836421,小刀电动车,河北省,无,小刀
2019-09-09,定深线,定州市,保定市,115.089909,38.348285,小刀电动车,河北省,无,小刀
2019-09-09,恒益通讯(古遂东路南),徐水区,保定市,115.541363,39.044852,小刀电动车,河北省,无,小刀
2019-09-09,竞秀区,竞秀区,保定市,115.366726,38.864246,小刀电动车,河北省,无,小刀
2019-09-09,莲池区裕华东路474号附近,莲池区,保定市,115.523229,38.853131,小刀电动车,河北省,无,小刀
2019-09-09,复兴路与福安街交叉口西50米,涿州市,保定市,116.007369,39.488395,小刀电动车,河北省,无,小刀
2019-09-09,京深路东50米,涿州市,保定市,115.998696,39.563991,小刀电动车,河北省,无,小刀
2019-09-09,二十里铺112国道北,涞水县,保定市,115.622272,39.372046,小刀电动车,河北省,15831269850,小刀
2019-09-09,博望线北50米,望都县,保定市,115.291228,38.558021,小刀电动车,河北省,无,小刀
2019-09-09,301县道北150米,高碑店市,保定市,115.992055,39.322803,小刀电动车(方官店),河北省,无,小刀
2019-09-09,竞秀区天威西路655号附近,竞秀区,保定市,115.456455,38.861529,小刀电动车,河北省,无,小刀
2019-09-09,定曲路南50米,曲阳县,保定市,114.755857,38.622182,小刀电动车(大赵邱专卖店),河北省,13718436132,小刀
2019-09-09,创业路与354县道交叉口北50米,易县,保定市,115.448358,39.227350,小刀电动车,河北省,无,小刀
2019-09-09,南环路附近,蠡县,保定市,115.763916,38.517240,小刀电动车,河北省,15720061623,小刀
2019-09-09,平安路60号附近,易县,保定市,115.284452,39.134216,小刀电动车(山北分店),河北省,无,小刀
2019-09-09,南关大街274号,涿州市,保定市,115.971101,39.471418,小刀电动车,河北省,无,小刀
2019-09-09,雄白路与220乡道交叉口东150米附近,雄县,保定市,116.083456,39.021585,小刀电动车(雄白路),河北省,无,小刀
2019-09-09,易州镇金台西路93号,易县,保定市,115.498095,39.355889,小刀电动车,河北省,无,小刀
2019-09-09,232省道下河乡政府,曲阳县,保定市,114.755462,38.692609,明亮车业小刀电动车,河北省,15188692506,小刀
2019-09-09,曲新公路北50米,曲阳县,保定市,114.710388,38.529953,小刀电动车,河北省,无,小刀
2019-09-09,复兴北街与复兴南街交叉口西150米,望都县,保定市,115.144912,38.709325,小刀电动车(中华西路店),河北省,无,小刀
2019-09-09,复兴路南50米,徐水区,保定市,115.440163,39.060503,小刀电动车,河北省,无,小刀
2019-09-09,古遂西路与张华路交叉口东150米,徐水区,保定市,115.528430,39.046179,小刀双动力电动车(强玛电动车),河北省,无,小刀
2019-09-09,燕赵大街与167乡道交叉口南150米,曲阳县,保定市,114.813772,38.554453,小刀电动车,河北省,无,小刀
2019-09-09,金台西路43号,容城县,保定市,115.864020,39.051510,小刀电动车(金台西路店),河北省,无,小刀
2019-09-09,兴华北街3-1号附近,博野县,保定市,115.460547,38.457702,小刀双电动车,河北省,13070502008,小刀
2019-09-09,百乐购物广场连锁店1楼,莲池区,保定市,115.499192,38.842574,小刀电动车(莲池南大街店),河北省,无,小刀
2019-09-09,京广北大街与京广南大街交叉口北150米,高碑店市,保定市,115.861758,39.328479,小刀电动车(高碑店市公安医院东北),河北省,无,小刀
2019-09-09,竞秀区七一西路602号新市场北口,竞秀区,保定市,115.454813,38.881741,小刀电动车(七一西路),河北省,无,小刀
2019-09-09,,定州市,保定市,114.853823,38.474660,小刀电动车,河北省,无,小刀
2019-09-09,满城区燕赵北街与玉川西路交叉口北150米,满城区,保定市,115.323595,38.952927,小刀电动车,河北省,无,小刀
2019-09-09,王林口大街61号附近,阜平县,保定市,114.350257,38.822201,小刀电动车(205乡道店),河北省,无,小刀
2019-09-09,034乡道南50米,高碑店市,保定市,115.918018,39.322842,小刀电动车(张八屯专卖店),河北省,无,小刀
2019-09-09,089乡道明月店村,定州市,保定市,114.898262,38.455488,小刀电动车(明月店),河北省,13503327032,小刀
2019-09-09,东一高线与112线路交叉口东50米,高碑店市,保定市,115.948489,39.265817,小刀电动车(梁家营专卖店),河北省,15833256371,小刀
2019-09-09,东一高线与市场街交叉口东50米,高碑店市,保定市,116.086048,39.272248,小刀电动车(辛桥店),河北省,无,小刀
2019-09-09,迎宾中街048号,清苑区,保定市,115.496723,38.764794,小刀电动车清苑站,河北省,无,小刀
2019-09-09,蠡吾南大街323号,蠡县,保定市,115.581484,38.492001,小刀电动车(蠡吾南大街),河北省,0312-6213205,小刀
2019-09-09,北河车站街130号,定兴县,保定市,115.764227,39.212786,小刀电动车,河北省,15383020319,小刀
2019-09-09,朝阳路芳兴胡同与朱家街交叉口西南50米,涞水县,保定市,115.714981,39.387525,小刀电动车(公安街),河北省,无,小刀
2019-09-09,城隍庙街永华园小区底商,莲池区,保定市,115.497670,38.861806,小刀电动车(西大街),河北省,无,小刀
2019-09-09,雄昝路39号,雄县,保定市,116.107166,38.986612,小刀电动车(雄县专卖店),河北省,0312-3861553,小刀
2019-09-09,孙禄堂东街与永禄大街交叉口东北50米,顺平县,保定市,115.140021,38.845235,小刀电动车(永禄大街店),河北省,15532216632,小刀
2019-09-09,永兴路徐水小学东行50米路南,徐水区,保定市,115.653342,39.018486,小刀电动车(仁昌胡同),河北省,无,小刀
2019-09-09,兴华中路98附近,定州市,保定市,114.991025,38.520569,小刀电动车(兴华中路),河北省,无,小刀
2019-09-09,兴阳路204附近,高阳县,保定市,115.777349,38.689478,小刀电动车(高阳专卖店),河北省,无,小刀
2019-09-09,兴华中路与兴华西路交叉口西100米,定兴县,保定市,115.791231,39.271557,小刀电动车(兴华西路店),河北省,13313128011,小刀
2019-09-09,兴华北街7号,博野县,保定市,115.460388,38.458302,博野小刀电动车,河北省,无,小刀
2019-09-09,457县道北50米,涿鹿县,张家口市,115.443592,40.220787,小刀双动力电动车,河北省,无,小刀
2019-09-09,河坡街与龙泉路交叉口东南100米附近,阳原县,张家口市,114.158132,40.105675,小刀电动车(阳原旗舰店),河北省,无,小刀
2019-09-09,454县道北100米,怀安县,张家口市,114.423797,40.667549,小刀电动车(怀安店),河北省,无,小刀
2019-09-09,怀安城镇,怀安县,张家口市,114.471520,40.464081,小岛电动车专卖店,河北省,无,小刀
2019-09-09,昌盛西街与西苑北路交叉口西北150米,阳原县,张家口市,114.163733,40.115139,小刀电动车,河北省,无,小刀
2019-09-09,柴沟堡镇柴怀路盛世锦苑南150米,怀安县,张家口市,114.425905,40.660922,小刀电动车,河北省,无,小刀
2019-09-09,人民南街8号,涿鹿县,张家口市,115.216455,40.370462,小刀电动车(人民南街),河北省,无,小刀
2019-09-09,西合营,蔚县,张家口市,114.765636,39.945092,小刀电动车(西合营小余旗舰店),河北省,无,小刀
2019-09-09,镇大街24,赤城县,张家口市,115.579128,40.785538,小刀电动车,河北省,15030361813,小刀
2019-09-09,财神庙商业区西区1楼,宣化区,张家口市,115.061572,40.610987,科迅小刀电动车,河北省,无,小刀
2019-09-09,工业中横街36-24号,桥东区,张家口市,114.890465,40.794293,小刀电动车(工业东街),河北省,13733235301,小刀
2019-09-09,鑫泽小区(张家口市万全区中医院东),万全区,张家口市,114.732858,40.756934,小刀电动车(万全旗舰店),河北省,无,小刀
2019-09-09,牌楼北大街与鼓楼后街交叉口南150米,蔚县,张家口市,114.571892,39.842560,大江电动三轮小刀专卖店,河北省,无,小刀
2019-09-09,七沟街南50米,平泉市,承德市,118.461409,41.003287,小刀电动车,河北省,无,小刀
2019-09-09,商品街与111国道交叉口西南200米,隆化县,承德市,117.100008,41.579960,小刀电动车,河北省,无,小刀
2019-09-09,112国道南50米,承德县,承德市,117.714037,40.756586,小刀电动车,河北省,无,小刀
2019-09-09,光明路与语录街交叉口东北200米,承德县,承德市,118.192296,40.779389,豪爵铃木小刀电动车专卖店,河北省,无,小刀
2019-09-09,清真寺街与357省道交叉口东50米,隆化县,承德市,117.727698,41.316598,小刀电动车,河北省,无,小刀
2019-09-09,华兴路与聚贤街交叉口西南100米,滦平县,承德市,117.336899,40.933551,小刀电动车,河北省,无,小刀
2019-09-09,雾灵街天路PVC管专卖北30米路西,兴隆县,承德市,117.514760,40.439875,小刀电动车,河北省,13831492195,小刀
2019-09-09,市场北路县医院北300米,平泉市,承德市,118.694537,41.010572,小刀电动车(榆州中路),河北省,无,小刀
2019-09-09,胜利东街与胜利街交叉口东南150米,丰宁满族自治县,承德市,116.648142,41.210887,小刀电动车(宁丰路),河北省,13931412506,小刀
2019-09-09,板城大街与板城东大街交叉口东北150米,承德县,承德市,118.184180,40.776514,喜子小刀电动车宏达专卖,河北省,0314-7677777;0314-7678888,小刀
2019-09-09,G205(山深线),盐山县,沧州市,117.332272,37.951980,小刀电动车,河北省,无,小刀
2019-09-09,283省道附近,沧县,沧州市,117.012103,38.217659,小刀电动车,河北省,无,小刀
2019-09-09,274乡道附近,青县,沧州市,116.918044,38.514624,小刀电动车,河北省,无,小刀
2019-09-09,,沧县,沧州市,116.937851,38.259615,小刀电动车,河北省,无,小刀
2019-09-09,021乡道附近,任丘市,沧州市,116.201998,38.661168,小刀电动车,河北省,无,小刀
2019-09-09,马大线,青县,沧州市,116.931391,38.652139,小刀电动车,河北省,无,小刀
2019-09-09,河北村,肃宁县,沧州市,116.006821,38.388920,小刀电动车,河北省,无,小刀
2019-09-09,小北线与李杜线交叉口东50米,沧县,沧州市,117.009704,38.485395,小刀电动车专卖店,河北省,无,小刀
2019-09-09,兴济镇阳光幼儿园旁,沧县,沧州市,116.897412,38.466350,小刀电动车,河北省,无,小刀
2019-09-09,沧河线,沧县,沧州市,116.555325,38.382195,小刀电动车,河北省,无,小刀
2019-09-09,永济西路31号附近,运河区,沧州市,116.834065,38.328873,小刀电动车,河北省,无,小刀
2019-09-09,沧河线南50米,沧县,沧州市,116.746904,38.335467,小刀电动车,河北省,18732776598,小刀
2019-09-09,162乡道与177乡道交叉口北150米,东光县,沧州市,116.744842,37.893572,小刀电动车,河北省,无,小刀
2019-09-09,,沧县,沧州市,116.757107,38.301388,小刀电动车专卖店,河北省,无,小刀
2019-09-09,119乡道北50米,泊头市,沧州市,116.359657,38.149316,小刀电动车营子专卖店,河北省,无,小刀
2019-09-09,205国道西50米,盐山县,沧州市,117.374444,37.891365,小刀电动车,河北省,无,小刀
2019-09-09,381省道西100米,任丘市,沧州市,116.005348,38.690125,小刀电动车,河北省,无,小刀
2019-09-09,299乡道东50米,沧县,沧州市,116.551384,38.283308,小刀电动车,河北省,无,小刀
2019-09-09,沧河线与331省道交叉口东150米,沧县,沧州市,116.637878,38.371463,小刀电动车,河北省,无,小刀
2019-09-09,商贸街103号附近,沧县,沧州市,117.057764,38.340331,小刀电动车,河北省,15127729771,小刀
2019-09-09,光明中路151附近,南皮县,沧州市,116.710007,38.039658,小刀电动车,河北省,无,小刀
2019-09-09,信誉楼大街737号琨洋购物广场B1层,黄骅市,沧州市,117.352469,38.368393,小刀电动车,河北省,无,小刀
2019-09-09,梁北路与382省道交叉口西50米,肃宁县,沧州市,115.976412,38.425812,小刀电动车,河北省,无,小刀
2019-09-09,裕华中路35-17号,任丘市,沧州市,116.103051,38.710758,小刀电动车(裕华中路),河北省,无,小刀
2019-09-09,283省道西50米,盐山县,沧州市,117.141165,37.859013,小刀电动车,河北省,13400477986,小刀
2019-09-09,信誉楼大街737号琨洋购物广场B1层,黄骅市,沧州市,117.350979,38.365101,小刀电动车(琨洋购物广场),河北省,无,小刀
2019-09-09,106国道西50米,任丘市,沧州市,116.074275,38.596319,小刀电动车,河北省,无,小刀
2019-09-09,翠微路与裘都金街交叉口北150米,肃宁县,沧州市,115.813570,38.491238,小刀电动车,河北省,15833370687,小刀
2019-09-09,383省道南50米,南皮县,沧州市,116.940742,37.851914,小刀电动车(南皮县总代理),河北省,0317-8713213;15194705585,小刀
2019-09-09,解放东路清真北大寺东100米,新华区,沧州市,116.866961,38.305757,小岛电动车,河北省,无,小刀
2019-09-09,东兴南大街与光明中路交叉口东100米,南皮县,沧州市,116.712023,38.039201,小刀双动力电动车,河北省,无,小刀
2019-09-09,石坊路与靖宁街交叉口西北50米,肃宁县,沧州市,115.838463,38.431578,小刀电动车,河北省,无,小刀
2019-09-09,新华街222号,泊头市,沧州市,116.571603,38.072850,小刀电动车(新华街店),河北省,无,小刀
2019-09-09,流河镇政府南80米(381省道北),青县,沧州市,116.853945,38.690314,小刀电动车,河北省,无,小刀
2019-09-09,南陈路南50米,泊头市,沧州市,116.404457,38.093965,小刀电动车(寺门村小刀专卖),河北省,13231783260,小刀
2019-09-09,042乡道与331省道交叉口西150米,河间市,沧州市,116.493126,38.389220,小刀电动车,河北省,无,小刀
2019-09-09,清州镇104国道与新华路交叉口西行20米路南(奔驰摩托车行旁),青县,沧州市,116.833152,38.579125,小刀电动车,河北省,13400173266,小刀
2019-09-09,世纪商贸城,任丘市,沧州市,116.095620,38.689420,小刀电动车(商贸城专卖店),河北省,无,小刀
2019-09-09,华燕商厦东90米(时景线南),河间市,沧州市,116.294674,38.489173,小刀电动车,河北省,无,小刀
2019-09-09,华山道与长江路交叉口东北50米,吴桥县,沧州市,116.390496,37.626376,小刀电动车,河北省,无,小刀
2019-09-09,兴盛街与海政路路口南侧,海兴县,沧州市,117.501253,38.142380,小刀电动车,河北省,无,小刀
2019-09-09,新华路56号,黄骅市,沧州市,117.354749,38.369918,小刀电动车旗舰店,河北省,无,小刀
2019-09-09,靖远西路南50米,盐山县,沧州市,117.234283,38.056778,小刀电动车(靖远西路),河北省,无,小刀
2019-09-09,解放东路23-1号,新华区,沧州市,116.864512,38.306133,小刀电动车(建设南大道店),河北省,0317-3043233,小刀
2019-09-09,城垣西路与长卿北街交叉口西100米,河间市,沧州市,116.079034,38.444080,小刀电动车(旗舰店),河北省,0317-3760000,小刀
2019-09-09,231乡道附近,盐山县,沧州市,117.187517,37.889545,韩集宗申&小刀电动车专卖店,河北省,18232781553,小刀
2019-09-09,码杨线,安次区,廊坊市,116.765720,39.322747,小刀电动车,河北省,无,小刀
2019-09-09,袁庄村,大厂回族自治县,廊坊市,116.982957,39.861471,小刀电动车,河北省,13231665444,小刀
2019-09-09,272省道西100米,大城县,廊坊市,116.596828,38.516516,小刀电动车,河北省,无,小刀
2019-09-09,第三大街与106国道交叉口西北100米,文安县,廊坊市,116.368829,39.002006,小刀电动车,河北省,13323262391,小刀
2019-09-09,后奕连接线北50米,永清县,廊坊市,116.484182,39.229418,小刀电动车,河北省,无,小刀
2019-09-09,宫村乡道与宫苏线交叉口西北50米,固安县,廊坊市,116.188918,39.443622,小刀电动车,河北省,无,小刀
2019-09-09,凤来大街与育才路交叉口西北50米,固安县,廊坊市,116.337116,39.220075,小刀电动车,河北省,无,小刀
2019-09-09,安平镇小白楼西囗,香河县,廊坊市,116.892210,39.708313,小刀电动车大世界(天下第一城旗舰店),河北省,18633772411,小刀
2019-09-09,S272(廊崔线),文安县,廊坊市,116.694695,39.024934,小刀电动车(劳保店),河北省,无,小刀
2019-09-09,马庄,固安县,廊坊市,116.299381,39.437813,小刀电动车,河北省,无,小刀
2019-09-09,建设东道229号,霸州市,廊坊市,116.395906,39.111039,电动车专卖,河北省,无,小刀
2019-09-09,兴文道165号,文安县,廊坊市,116.469469,38.866245,小刀电动三轮车文安总代理(兴文道店),河北省,13582785055,小刀
2019-09-09,102国道金鼎御园小区(安馨丽景东北),大厂回族自治县,廊坊市,116.909768,39.952815,小刀电动车,河北省,无,小刀
2019-09-09,团结胡同与振兴道交叉口东50米,霸州市,廊坊市,116.653570,39.145943,小刀电动车,河北省,13582642113,小刀
2019-09-09,902乡道北50米,大城县,廊坊市,116.525069,38.625650,小刀电动车(广安专卖店),河北省,0316-5950195,小刀
2019-09-09,后街与魏留线交叉口西南50米,大城县,廊坊市,116.500417,38.686885,小刀电动车(广安专卖店),河北省,无,小刀
2019-09-09,便民道与益昌中路交叉口西北100米,永清县,廊坊市,116.497582,39.312368,小刀电动车(永清旗舰店),河北省,无,小刀
2019-09-09,建设东道532号,霸州市,廊坊市,116.401566,39.111825,小刀电动车(建设东道店),河北省,无,小刀
2019-09-09,经济技术开发区燕郊行宫西大街316号,三河市,廊坊市,116.803563,39.947929,小刀电动车(行宫西大街店),河北省,无,小刀
2019-09-09,新华西街与新风南路交叉口西150米,大城县,廊坊市,116.636493,38.693957,小刀电动车(市场街),河北省,无,小刀
2019-09-09,爱民东道与迎春路交叉口西南50米,广阳区,廊坊市,116.700076,39.526548,小刀电动车高端体验馆,河北省,无,小刀
2019-09-09,272省道西50米,文安县,廊坊市,116.690554,39.009594,小刀电动车(安里屯专卖店),河北省,无,小刀
2019-09-09,新开路与采留线交叉口东南150米,霸州市,廊坊市,116.493094,39.039118,小刀电动车(汇丰街),河北省,无,小刀
2019-09-09,兴文道150号附近,文安县,廊坊市,116.469680,38.866701,小刀电动车(文安总代理),河北省,无,小刀
2019-09-09,淑阳大街46-2附近,香河县,廊坊市,117.004563,39.759916,小刀电动车(淑阳大街店),河北省,13731618933,小刀
2019-09-09,团结胡同与振兴道交叉口东50米,霸州市,廊坊市,116.646306,39.144374,小刀电动车信安旗舰店,河北省,13582642113,小刀
2019-09-09,袁庄村271省道东利华家具城旁边,大厂回族自治县,廊坊市,116.982992,39.861444,兴达车行,河北省,13231665444,小刀
2019-09-09,留楚村,饶阳县,衡水市,115.835023,38.176542,小刀电动车,河北省,15031800207,小刀
2019-09-09,324省道与806乡道交叉口东北100米,故城县,衡水市,116.096153,37.390296,小刀电动车,河北省,无,小刀
2019-09-09,胜利西路1403号,桃城区,衡水市,115.653264,37.734677,小刀电动车(胜利路店),河北省,无,小刀
2019-09-09,龙华镇银城百货(福馨家园附近),景县,衡水市,116.016500,37.602309,小刀车行,河北省,15833186677,小刀
2019-09-09,永安大街45号,深州市,衡水市,115.550185,38.008877,小刀电动车(永安大街店),河北省,无,小刀
2019-09-09,保大北路与保大南路交叉口南100米,武强县,衡水市,115.968399,38.038994,小刀电动车(武强店),河北省,无,小刀
2019-09-09,冀州镇和平西路65号美食节南口,冀州区,衡水市,115.576314,37.546666,小刀电动车(美食街店),河北省,无,小刀
2019-09-09,智诚·平阳府第,小店区,太原市,112.550503,37.804439,小刀电动车,山西省,18635793318,小刀
2019-09-09,西吴蓝海市场南区三号门面房,小店区,太原市,112.584132,37.786820,小刀电动车,山西省,19903516138;13753177942,小刀
2019-09-09,涧河路13号东北60米,杏花岭区,太原市,112.583870,37.896860,小刀电动车,山西省,13835805007,小刀
2019-09-09,小牛线东50米,小店区,太原市,112.537997,37.633537,小刀电动车,山西省,无,小刀
2019-09-09,乾鑫佳园8号楼附近,小店区,太原市,112.635220,37.781390,小刀电动车(郑村店),山西省,无,小刀
2019-09-09,南沙河北沿岸与郝庄兴业路交叉口西50米,迎泽区,太原市,112.592524,37.848563,小刀电动车,山西省,无,小刀
2019-09-09,昌盛西街与真武路交叉口北100米,小店区,太原市,112.575871,37.736087,小刀电动车,山西省,无,小刀
2019-09-09,X260(故西线),阳曲县,太原市,112.740654,38.083956,小刀电动车,山西省,无,小刀
2019-09-09,大同路302附近,尖草坪区,太原市,112.525118,37.946474,小刀电动车,山西省,无,小刀
2019-09-09,朝阳北巷与郝家沟街交叉口东100米,迎泽区,太原市,112.598827,37.858822,小刀电动车,山西省,17018214222,小刀
2019-09-09,太榆路82号附近,小店区,太原市,112.592928,37.798129,小刀电动车,山西省,无,小刀
2019-09-09,五龙口街与黑土巷中横马路交叉口西100米,迎泽区,太原市,112.594117,37.864767,小刀电动车,山西省,19935327634,小刀
2019-09-09,东大街与荣军南街交叉口西北50米,小店区,太原市,112.592936,37.780232,小刀电动车,山西省,13333434158,小刀
2019-09-09,西峪街17号北堰综合市场,晋源区,太原市,112.504384,37.809654,小刀电动车,山西省,无,小刀
2019-09-09,唐城公路北50米,晋源区,太原市,112.493167,37.742491,小刀电动车,山西省,无,小刀
2019-09-09,和平南路325号附近,晋源区,太原市,112.504859,37.817020,小刀电动车,山西省,18636836212,小刀
2019-09-09,朝阳路与通达西街交叉口东南50米,小店区,太原市,112.561677,37.730197,小刀电动车,山西省,无,小刀
2019-09-09,龙山大街44号附近,尖草坪区,太原市,112.446330,38.007262,小刀电动车,山西省,无,小刀
2019-09-09,长风街68号33附近,小店区,太原市,112.582321,37.817263,小刀电动车,山西省,无,小刀
2019-09-09,真武路158号附近,小店区,太原市,112.575445,37.728761,小刀电动车,山西省,18735397636,小刀
2019-09-09,王村南街电动车大卖场北通道,小店区,太原市,112.569321,37.831139,小刀电动车,山西省,无,小刀
2019-09-09,南大街南50米,娄烦县,太原市,111.803741,38.069561,小刀电动车,山西省,13934668228,小刀
2019-09-09,人民南路与通达街交叉口北100米,小店区,太原市,112.568741,37.730708,小刀电动车(人民南路),山西省,无,小刀
2019-09-09,解放路160号(山西省工会小区东北),杏花岭区,太原市,112.562157,37.882799,小牛电动专卖店,山西省,0351-3031459,小刀
2019-09-09,迎泽西大街金阳路泽峪园小区西门102门面房,万柏林区,太原市,112.483630,37.858641,小刀电动车,山西省,15934100155,小刀
2019-09-09,东北街73号,阳曲县,太原市,112.678988,38.061707,小刀宗申电动车,山西省,13633419288,小刀
2019-09-09,南三环红旗街云锦里小区东门南50米,平城区,大同市,113.295185,40.061610,小刀电动车,山西省,0352-7200601;13513529488,小刀
2019-09-09,001乡道南50米,云州区,大同市,113.467254,39.997308,小刀双动力电动车,山西省,无,小刀
2019-09-09,商业路与广泰西街交叉口东北50米,广灵县,大同市,114.277844,39.763884,小刀电动车旗舰店,山西省,无,小刀
2019-09-09,政府街与长青街交叉口西北50米,阳高县,大同市,113.753690,40.364717,小刀电动车,山西省,无,小刀
2019-09-09,文昌东街与昊阳北路交叉口南150米,云州区,大同市,113.610945,40.041235,小刀电动车,山西省,无,小刀
2019-09-09,同泉里后街16号楼,平城区,大同市,113.273528,40.090507,小刀电动车,山西省,13613529157,小刀
2019-09-09,云州区湖滨大街南50米,云州区,大同市,113.400534,40.066122,小岛电动车,山西省,13994316831,小刀
2019-09-09,拥军东路21号院附近,平城区,大同市,113.278678,40.109219,小刀电动车专卖,山西省,无,小刀
2019-09-09,西街南50米,阳高县,大同市,113.899244,40.415541,小刀电动车(罗文皂店),山西省,15935250073,小刀
2019-09-09,延和路与昌荣街交叉口西100米,平城区,大同市,113.279282,40.054446,小刀电动车,山西省,无,小刀
2019-09-09,永泰南路东信国际8栋,平城区,大同市,113.301735,40.050976,小刀电动车(东信国际店),山西省,15713587601,小刀
2019-09-09,平德路西50米,云冈区,大同市,113.221861,40.019759,小刀双动力电动车,山西省,13834450814,小刀
2019-09-09,新荣汽车站西北90米(御河西街北),新荣区,大同市,113.142247,40.256534,小刀电动车,山西省,15234210626,小刀
2019-09-09,府东街与葵阁巷交叉口东100米,天镇县,大同市,114.093391,40.420114,小刀电动车,山西省,无,小刀
2019-09-09,永安镇永安西街商贸小区西300米,浑源县,大同市,113.685402,39.696781,小刀电动车(商贸小区店),山西省,无,小刀
2019-09-09,福苑小区1号9厅,平城区,大同市,113.260033,40.061137,小刀电动车(大庆路店),山西省,无,小刀
2019-09-09,司令部街与武定街交叉口南150米,平城区,大同市,113.302015,40.095855,小刀电动车(武定街店),山西省,无,小刀
2019-09-09,新华街822附近,灵丘县,大同市,114.242252,39.439603,小刀电动车(新华街),山西省,无,小刀
2019-09-09,214省道西50米,盂县,阳泉市,113.362263,38.168172,小刀电动车苌池专卖店,山西省,无,小刀
2019-09-09,东盛巷与秀水东街交叉口西50米,盂县,阳泉市,113.416663,38.084384,小刀电动车(秀水东街店),山西省,无,小刀
2019-09-09,太行街415号,武乡县,长治市,112.850812,36.829478,小刀电动车专卖店,山西省,无,小刀
2019-09-09,建设北路与西街交叉口西150米,襄垣县,长治市,113.046102,36.534369,小刀电动车,山西省,无,小刀
2019-09-09,胜利路西50米,沁源县,长治市,112.340043,36.506243,小刀电动车,山西省,无,小刀
2019-09-09,龙泉镇西城路土产日杂小区117号,壶关县,长治市,113.204227,36.109256,小刀电动车,山西省,无,小刀
2019-09-09,和谐街与220省道交叉口东100米,襄垣县,长治市,112.977552,36.436724,小刀电动车,山西省,无,小刀
2019-09-09,府东南路107号,潞城区,长治市,113.230480,36.327670,小刀电动车,山西省,无,小刀
2019-09-09,中心街北50米,城区,晋城市,112.903760,35.561475,小刀电动车,山西省,13233335910,小刀
2019-09-09,新市西街1367号金厦银座,城区,晋城市,112.839922,35.499696,小刀电动车,山西省,0356-3034499,小刀
2019-09-09,建设路人民医院北200米,高平市,晋城市,112.928696,35.788776,小刀电动车,山西省,无,小刀
2019-09-09,长晋线西50米,高平市,晋城市,112.944420,35.716501,小刀电动车,山西省,无,小刀
2019-09-09,西街162号附近,沁水县,晋城市,112.186048,35.689667,小刀电动车,山西省,无,小刀
2019-09-09,开发南路5号山附近,朔城区,朔州市,112.435803,39.325036,小刀电动车,山西省,无,小刀
2019-09-09,民福西街与煤源路交叉口南50米,平鲁区,朔州市,112.282336,39.515764,小刀电动车,山西省,无,小刀
2019-09-09,云中镇仁里路2号,怀仁市,朔州市,113.098406,39.827196,小刀电动车,山西省,0349-3025395,小刀
2019-09-09,后所村后所小学正对面,山阴县,朔州市,112.851498,39.307713,小刀电动车,山西省,13753091593,小刀
2019-09-09,广场路东(闫巷·紫郡南区西200米),山阴县,朔州市,112.829261,39.520988,小刀电动车(旧城分店),山西省,0349-5556759,小刀
2019-09-09,平南路18街附近,平遥县,晋中市,112.210887,37.203287,小刀电动车,山西省,无,小刀
2019-09-09,新建南路与槐荫街交叉口西北50米,祁县,晋中市,112.330422,37.348843,小刀电动车,山西省,无,小刀
2019-09-09,福田路7001号附近,寿阳县,晋中市,113.180230,37.889931,小刀电动车,山西省,无,小刀
2019-09-09,003乡道南50米,榆次区,晋中市,112.664973,37.706228,小刀电动车,山西省,无,小刀
2019-09-09,迎春南路65号附近,榆社县,晋中市,112.972452,37.062685,小刀电动车,山西省,无,小刀
2019-09-09,新建东路50号,介休市,晋中市,111.924522,37.022617,小岛电动车鹏佑车行(介休小刀专卖店),山西省,15110651223,小刀
2019-09-09,新建路16号附近,昔阳县,晋中市,113.706230,37.602749,小刀电动车,山西省,无,小刀
2019-09-09,环城北路与西大街交叉口西北50米,榆次区,晋中市,112.671565,37.759213,小刀电动车,山西省,15135428040,小刀
2019-09-09,新建西路105号(火车站东行150米),介休市,晋中市,111.920586,37.020804,小刀电动车(新建西路店),山西省,无,小刀
2019-09-09,S221(翠峰路),灵石县,晋中市,111.772687,36.842883,小刀电动车灵石总经销,山西省,无,小刀
2019-09-09,郭家堡乡花园路9号(亨得利往南20米),榆次区,晋中市,112.745491,37.683542,小刀电动车(花园路),山西省,无,小刀
2019-09-09,914县道北50米,榆次区,晋中市,112.673701,37.542244,小刀电动车(福田五星摩托车),山西省,0354-2753491,小刀
2019-09-09,莲池路,河津市,运城市,110.712431,35.585041,小刀电动车,山西省,无,小刀
2019-09-09,西元村铝厂路口东100米,盐湖区,运城市,110.844599,34.906788,小刀电动车,山西省,无,小刀
2019-09-09,店龙线附近,新绛县,运城市,111.280036,35.667742,小刀电动车,山西省,无,小刀
2019-09-09,蒲金苑楼下吴群小牛小刀电动车摩托电动修配,永济市,运城市,110.439122,34.850291,小牛电动车,山西省,13753985728,小刀
2019-09-09,迎太路西200米,盐湖区,运城市,111.024446,35.051195,小刀电动车,山西省,无,小刀
2019-09-09,凤凰路与院背后巷交叉口北50米,盐湖区,运城市,110.996250,35.015914,小刀电动车(凤凰路),山西省,无,小刀
2019-09-09,迎新东街51号西北100米,永济市,运城市,110.450542,34.869662,小刀电动车,山西省,无,小刀
2019-09-09,临夏线畖底镇政府北400米,闻喜县,运城市,111.157703,35.448330,小刀电动车,山西省,13720982634,小刀
2019-09-09,庙上乡北街,临猗县,运城市,110.648323,35.039388,五羊小刀电动车专卖店,山西省,无,小刀
2019-09-09,解店镇汇源街祥瑞电脑西南100米,万荣县,运城市,110.841525,35.420127,小刀电动车(万荣专卖店),山西省,无,小刀
2019-09-09,杨赵大门楼右侧,稷山县,运城市,111.083959,35.603377,杨赵村建红车城小刀电动车,山西省,无,小刀
2019-09-09,五一街东13号,平陆县,运城市,111.217172,34.838580,小刀双动力电动车,山西省,无,小刀
2019-09-09,泽掌镇卫生院西100米路南,新绛县,运城市,111.164914,35.712354,小刀电动车(泽掌镇店),山西省,13191242555,小刀
2019-09-09,历山东路与舜王北街交叉口东北100米,垣曲县,运城市,111.669511,35.302786,小刀电动车(舜王北街店),山西省,13466950528,小刀
2019-09-09,龙兴镇文庙路11号,新绛县,运城市,111.230314,35.615490,小刀电动车,山西省,13466916611,小刀
2019-09-09,稷王市场,稷山县,运城市,110.978052,35.596260,小刀电动车,山西省,18635921837,小刀
2019-09-09,839县道东50米(胡张中学附近),夏县,运城市,111.236378,35.250069,小刀电动车胡张专卖店,山西省,13835963520,小刀
2019-09-09,雁兴路南50米,河津市,运城市,110.714750,35.585212,小刀双动力电动车(莲池路店),山西省,无,小刀
2019-09-09,凤凰南路72号,盐湖区,运城市,110.996433,35.014661,小刀电动车(凤凰路店),山西省,无,小刀
2019-09-09,清河镇粮站坡,稷山县,运城市,111.021874,35.522237,小刀电动车,山西省,15110456329,小刀
2019-09-09,太阳乡太阳村小刀电动车,稷山县,运城市,110.973047,35.507235,太阳小刀电动车,山西省,13834733448,小刀
2019-09-09,繁城镇向阳路加油站斜对面,繁峙县,忻州市,113.271686,39.182853,小刀电动车,山西省,无,小刀
2019-09-09,广场东街34号附近,静乐县,忻州市,111.942536,38.352732,小刀电动车,山西省,无,小刀
2019-09-09,同心路19号附近,代县,忻州市,112.970086,39.069977,小刀电动车,山西省,无,小刀
2019-09-09,景观北路与雁靖大桥路交叉口东北50米,代县,忻州市,112.960505,39.056685,小刀电动车,山西省,无,小刀
2019-09-09,向阳路与城南街交叉口西北100米,繁峙县,忻州市,113.270672,39.186015,小刀电动车,山西省,无,小刀
2019-09-09,五台山南路(忻府区环境保护局北),忻府区,忻州市,112.741025,38.403565,小刀电动车(光明东街),山西省,无,小刀
2019-09-09,迎宾西街(五寨县砚城镇人民政府西),五寨县,忻州市,111.837848,38.917333,小刀电动车(五寨县砚城镇人民政府西),山西省,13835043558;13935088278,小刀
2019-09-09,东七道街与礼堂南路交叉口东150米,神池县,忻州市,112.199223,39.088595,小刀电动车(东七道街店),山西省,无,小刀
2019-09-09,,洪洞县,临汾市,111.569640,36.251563,小刀电动车,山西省,无,小刀
2019-09-09,桃临路东50米,洪洞县,临汾市,111.663805,36.401768,小刀电动车,山西省,无,小刀
2019-09-09,乔李镇迎泽街37号,尧都区,临汾市,111.632487,36.117145,小刀电动车专卖店,山西省,无,小刀
2019-09-09,丁陶大道丁陶大卖场4层附近,襄汾县,临汾市,111.427352,35.881974,小刀电动车,山西省,无,小刀
2019-09-09,环城南路与527县道交叉口西南200米,尧都区,临汾市,111.531293,36.054282,小刀电动车,山西省,无,小刀
2019-09-09,步行街与纺织东巷交叉口东南100米,侯马市,临汾市,111.383264,35.623986,小刀电动车,山西省,18734710078,小刀
2019-09-09,滨河路216号附近,吉县,临汾市,110.685476,36.098367,小刀电动车,山西省,无,小刀
2019-09-09,襄侯线西50米,襄汾县,临汾市,111.364273,35.725994,小刀电动车,山西省,13033425777,小刀
2019-09-09,东关路70号附近,尧都区,临汾市,111.529974,36.076697,小刀电动车批发直供店,山西省,无,小刀
2019-09-09,上马汽车站(236省道西),侯马市,临汾市,111.346265,35.587501,小刀电动三轮,山西省,15935362186,小刀
2019-09-09,329省道东50米,尧都区,临汾市,111.479390,36.167828,小刀电动车售后,山西省,15503576402,小刀
2019-09-09,张村,侯马市,临汾市,111.357615,35.649244,小刀电动车,山西省,无,小刀
2019-09-09,钢铁路东50米,尧都区,临汾市,111.552105,36.074696,小刀电动车(钢花小区北),山西省,无,小刀
2019-09-09,钢铁路东50米,尧都区,临汾市,111.551952,36.074038,自由机车部落,山西省,无,小刀
2019-09-09,新华东街126号,吉县,临汾市,110.685656,36.102795,小刀电动车,山西省,15835708289,小刀
2019-09-09,011乡道雅迪电动车西30米,曲沃县,临汾市,111.469723,35.758533,小刀电动车,山西省,13593520421,小刀
2019-09-09,恒富西大街南50米,洪洞县,临汾市,111.644601,36.283504,小刀电动车(恒富西大街店),山西省,15582699053,小刀
2019-09-09,杨树林路与蒲伊西街交叉口西50米,蒲县,临汾市,111.092368,36.414137,小刀电动车(蒲伊西街店),山西省,无,小刀
2019-09-09,里郭线东50米,曲沃县,临汾市,111.426078,35.709973,小刀电动车,山西省,无,小刀
2019-09-09,院裴线与537县道交叉口西50米,曲沃县,临汾市,111.545442,35.734570,小刀双动力电动车,山西省,13994012178,小刀
2019-09-09,331省道北50米,曲沃县,临汾市,111.560484,35.666967,小刀电动车(曲沃秦东升中医诊所西),山西省,13593535196,小刀
2019-09-09,台乡线南乡财苑购物中心南100米,乡宁县,临汾市,110.844099,35.965924,小刀电动车(文笔路),山西省,15535702633,小刀
2019-09-09,霍侯一级公路东200米,洪洞县,临汾市,111.732952,36.334440,小刀电动车,山西省,13994036012,小刀
2019-09-09,西街北50米交警队对面,大宁县,临汾市,110.741067,36.463690,小刀电动车,山西省,13233071444,小刀
2019-09-09,商业街与红旗路交叉口西南50米,尧都区,临汾市,111.469383,36.089323,小刀电动车,山西省,13191277656,小刀
2019-09-09,向阳路4号,尧都区,临汾市,111.527793,36.090945,小刀双动力电动车,山西省,无,小刀
2019-09-09,东赵路与尧都路交叉口东北150米,尧都区,临汾市,111.514189,36.065585,小刀电动车(福利路店),山西省,无,小刀
2019-09-09,侯马五交化市场,侯马市,临汾市,111.358829,35.606968,小刀电动车(五交化市场北巷),山西省,无,小刀
2019-09-09,赵城镇东大街34号,洪洞县,临汾市,111.681017,36.384420,小刀电动车(赵城专卖),山西省,13152777172,小刀
2019-09-09,234省道南50米,曲沃县,临汾市,111.549663,35.614049,小刀电动车(北董医院西南),山西省,13453717737,小刀
2019-09-09,克城镇老车站往南100米,蒲县,临汾市,111.297195,36.563687,小刀电动车(克城专卖店),山西省,无,小刀
2019-09-09,兴隆东街26号,曲沃县,临汾市,111.479626,35.642511,小刀电动车(兴隆东街),山西省,13753539290,小刀
2019-09-09,八一南路与红旗街交叉口西南50米,翼城县,临汾市,111.703940,35.740427,小刀电动车(红旗街),山西省,18434053269,小刀
2019-09-09,西环路96号,洪洞县,临汾市,111.669850,36.257371,小刀电动车(洪洞旗舰店),山西省,无,小刀
2019-09-09,太阳雨太阳能(108国道北),侯马市,临汾市,111.294213,35.600916,小刀电动车(高村店),山西省,13467188383,小刀
2019-09-09,府学街,汾阳市,吕梁市,111.792362,37.266454,小刀电动车,山西省,无,小刀
2019-09-09,新华街,离石区,吕梁市,111.136566,37.533496,小刀电动车,山西省,无,小刀
2019-09-09,新建街与龙山路交叉口东北100米,离石区,吕梁市,111.154261,37.518452,小刀电动车,山西省,无,小刀
2019-09-09,汾酒大道307国道城北加油站对面,汾阳市,吕梁市,111.799568,37.292819,小刀电动车,山西省,无,小刀
2019-09-09,凤山路与袁家庄七巷交叉口东北50米,离石区,吕梁市,111.142580,37.545436,小刀电动车,山西省,无,小刀
2019-09-09,西苑正街与西苑正街南四巷交叉口南50米,汾阳市,吕梁市,111.765875,37.266468,星星小刀电动车,山西省,无,小刀
2019-09-09,梧桐新区(西区)89号楼251商铺,孝义市,吕梁市,111.795283,37.105513,小刀电动车,山西省,无,小刀
2019-09-09,001乡道与450县道交叉口东北50米附近,文水县,吕梁市,112.091219,37.466427,小刀电动车(武午村店),山西省,无,小刀
2019-09-09,安阳路252号附近,孝义市,吕梁市,111.767581,37.143344,小刀电动车,山西省,无,小刀
2019-09-09,大南关南熏楼北路,汾阳市,吕梁市,111.780620,37.261053,小刀电动车(南熏路店),山西省,无,小刀
2019-09-09,孝义梧桐新区43号楼,孝义市,吕梁市,111.800321,37.104409,小刀电动车,山西省,无,小刀
2019-09-09,学府路与010乡道交叉口南30米,方山县,吕梁市,111.231358,37.887145,小刀电动车(方山专卖店),山西省,13753361110,小刀
2019-09-09,中国银行(鼓楼西街南),汾阳市,吕梁市,111.779289,37.269561,小刀电动车(鼓楼西街店),山西省,无,小刀
2019-09-09,北环路35号,中阳县,吕梁市,111.189755,37.345493,小刀电动车(骄峰苑西),山西省,13753343035,小刀
2019-09-09,西十二米街贺昌旅馆,柳林县,吕梁市,110.896640,37.430576,小刀电动车(十二米街店),山西省,13152789900,小刀
2019-09-09,腾飞大道与青山路交叉口西北100米,武川县,呼和浩特市,111.460665,41.090713,小刀电动车,内蒙古自治区,无,小刀
2019-09-09,气象局大院西北角16号楼C单元12号地铺,新城区,呼和浩特市,111.661910,40.838706,小刀电动车,内蒙古自治区,无,小刀
2019-09-09,河西路北50米,赛罕区,呼和浩特市,111.859576,40.857470,小刀电动车,内蒙古自治区,无,小刀
2019-09-09,鄂尔多斯大街立业大厦附近,玉泉区,呼和浩特市,111.664648,40.794027,小刀电动车(总店),内蒙古自治区,无,小刀
2019-09-09,健康东街与市场南路交叉口西北50米,武川县,呼和浩特市,111.457079,41.095297,小刀电动车,内蒙古自治区,无,小刀
2019-09-09,207乡道南50米,赛罕区,呼和浩特市,111.786769,40.835804,小刀电动车(207乡道),内蒙古自治区,无,小刀
2019-09-09,广通路与新民街交叉口东南50米,和林格尔县,呼和浩特市,111.816722,40.378652,小刀电动车(和林专卖店),内蒙古自治区,13034717883,小刀
2019-09-09,中山路与乌兰大街交叉口东南100米,土默特左旗,呼和浩特市,111.129073,40.716386,小刀电动车(中山路店),内蒙古自治区,18247168174,小刀
2019-09-09,云中北路,托克托县,呼和浩特市,111.199654,40.275670,小刀电动车(托克托县农牧业局西南),内蒙古自治区,无,小刀
2019-09-09,幸福路底店56号,青山区,包头市,109.877720,40.666441,小刀电动车,内蒙古自治区,无,小刀
2019-09-09,建设街与阿拉塔大街交叉口西北100米,固阳县,包头市,110.064336,41.029671,小刀电动车(阿拉塔大街店),内蒙古自治区,无,小刀
2019-09-09,文昌路与新达街交叉口西南150米,乌达区,乌海市,106.700730,39.517648,小刀电动车,内蒙古自治区,无,小刀
2019-09-09,新华西街道人民南路老交通局楼下,海勃湾区,乌海市,106.820077,39.665328,小刀双动力电动车(人民路店),内蒙古自治区,无,小刀
2019-09-09,侧柏路与垂柳街交叉口东南50米附近,元宝山区,赤峰市,119.319579,42.299944,小刀电动车,内蒙古自治区,无,小刀
2019-09-09,,宁城县,赤峰市,119.023748,41.721124,小刀电动车,内蒙古自治区,15947564170,小刀
2019-09-09,兴安街与西一路交叉口东100米,林西县,赤峰市,118.061099,43.599657,小刀电动车,内蒙古自治区,无,小刀
2019-09-09,230县道东100米,喀喇沁旗,赤峰市,119.280961,41.912626,小刀电动车,内蒙古自治区,无,小刀
2019-09-09,三座店中心小学南(207省道东),宁城县,赤峰市,118.875985,41.630460,小刀电动车,内蒙古自治区,无,小刀
2019-09-09,207省道西50米,宁城县,赤峰市,118.954769,41.719760,小刀电动车,内蒙古自治区,无,小刀
2019-09-09,天山线与212乡道交叉口西南100米,宁城县,赤峰市,119.010485,41.476492,小刀电动车,内蒙古自治区,无,小刀
2019-09-09,景泉街东50米,宁城县,赤峰市,118.748372,41.508397,小刀电动车,内蒙古自治区,无,小刀
2019-09-09,306国道北50米,宁城县,赤峰市,119.127714,41.596286,小刀电动车(大明镇卫生院西),内蒙古自治区,无,小刀
2019-09-09,,宁城县,赤峰市,119.328862,41.593077,小刀电动车(兴隆街店),内蒙古自治区,13294761559,小刀
2019-09-09,北市街与巴林路交叉口西100米,巴林右旗,赤峰市,118.677346,43.530564,宏宾小刀电动车,内蒙古自治区,无,小刀
2019-09-09,306国道八肯中邮政支局西南侧100米,宁城县,赤峰市,119.083907,41.652063,小刀电动车(八肯中村店),内蒙古自治区,15648655404,小刀
2019-09-09,,巴林左旗,赤峰市,119.683508,43.796953,小刀双动力电动车,内蒙古自治区,18304873933,小刀
2019-09-09,新中街与新化路交叉口西100米,敖汉旗,赤峰市,119.904388,42.282274,小刀电动车,内蒙古自治区,无,小刀
2019-09-09,111国道西50米,敖汉旗,赤峰市,120.540554,42.584906,小刀电动车,内蒙古自治区,13847614500,小刀
2019-09-09,三道街58-2,红山区,赤峰市,118.962039,42.279272,小刀电动车(三道西街),内蒙古自治区,无,小刀
2019-09-09,契丹街18-31,宁城县,赤峰市,119.334031,41.595610,小刀电动车(兴隆街店),内蒙古自治区,无,小刀
2019-09-09,富林北路与富林路交叉口南100米,科尔沁区,通辽市,122.809339,43.726742,小刀电动车,内蒙古自治区,无,小刀
2019-09-09,团结路与建设大街交叉口西南50米,科尔沁左翼中旗,通辽市,123.310424,44.128726,小刀电动车,内蒙古自治区,无,小刀
2019-09-09,131乡道南50米,科尔沁左翼后旗,通辽市,123.559971,43.378919,小刀电动车,内蒙古自治区,无,小刀
2019-09-09,466县道东50米,扎鲁特旗,通辽市,121.229966,44.654770,小刀电动车,内蒙古自治区,无,小刀
2019-09-09,库伦中心街南50米,库伦旗,通辽市,121.774066,42.729553,大运三轮&小刀电动车,内蒙古自治区,15204810105,小刀
2019-09-09,巴彦路与玛拉沁街交叉口东150米,科尔沁左翼后旗,通辽市,122.354846,42.952348,小刀电动车(后旗专卖店),内蒙古自治区,13947521024,小刀
2019-09-09,民族路27-10号,开鲁县,通辽市,121.308834,43.598152,小刀电动车,内蒙古自治区,无,小刀
2019-09-09,泰丰大街8-10号附近,霍林郭勒市,通辽市,119.649429,45.538281,小刀电动车(锡林大街店),内蒙古自治区,无,小刀
2019-09-09,科尔沁大街西723号,科尔沁区,通辽市,122.258522,43.610231,北方车业,内蒙古自治区,无,小刀
2019-09-09,S305(大青沟街),科尔沁左翼后旗,通辽市,122.351825,42.947169,小刀电动三轮车,内蒙古自治区,无,小刀
2019-09-09,三段地路与毛盖图东街交叉口西北100米,鄂托克前旗,鄂尔多斯市,107.481727,38.187599,小刀电动车,内蒙古自治区,无,小刀
2019-09-09,开源路与通达路交叉口西50米,准格尔旗,鄂尔多斯市,111.236416,39.867752,小刀电动车,内蒙古自治区,无,小刀
2019-09-09,乌兰镇阿尔寨街布日都路十字路口南100米,鄂托克旗,鄂尔多斯市,107.989732,39.093902,小刀电动车,内蒙古自治区,无,小刀
2019-09-09,健民路与尔格图街交叉口西北150米,鄂托克旗,鄂尔多斯市,107.044161,39.394021,小刀电动车,内蒙古自治区,18947091515,小刀
2019-09-09,鄂托克东街5号附4号,东胜区,鄂尔多斯市,110.002123,39.822777,小刀电动车(鄂托克东街店),内蒙古自治区,无,小刀
2019-09-09,陈巴尔虎路邮政储蓄俄罗斯商城西门对面小刀电动车旁边,海拉尔区,呼伦贝尔市,119.741158,49.214442,小刀电动车(呼伦贝尔店),内蒙古自治区,无,小刀
2019-09-09,012乡道北50米,阿荣旗,呼伦贝尔市,123.795011,48.503530,小刀电动车(格尼专卖店),内蒙古自治区,15048085168,小刀
2019-09-09,和平路65号附近,莫力达瓦达斡尔族自治旗,呼伦贝尔市,124.490499,48.474553,小刀电动车(和平路),内蒙古自治区,无,小刀
2019-09-09,哈撒尔路支行(天骄嘉园附近),额尔古纳市,呼伦贝尔市,120.176823,50.248490,小刀电动车,内蒙古自治区,无,小刀
2019-09-09,中央路与金河街交叉口东南50米,根河市,呼伦贝尔市,121.530974,50.780845,小刀电动车,内蒙古自治区,无,小刀
2019-09-09,内卧北街北50米,扎兰屯市,呼伦贝尔市,122.669159,48.100257,小刀电动车(卧北街),内蒙古自治区,无,小刀
2019-09-09,解放西街14号附近,临河区,巴彦淖尔市,107.404964,40.766629,小刀电动车(临河区博爱医院东),内蒙古自治区,无,小刀
2019-09-09,中山南路与隆兴昌东街交叉口西南150米,五原县,巴彦淖尔市,108.275479,41.100715,小刀电动车,内蒙古自治区,无,小刀
2019-09-09,教育路附近,乌拉特前旗,巴彦淖尔市,108.653366,40.724819,小刀电动车(红卫中路),内蒙古自治区,无,小刀
2019-09-09,建国三路与马桥街交叉口南50米,集宁区,乌兰察布市,113.093899,41.030599,小刀电动车,内蒙古自治区,无,小刀
2019-09-09,察右前旗土贵乌拉站北100米(光明街西),察哈尔右翼前旗,乌兰察布市,113.206796,40.789584,小刀电动车,内蒙古自治区,无,小刀
2019-09-09,兴盛路与阜顺街交叉口东100米,兴和县,乌兰察布市,113.833398,40.873483,小刀电动车,内蒙古自治区,无,小刀
2019-09-09,光明街与北桥街交叉口西北50米,凉城县,乌兰察布市,112.491594,40.529593,小刀电动车,内蒙古自治区,无,小刀
2019-09-09,庆云巷与红星街交叉口东南50米,商都县,乌兰察布市,113.547542,41.562593,小刀电动车(红星街),内蒙古自治区,无,小刀
2019-09-09,温州商业街与迎宾路交叉口东北150米,丰镇市,乌兰察布市,113.159957,40.439388,小刀电动车(温州商业街),内蒙古自治区,13948492781,小刀
2019-09-09,新华街,四子王旗,乌兰察布市,111.699356,41.522402,小刀电动车(四王子旗旗舰一店),内蒙古自治区,0474-5208919,小刀
2019-09-09,422县道南50米,突泉县,兴安盟,121.772045,45.485501,小刀电动车,内蒙古自治区,无,小刀
2019-09-09,音德尔镇中心西街中国邮政东北,扎赉特旗,兴安盟,122.912104,46.723805,小刀电动车店,内蒙古自治区,无,小刀
2019-09-09,人民南路与复兴西街交叉口东北50米,乌兰浩特市,兴安盟,122.075978,46.071801,小刀电动车(人民南路店),内蒙古自治区,0482-8236662,小刀
2019-09-09,华丰街与新华路交叉口西100米,突泉县,兴安盟,121.562714,45.382181,小刀电动车,内蒙古自治区,无,小刀
2019-09-09,巴彦呼舒大街与巴扎拉嘎路交叉口东150米,科尔沁右翼中旗,兴安盟,121.472790,45.060914,小刀电动车,内蒙古自治区,0482-4130399;13948244818,小刀
2019-09-09,东盛街与府前街交叉口东南50米,多伦县,锡林郭勒盟,116.485036,42.192499,小刀电动车专卖,内蒙古自治区,无,小刀
2019-09-09,明安图镇广场东,正镶白旗,锡林郭勒盟,115.005824,42.310494,小刀电动车专卖店,内蒙古自治区,13694786260,小刀
2019-09-09,多伦诺尔镇向阳路41号,多伦县,锡林郭勒盟,116.474714,42.197083,小刀电动车,内蒙古自治区,无,小刀
2019-09-09,上都镇巴彦敖包路草原明珠宾馆南,正蓝旗,锡林郭勒盟,115.999750,42.247809,小刀电动车,内蒙古自治区,无,小刀
2019-09-09,社区建设管理局友谊路石油公司对面,二连浩特市,锡林郭勒盟,111.989617,43.650432,小刀电动车(二连浩特旗舰店),内蒙古自治区,无,小刀
2019-09-09,民政局楼下,锡林浩特市,锡林郭勒盟,116.088623,43.950795,小刀电动车(锡林郭勒京诚中医院东南),内蒙古自治区,无,小刀
2019-09-09,满都拉街中国石油东苏片区第一加油站,苏尼特左旗,锡林郭勒盟,113.654177,43.852574,小刀电动车专卖店(满达拉街店),内蒙古自治区,13664796323,小刀
2019-09-09,建设南街,太仆寺旗,锡林郭勒盟,115.283539,41.889290,小刀电动车(中蒙医院南),内蒙古自治区,无,小刀
2019-09-09,公园北路十九巷与木器巷交叉口南200米,阿拉善左旗,阿拉善盟,105.699661,38.849876,小刀双动力电动车,内蒙古自治区,无,小刀
2019-09-09,柳大线附近,新民市,沈阳市,122.609451,41.874875,小刀电动车,辽宁省,无,小刀
2019-09-09,永兴街与永富路交叉口东南50米,苏家屯区,沈阳市,123.141300,41.584655,小刀电动车,辽宁省,无,小刀
2019-09-09,张柴线与102国道交叉口北50米,新民市,沈阳市,123.004439,41.825663,小刀电动车,辽宁省,无,小刀
2019-09-09,叶苗线与101国道交叉口西北200米,新民市,沈阳市,123.181187,42.185830,小刀电动车,辽宁省,无,小刀
2019-09-09,东陵西路73号14门附近,沈河区,沈阳市,123.519127,41.812330,小刀电动车,辽宁省,无,小刀
2019-09-09,茨榆街130号附近,辽中区,沈阳市,122.891761,41.516258,小刀电动车(茨榆坨店),辽宁省,无,小刀
2019-09-09,兴明街30号,沈北新区,沈阳市,123.517589,41.944965,小刀电动车,辽宁省,无,小刀
2019-09-09,浑南新区营城子大街枫林花园小区158-6门,浑南区,沈阳市,123.514683,41.700499,小刀电动车(枫林花园店),辽宁省,无,小刀
2019-09-09,和沈苏西路与浑铁路交叉口东北50米,和平区,沈阳市,123.378301,41.728085,小刀电动车,辽宁省,无,小刀
2019-09-09,白山路142-4号,于洪区,沈阳市,123.377654,41.858146,小刀电动车(长城铭苑西),辽宁省,无,小刀
2019-09-09,联合路190号甲门市11栋6门,大东区,沈阳市,123.492321,41.831855,小刀电动车(联合路店),辽宁省,13032451008,小刀
2019-09-09,草仓路15-3号附近,大东区,沈阳市,123.466896,41.809527,小刀电动车,辽宁省,无,小刀
2019-09-09,湘江街51号附近,皇姑区,沈阳市,123.421582,41.825436,小刀电动车(湘江街),辽宁省,13591432166,小刀
2019-09-09,文官街道民强一街10号小刀电动车,大东区,沈阳市,123.489790,41.876832,小刀电动车(健体路),辽宁省,无,小刀
2019-09-09,沈新路54号附近,于洪区,沈阳市,123.310291,41.780536,小刀电动车,辽宁省,无,小刀
2019-09-09,南京南街119-1号,和平区,沈阳市,123.391078,41.769681,小刀双动力电动车,辽宁省,无,小刀
2019-09-09,鸭绿江街70号6门,皇姑区,沈阳市,123.456178,41.849515,小刀电动车,辽宁省,13591657100,小刀
2019-09-09,三台子街道梅江西街19号4-1-3,皇姑区,沈阳市,123.427759,41.884673,小刀电动车专卖,辽宁省,无,小刀
2019-09-09,南八东路17号,铁西区,沈阳市,123.376093,41.784150,小菊自行车电动车配件批发(德爱店),辽宁省,无,小刀
2019-09-09,南阳湖街道沈辽路杨士村,于洪区,沈阳市,123.305221,41.762272,小刀双动力电动车,辽宁省,15566208605,小刀
2019-09-09,辉山冯道街5号楼,沈北新区,沈阳市,123.584799,41.921221,小刀电动车(聚农路),辽宁省,无,小刀
2019-09-09,沈大路11号2门,于洪区,沈阳市,123.313536,41.801599,小刀电动车(于洪区人民医院迎宾路分院东南),辽宁省,13478807322;15140086392,小刀
2019-09-09,辽中区潘家堡卫生院(潘乌线北60米),辽中区,沈阳市,122.848510,41.608200,小刀电动车专卖,辽宁省,无,小刀
2019-09-09,丰乐二街7号5门(MOTO新城东北),沈河区,沈阳市,123.485511,41.766203,小刀电动车(丰乐二街),辽宁省,024-24222466,小刀
2019-09-09,东北大马路55号,大东区,沈阳市,123.476647,41.818850,小刀电动车(东北大马路),辽宁省,18740011799,小刀
2019-09-09,北兴线与红兴路交叉口西北200米,于洪区,沈阳市,123.273891,41.852624,高家小刀电动车,辽宁省,15998109198,小刀
2019-09-09,叶元线西50米,法库县,沈阳市,122.946292,42.475490,小刀电动车(包家屯专卖店),辽宁省,13609898733,小刀
2019-09-09,清水台东方华宇(清中街东),沈北新区,沈阳市,123.612650,42.026429,小刀电动车,辽宁省,无,小刀
2019-09-09,白塔街66号16门,浑南区,沈阳市,123.422332,41.692915,小刀电动车(朗圣·丰华园北),辽宁省,13889325795,小刀
2019-09-09,浑南区S107(十大线),浑南区,沈阳市,123.657843,41.780183,小刀电动车,辽宁省,无,小刀
2019-09-09,文大路343-4号4门,皇姑区,沈阳市,123.380128,41.895537,小刀电动车(青城北路),辽宁省,18640546956,小刀
2019-09-09,红菱中心街47-1号附近,苏家屯区,沈阳市,123.299310,41.550988,小刀电动车,辽宁省,无,小刀
2019-09-09,民族南街158号南四马路小刀电动车,和平区,沈阳市,123.392994,41.786455,小刀电动车(南四马路),辽宁省,无,小刀
2019-09-09,上园路12-3号楼,大东区,沈阳市,123.475755,41.835718,小刀电动车(上园路),辽宁省,无,小刀
2019-09-09,昆明湖街道沈辽路宁官市场西50米,铁西区,沈阳市,123.277367,41.757925,小武电动车行(沈辽路店),辽宁省,无,小刀
2019-09-09,法张线北50米,康平县,沈阳市,123.140017,42.656886,小刀电动车(法张线),辽宁省,13080804001,小刀
2019-09-09,203国道东50米,康平县,沈阳市,123.485760,42.844529,小刀电动车(北四家子专卖店),辽宁省,无,小刀
2019-09-09,赵河线北50米,法库县,沈阳市,123.458829,42.318598,小刀电动车(冯贝堡专卖店),辽宁省,024-87034334,小刀
2019-09-09,高张线南50米,新民市,沈阳市,122.866170,42.064371,小刀电动车,辽宁省,13224236172,小刀
2019-09-09,南七中路17号,铁西区,沈阳市,123.365711,41.790987,祥冰小刀电动车,辽宁省,13130206051,小刀
2019-09-09,杭州路与金星街交叉口东50米,沈北新区,沈阳市,123.520211,42.057974,小刀电动车(喜得隆旗舰店),辽宁省,无,小刀
2019-09-09,小潘南四街与102省道交叉口南50米(小潘小学附近),铁西区,沈阳市,123.140865,41.691369,小刀电动车(小潘南四街店),辽宁省,13644003479,小刀
2019-09-09,枫杨路105号4门,苏家屯区,沈阳市,123.331652,41.658799,小刀双动力电动车,辽宁省,13080847829,小刀
2019-09-09,中兴西路73号,新民市,沈阳市,122.825821,41.994159,小刀电动车(中兴西路店),辽宁省,无,小刀
2019-09-09,商业街59号,辽中区,沈阳市,122.735295,41.514324,小岛电动车(辽中旗舰店),辽宁省,024-62307703;15804099890,小刀
2019-09-09,兴法路258号,法库县,沈阳市,123.425137,42.504003,小刀电动车(法库专卖店),辽宁省,024-87100869,小刀
2019-09-09,麦潮图兰朵KTV(102国道),新民市,沈阳市,123.151516,41.789026,上海杰宝电动车(新民市胡台卫生院西),辽宁省,无,小刀
2019-09-09,南顺城路61号,沈河区,沈阳市,123.457492,41.792709,小刀电动车(大南专卖店),辽宁省,024-24157846,小刀
2019-09-09,,甘井子区,大连市,121.671280,39.071662,小刀电动车,辽宁省,无,小刀
2019-09-09,旅顺北路598号附近,旅顺口区,大连市,121.269852,38.912235,小刀电动车,辽宁省,无,小刀
2019-09-09,城八线,普兰店区,大连市,122.491769,39.518636,小刀电动车,辽宁省,无,小刀
2019-09-09,海皮公路,普兰店区,大连市,122.247448,39.398798,小刀电动车,辽宁省,无,小刀
2019-09-09,东山路228号,金州区,大连市,121.735368,39.093470,小刀电动车,辽宁省,15604260909,小刀
2019-09-09,邓陈线北50米,金州区,大连市,121.758645,39.425976,小刀电动车,辽宁省,无,小刀
2019-09-09,黄海西四路新领地公寓,金州区,大连市,121.793344,39.049256,小刀电动车(大连新元素总店),辽宁省,无,小刀
2019-09-09,城八线东50米,瓦房店市,大连市,121.711822,39.728816,小刀电动车(复州城店),辽宁省,无,小刀
2019-09-09,九龙路139号附近,瓦房店市,大连市,121.866041,39.574303,小刀电动车,辽宁省,13504262397,小刀
2019-09-09,延安路与红岩路交叉口西北50米,庄河市,大连市,122.976855,39.702559,小刀电动车庄河专卖店,辽宁省,无,小刀
2019-09-09,富春路与敬业路交叉口南100米,金州区,大连市,122.035861,39.271310,小岛,辽宁省,13840971497,小刀
2019-09-09,西长春路34-2号附近,瓦房店市,大连市,122.010619,39.624341,小刀电动车(水果街),辽宁省,0411-85629169,小刀
2019-09-09,胜利路733号,金州区,大连市,121.723277,39.111484,小岛电动车,辽宁省,13840936137,小刀
2019-09-09,出岫路与长兴路交叉口南150米,瓦房店市,大连市,121.455879,39.595560,小刀电动车,辽宁省,13322237773,小刀
2019-09-09,202国道东50米,瓦房店市,大连市,122.006019,40.049432,小刀电动车,辽宁省,13478545353,小刀
2019-09-09,榆石街8附近,甘井子区,大连市,121.518814,38.970504,小刀电动车(美林园专卖店),辽宁省,15542392171,小刀
2019-09-09,九三路30-5号,旅顺口区,大连市,121.261270,38.816301,小刀电动车(九三路店),辽宁省,13029430444,小刀
2019-09-09,大宽街3段71-2号,瓦房店市,大连市,122.004136,39.620429,小刀电动车,辽宁省,无,小刀
2019-09-09,营顺路442号,旅顺口区,大连市,121.248544,38.856285,小刀电动车(圣帝庄园南),辽宁省,15524635873;13795199234,小刀
2019-09-09,富民路,海城市,鞍山市,122.637665,40.850959,小刀电动车,辽宁省,无,小刀
2019-09-09,千山东路312附近,立山区,鞍山市,123.112942,41.085889,小刀电动车,辽宁省,无,小刀
2019-09-09,S312(大盘线),海城市,鞍山市,122.637065,40.902956,小刀电动车,辽宁省,13841278073,小刀
2019-09-09,312省道东50米,海城市,鞍山市,122.907228,40.703520,小刀电动车,辽宁省,无,小刀
2019-09-09,龙王线与312省道交叉口西北50米,岫岩满族自治县,鞍山市,123.157685,40.472128,小刀电动车,辽宁省,无,小刀
2019-09-09,大盘线满族自治县九年一贯制洋河镇学校,岫岩满族自治县,鞍山市,123.419607,40.060021,小刀电动车,辽宁省,无,小刀
2019-09-09,"感王镇鑫源小区正门北50米,如意水果超市旁",海城市,鞍山市,122.556454,40.817187,小刀电动车,辽宁省,13464429531,小刀
2019-09-09,牛庄镇沈营线牛庄购物中心西北200米,海城市,鞍山市,122.530678,40.949217,小刀电动车,辽宁省,无,小刀
2019-09-09,312省道北50米,海城市,鞍山市,122.820197,40.738937,小程电动车行,辽宁省,无,小刀
2019-09-09,汤析线与312省道交叉口东50米,海城市,鞍山市,122.909991,40.701615,小刀电动车,辽宁省,无,小刀
2019-09-09,中兴街与致富东路交叉口振兴超市旁,台安县,鞍山市,122.491010,41.319782,小刀电动车(致富西路),辽宁省,0412-4601380,小刀
2019-09-09,012县道与354乡道交叉口西南50米,台安县,鞍山市,122.358757,41.326957,小刀电动车,辽宁省,13591595871;13614228485,小刀
2019-09-09,胜利东路18号(台安县劳动和社会保障局西北),台安县,鞍山市,122.430684,41.388931,小刀电动车(台安县劳动和社会保障局西北),辽宁省,13065426456,小刀
2019-09-09,城东路41-2号楼附近,岫岩满族自治县,鞍山市,123.293379,40.281919,小刀电动车(旗舰店),辽宁省,15641233388,小刀
2019-09-09,张庄公路与苏大线交叉口东北200米,岫岩满族自治县,鞍山市,123.414553,40.400694,宗申摩托,辽宁省,无,小刀
2019-09-09,边关线与金桦线交叉口南50米平顶山客运站附近,新宾满族自治县,抚顺市,124.772964,41.415105,小刀电动车,辽宁省,无,小刀
2019-09-09,开草线附近,清原满族自治县,抚顺市,125.229248,42.296795,小刀电动车,辽宁省,无,小刀
2019-09-09,S201(木通线),新宾满族自治县,抚顺市,124.819403,41.706939,小刀电动车,辽宁省,无,小刀
2019-09-09,顺发路与顺美街交叉口东南50米,望花区,抚顺市,123.723362,41.822970,小刀电动车,辽宁省,无,小刀
2019-09-09,清河路与白云街交叉口西南50米,清原满族自治县,抚顺市,124.936588,42.102086,小刀电动车,辽宁省,024-53502777,小刀
2019-09-09,新抚路18号南90米,新抚区,抚顺市,123.883060,41.859556,小刀电动车(千金路),辽宁省,无,小刀
2019-09-09,开草线,清原满族自治县,抚顺市,124.851356,42.378374,小刀电动车,辽宁省,无,小刀
2019-09-09,肇兴路90号,新宾满族自治县,抚顺市,125.047679,41.726510,小刀电动车,辽宁省,无,小刀
2019-09-09,石桥子站(沈本产业大道西),溪湖区,本溪市,123.724227,41.451644,小刀电动车(中共石桥子街道工作委员会西南),辽宁省,无,小刀
2019-09-09,民族路与黄河大街交叉口东150米,桓仁满族自治县,本溪市,125.360760,41.271905,小刀电动车(民族路店),辽宁省,无,小刀
2019-09-09,兴利街与南兴路交叉口南50米,平山区,本溪市,123.753030,41.277195,小刀电动车,辽宁省,024-43360009,小刀
2019-09-09,滨河西路149号,本溪满族自治县,本溪市,124.132846,41.300830,小刀电动车(本溪小市专卖店),辽宁省,024-46861616,小刀
2019-09-09,,凤城市,丹东市,123.851790,40.310760,小刀电动车,辽宁省,无,小刀
2019-09-09,宝黄线,东港市,丹东市,123.749398,40.020009,小刀电动车,辽宁省,无,小刀
2019-09-09,前聚宝街150-10号,元宝区,丹东市,124.400495,40.138352,小刀双动力电动车(前聚宝街),辽宁省,0415-3161134,小刀
2019-09-09,南环东路与铁长路交叉口南100米路西,宽甸满族自治县,丹东市,124.786049,40.721677,小刀电动车(铁长路),辽宁省,15041593776,小刀
2019-09-09,振兴街87号附近,凤城市,丹东市,124.248003,40.550250,小刀电动车(军民路店),辽宁省,无,小刀
2019-09-09,兴民路182号附近,凤城市,丹东市,124.098847,40.350074,小刀电动车,辽宁省,0415-8071166;13188386866,小刀
2019-09-09,201国道北50米,东港市,丹东市,123.903232,39.867231,小刀电动车,辽宁省,无,小刀
2019-09-09,迎宾西大街102号-1,东港市,丹东市,124.143384,39.884279,小刀电动车(东港专卖店),辽宁省,无,小刀
2019-09-09,前聚宝街150-10号,元宝区,丹东市,124.400031,40.138559,小巴士老年电动代步车,辽宁省,15842560333,小刀
2019-09-09,,凌海市,锦州市,121.385348,41.076639,小刀电动车,辽宁省,无,小刀
2019-09-09,102国道东50米,北镇市,锦州市,121.777018,41.477615,小刀电动车,辽宁省,无,小刀
2019-09-09,兴闫线南50米,凌海市,锦州市,121.370446,41.002054,小刀电动车,辽宁省,无,小刀
2019-09-09,中环北路与新制西街交叉口西北150米,凌河区,锦州市,121.157565,41.136128,小刀电动车,辽宁省,无,小刀
2019-09-09,汤河子街道合金西里89号,太和区,锦州市,120.982225,41.057373,小刀电动车,辽宁省,无,小刀
2019-09-09,右卫满族镇,凌海市,锦州市,121.540487,41.111081,小刀电动车,辽宁省,无,小刀
2019-09-09,凌海大街与利民路交叉口东50米,凌海市,锦州市,121.363328,41.178766,小刀电动车(凌海大街店),辽宁省,无,小刀
2019-09-09,采油厂西门西行50米路北,义县,锦州市,121.384451,41.556331,小刀电动车,辽宁省,无,小刀
2019-09-09,305国道北50米,义县,锦州市,121.376105,41.392685,小刀电动车(中共义县白庙子乡委员会西),辽宁省,无,小刀
2019-09-09,中心街附近,黑山县,锦州市,122.145827,41.618450,小刀电动车,辽宁省,13898355288,小刀
2019-09-09,211省道与722乡道交叉口西南50米,黑山县,锦州市,122.270763,41.882877,小刀电动车,辽宁省,15940664811,小刀
2019-09-09,102国道南50米,凌海市,锦州市,121.404392,41.185045,小刀电动车,辽宁省,13050477888,小刀
2019-09-09,102国道与706县道交叉口南200米,北镇市,锦州市,121.792664,41.589906,小刀电动车(北镇市世康医院南),辽宁省,无,小刀
2019-09-09,211省道南50米,黑山县,锦州市,122.411880,41.708309,小刀车行,辽宁省,无,小刀
2019-09-09,704乡道(红盛综合商店斜对面),黑山县,锦州市,122.071270,41.902205,小刀电动车,辽宁省,13214169800;13654164788,小刀
2019-09-09,千一路北50米,凌海市,锦州市,121.554814,40.999460,小刀电动车,辽宁省,无,小刀
2019-09-09,解放路2段-74号-53,古塔区,锦州市,121.126824,41.116089,小刀电动车(解放路店),辽宁省,0416-3304557,小刀
2019-09-09,人民路与西内环路交叉口东150米,黑山县,锦州市,122.114456,41.691813,小刀电动车(诚信家园店),辽宁省,无,小刀
2019-09-09,102国道与209省道交叉口西南150米,太和区,锦州市,121.182090,41.043676,小刀电动车,辽宁省,无,小刀
2019-09-09,金城原种场,凌海市,锦州市,121.388839,41.210264,南宅小刀电动车,辽宁省,无,小刀
2019-09-09,,大石桥市,营口市,122.633501,40.535124,小刀电动车,辽宁省,无,小刀
2019-09-09,泰山大街富吉家园17号楼5门市,鲅鱼圈区,营口市,122.154124,40.261665,小刀电动车,辽宁省,无,小刀
2019-09-09,跃进街道辽河大街42一甲10号,站前区,营口市,122.257982,40.680204,小刀电动车行,辽宁省,无,小刀
2019-09-09,八一路52号,大石桥市,营口市,122.502892,40.635417,小刀(繁荣大街),辽宁省,无,小刀
2019-09-09,繁荣路与龙山大街交叉口西北100米,老边区,营口市,122.377383,40.676018,小刀电动车,辽宁省,无,小刀
2019-09-09,丁屯路与滨海街交叉口东南50米,鲅鱼圈区,营口市,122.131917,40.271421,小刀电动车,辽宁省,无,小刀
2019-09-09,熊岳镇金城明珠小区附近,鲅鱼圈区,营口市,122.136177,40.176307,小刀电动车,辽宁省,0417-7842444,小刀
2019-09-09,虎庄镇虎庄中学对面,大石桥市,营口市,122.547702,40.720138,小刀电动车,辽宁省,无,小刀
2019-09-09,305国道东50米,盖州市,营口市,122.553858,40.137320,顺发小刀电动车(万福专卖店),辽宁省,0417-7302378,小刀
2019-09-09,,彰武县,阜新市,122.491830,42.710334,小刀电动车,辽宁省,无,小刀
2019-09-09,繁荣大街与205省道交叉口南100米,太平区,阜新市,121.762466,42.040289,小刀电动车,辽宁省,无,小刀
2019-09-09,煤城路太平花园二小区12号楼,太平区,阜新市,121.681205,42.004027,小刀电动车(太平花园2小区店),辽宁省,无,小刀
2019-09-09,中兴门窗服务部西北(101国道南),彰武县,阜新市,122.750033,42.348857,小刀电动车,辽宁省,无,小刀
2019-09-09,双城街与煤城路交叉口东北50米,太平区,阜新市,121.696649,42.012658,小刀,辽宁省,无,小刀
2019-09-09,同衙线与101国道交叉口东150米,阜新蒙古族自治县,阜新市,121.504883,42.062778,小刀电动车(王府店),辽宁省,0418-8100003,小刀
2019-09-09,朱苍线,阜新蒙古族自治县,阜新市,122.010047,42.100889,小刀电动车,辽宁省,0418-8231686,小刀
2019-09-09,阜大线东50米,阜新蒙古族自治县,阜新市,121.460703,42.130063,小刀电动车(红帽子乡卫生院西南),辽宁省,无,小刀
2019-09-09,解放大街115号,彰武县,阜新市,122.531891,42.385302,小刀双动力电动车,辽宁省,无,小刀
2019-09-09,314省道东100米,阜新蒙古族自治县,阜新市,122.018486,41.965543,小刀电动车(富荣镇店),辽宁省,18741812383,小刀
2019-09-09,大五家子镇大五家子加油站对面,阜新蒙古族自治县,阜新市,121.340196,42.196128,小刀电动车(阜大线),辽宁省,无,小刀
2019-09-09,211省道西50米,阜新蒙古族自治县,阜新市,122.260106,42.107737,小刀电动车(十家子店),辽宁省,无,小刀
2019-09-09,101国道与211省道交叉口西北50米,彰武县,阜新市,122.130301,42.487253,小刀电动车(哈尔套专卖),辽宁省,无,小刀
2019-09-09,平安地镇政府南50米,阜新蒙古族自治县,阜新市,121.876821,42.487360,小刀电动车(平安地店),辽宁省,无,小刀
2019-09-09,戴尔电脑东南50米(911县道北),阜新蒙古族自治县,阜新市,122.110764,42.324640,小刀电动车,辽宁省,无,小刀
2019-09-09,塔平线塔营子乡政府东100米,阜新蒙古族自治县,阜新市,122.067017,42.436005,小刀电动车,辽宁省,0418-8345728,小刀
2019-09-09,海新路252-1号附近,太平区,阜新市,121.745690,42.033488,邦德电动车售后,辽宁省,13464848779,小刀
2019-09-09,宏力装饰材料东南50米(朱苍线南),阜新蒙古族自治县,阜新市,121.877344,42.140889,小刀电动车,辽宁省,13464851515,小刀
2019-09-09,平安路97号附近,海州区,阜新市,121.618856,41.969863,小刀电动车(树柏平西店),辽宁省,无,小刀
2019-09-09,振兴路34之8-9门,海州区,阜新市,121.656529,41.997631,小刀电动车(阜新旗舰店),辽宁省,无,小刀
2019-09-09,文化路65号,阜新蒙古族自治县,阜新市,121.738642,42.056241,小刀电动车(交通路),辽宁省,0418-3592666,小刀
2019-09-09,新开街与新邱大街交叉口北50米路西,新邱区,阜新市,121.787959,42.084583,小刀双动力电动车,辽宁省,18841816918,小刀
2019-09-09,振兴路32之6-7门,海州区,阜新市,121.656700,41.997627,小刀双动力电动车(振兴路店),辽宁省,无,小刀
2019-09-09,同衙线与101国道交叉口东150米,阜新蒙古族自治县,阜新市,121.504799,42.062829,大华车行,辽宁省,无,小刀
2019-09-09,马家店大厦,细河区,阜新市,121.642410,42.014130,西小刀电动车行,辽宁省,无,小刀
2019-09-09,后鸡线南50米,灯塔市,辽阳市,123.471535,41.397700,小刀电动车苏三车行,辽宁省,无,小刀
2019-09-09,东方路小区20栋,宏伟区,辽阳市,123.210838,41.199552,小刀电动车,辽宁省,无,小刀
2019-09-09,新民街337附近,灯塔市,辽阳市,123.037154,41.443611,小刀电动车,辽宁省,无,小刀
2019-09-09,S101(辽鞍路),辽阳县,辽阳市,123.076529,41.219761,小刀电动车(人民街),辽宁省,无,小刀
2019-09-09,安平街道欧式街,弓长岭区,辽阳市,123.431410,41.159775,小刀电动车,辽宁省,无,小刀
2019-09-09,沈半线与035县道交叉口西100米,灯塔市,辽阳市,123.103826,41.536197,小刀电动车,辽宁省,0419-8192480;0419-8191588,小刀
2019-09-09,鞍蛤线与003县道交叉口西北150米,辽阳县,辽阳市,122.916494,41.215132,小刀电动车,辽宁省,无,小刀
2019-09-09,三道街与新华路交叉口,白塔区,辽阳市,123.185915,41.270699,小刀电动车(三道街店),辽宁省,无,小刀
2019-09-09,G305(庄林线),盘山县,盘锦市,121.953008,41.287190,小刀电动车,辽宁省,无,小刀
2019-09-09,兴隆台街126号附近,兴隆台区,盘锦市,122.062157,41.128109,小刀电动车,辽宁省,无,小刀
2019-09-09,,盘山县,盘锦市,122.161314,41.236631,小刀电动车,辽宁省,无,小刀
2019-09-09,,大洼区,盘锦市,122.165499,40.886269,小刀电动车,辽宁省,无,小刀
2019-09-09,东郭大街北50米,盘山县,盘锦市,121.666762,41.182525,小刀电动车,辽宁省,无,小刀
2019-09-09,102省道东50米,盘山县,盘锦市,122.064227,41.290649,小刀电动车,辽宁省,无,小刀
2019-09-09,长白街北50米,大洼区,盘锦市,122.097311,40.782829,小刀电动车行,辽宁省,无,小刀
2019-09-09,榆海路东50米,大洼区,盘锦市,122.086383,40.853470,小刀电动车,辽宁省,无,小刀
2019-09-09,高升南路与高平街交叉口西150米,盘山县,盘锦市,122.204400,41.342576,小刀电动车,辽宁省,无,小刀
2019-09-09,太平镇阳光尚城南门,盘山县,盘锦市,121.978805,41.236936,小刀电动车(阳光尚城南门店),辽宁省,无,小刀
2019-09-09,育红路67号楼附近,双台子区,盘锦市,122.059923,41.192916,小刀电动车(育红路店),辽宁省,无,小刀
2019-09-09,田家镇林海景天商网4号楼,大洼区,盘锦市,122.071057,41.077376,小刀电动车,辽宁省,18742315742,小刀
2019-09-09,二界沟镇张章旅店(211省道西),大洼区,盘锦市,121.966641,40.807920,小刀电动车小叶专卖店,辽宁省,无,小刀
2019-09-09,中兴路与坝四线交叉口东北100米,盘山县,盘锦市,122.371690,41.144615,小刀电动车,辽宁省,无,小刀
2019-09-09,兴三街益天龙商厦西门,兴隆台区,盘锦市,122.070127,41.127172,小刀电动车(盘锦旗舰店),辽宁省,0427-3204343,小刀
2019-09-09,育红路101号,双台子区,盘锦市,122.060350,41.191751,小刀电动车(育红路),辽宁省,无,小刀
2019-09-09,东德线与二杨线交叉口西南50米附近,开原市,铁岭市,124.413274,42.827909,小刀电动车,辽宁省,无,小刀
2019-09-09,,昌图县,铁岭市,123.640816,42.756909,小刀电动车,辽宁省,无,小刀
2019-09-09,彰恒线八宝镇委八宝镇人民政府附近,开原市,铁岭市,123.921562,42.567372,志勇小刀电动车,辽宁省,无,小刀
2019-09-09,303省道北50米,开原市,铁岭市,123.866049,42.553858,小刀电动车,辽宁省,无,小刀
2019-09-09,毛国华家具家电商场(县道C22),开原市,铁岭市,123.873483,42.630381,小刀电动车,辽宁省,无,小刀
2019-09-09,105省道西50米,昌图县,铁岭市,124.047992,43.194686,小刀电动车,辽宁省,无,小刀
2019-09-09,开草线北50米,开原市,铁岭市,124.664965,42.368984,小刀电动车(李家台专卖店),辽宁省,无,小刀
2019-09-09,302省道东50米,昌图县,铁岭市,123.714882,42.628235,小刀电动车,辽宁省,无,小刀
2019-09-09,昌盛路120号,昌图县,铁岭市,124.111184,42.778094,小刀电动车,辽宁省,无,小刀
2019-09-09,105省道东50米,昌图县,铁岭市,123.870580,42.998130,小刀电动车(东嘎专卖店),辽宁省,13050804283,小刀
2019-09-09,两家子农场两家子镇街里邮政储蓄银行对面,昌图县,铁岭市,123.676208,42.684800,小刀电动车(两家子专卖店),辽宁省,无,小刀
2019-09-09,105省道东50米,昌图县,铁岭市,123.712219,42.804284,小刀电动车商行,辽宁省,无,小刀
2019-09-09,301省道南50米,西丰县,铁岭市,124.473316,42.716606,小刀电动车曲和经销部,辽宁省,13050845262,小刀
2019-09-09,开草线北50米,开原市,铁岭市,124.519821,42.471036,小刀电动车(八棵树专卖店),辽宁省,13008277912,小刀
2019-09-09,文化街31号,银州区,铁岭市,123.849714,42.286943,小刀电动车(文化街),辽宁省,13624901825,小刀
2019-09-09,调兵山街道铁秀路金都名苑,调兵山市,铁岭市,123.556550,42.458070,小刀电动车(金都名苑店),辽宁省,13214101618,小刀
2019-09-09,哈大路926附近,开原市,铁岭市,124.055502,42.536337,小刀电动车(汽配城东旺宜家东南),辽宁省,无,小刀
2019-09-09,汽配城电动车市场,开原市,铁岭市,124.054871,42.536112,小刀电动车(开原专卖店),辽宁省,无,小刀
2019-09-09,朝大线,朝阳县,朝阳市,120.052542,41.237032,小刀电动车,辽宁省,无,小刀
2019-09-09,木头城子镇,朝阳县,朝阳市,120.053126,41.357909,小刀电动车,辽宁省,无,小刀
2019-09-09,大四线与306国道交叉口西50米,凌源市,朝阳市,119.586489,41.046147,小刀电动车,辽宁省,无,小刀
2019-09-09,特优批发部(金张线西),建平县,朝阳市,119.342522,41.793491,小刀电动车,辽宁省,无,小刀
2019-09-09,208省道北50米,建平县,朝阳市,119.563039,41.704915,小刀电动车,辽宁省,无,小刀
2019-09-09,南大街62-7号,凌源市,朝阳市,119.404139,41.236538,小刀电动车(南大街店),辽宁省,无,小刀
2019-09-09,101国道南50米,龙城区,朝阳市,120.370107,41.546030,小刀电动车,辽宁省,无,小刀
2019-09-09,兴工路16-13号,建平县,朝阳市,119.638907,41.403941,小刀电动车,辽宁省,无,小刀
2019-09-09,羊山镇鞍羊线二医院西250米,朝阳县,朝阳市,120.368072,41.186400,小刀电动车,辽宁省,0421-8591822,小刀
2019-09-09,315省道西50米,凌源市,朝阳市,119.226143,40.963989,小刀电动车,辽宁省,无,小刀
2019-09-09,召都巴镇召都巴村,龙城区,朝阳市,120.401717,41.687646,小刀电动车,辽宁省,无,小刀
2019-09-09,光明街建设路23号,双塔区,朝阳市,120.443801,41.577932,小刀电动车(建设路店),辽宁省,无,小刀
2019-09-09,建设路23号,双塔区,朝阳市,120.459329,41.587661,小刀电动车(长青路),辽宁省,无,小刀
2019-09-09,拣闻线与羊洪线交叉口东150米,兴城市,葫芦岛市,120.544750,40.527433,小刀电动车,辽宁省,无,小刀
2019-09-09,塔山乡,连山区,葫芦岛市,120.940364,40.847093,小刀电动车,辽宁省,无,小刀
2019-09-09,喇龟线南50米,建昌县,葫芦岛市,119.335458,40.605476,小刀电动车老大丈子专卖店,辽宁省,无,小刀
2019-09-09,双树乡卫生院北200米龙港国土资源分局双树国土资源所附近,龙港区,葫芦岛市,120.792785,40.701461,小刀电动车,辽宁省,无,小刀
2019-09-09,杨南线与黑后线交叉口西北50米,建昌县,葫芦岛市,119.943549,40.723465,黑山科九辉小刀电动车专卖店,辽宁省,0429-7634777,小刀
2019-09-09,永宁街与西关街交叉口西150米,兴城市,葫芦岛市,120.706261,40.620995,小刀,辽宁省,无,小刀
2019-09-09,新华大街26-5附近,连山区,葫芦岛市,120.846678,40.749280,小刀电动车(新华大街30号小区东北),辽宁省,0429-2962777,小刀
2019-09-09,306国道南50米,绥中县,葫芦岛市,120.239872,40.381953,小刀电动车,辽宁省,无,小刀
2019-09-09,沙上线北50米,兴城市,葫芦岛市,120.274156,40.499744,小刀电动车,辽宁省,无,小刀
2019-09-09,五里河大桥,连山区,葫芦岛市,120.866643,40.872884,小刀电动车,辽宁省,无,小刀
2019-09-09,102国道东50米,绥中县,葫芦岛市,119.949896,40.098275,小刀电动车(前所镇人民政府东南),辽宁省,无,小刀
2019-09-09,红旗街三段16号,建昌县,葫芦岛市,119.800566,40.814599,小刀电动车(朝阳路店),辽宁省,0429-3751993,小刀
2019-09-09,东兴路49附近,兴城市,葫芦岛市,120.446304,40.365936,小刀电动车,辽宁省,无,小刀
2019-09-09,前卫镇政府东50米(前吕线南)(绥中县前卫镇初级中学附近),绥中县,葫芦岛市,120.105749,40.187217,小刀电动车(温和专卖),辽宁省,13410664141;13464371678,小刀
2019-09-09,西吊桥胡同与西水门沟胡同交叉口东100米,兴城市,葫芦岛市,120.711471,40.622135,小刀电动车(兴城旗舰店),辽宁省,无,小刀
2019-09-09,新兴街附近,绥中县,葫芦岛市,120.342038,40.327914,小刀电动车(广播电视楼西南),辽宁省,无,小刀
2019-09-09,西双阳大街156号附近,双阳区,长春市,125.670758,43.525351,小刀电动车,吉林省,无,小刀
2019-09-09,010县道北50米,农安县,长春市,124.807001,44.549357,小刀电动车,吉林省,无,小刀
2019-09-09,东四马路与大马路交叉口北50米,南关区,长春市,125.340281,43.896628,小刀电动车(大马路),吉林省,无,小刀
2019-09-09,和平路与新华街交叉口西南100米,德惠市,长春市,125.710818,44.538147,小刀电动车(德惠旗舰店),吉林省,15704475577,小刀
2019-09-09,站前路78附近,九台区,长春市,125.834297,44.153354,小刀电动车(站前路),吉林省,无,小刀
2019-09-09,新春街道大马路与五马路交汇469号,南关区,长春市,125.339986,43.898607,小刀电动车(大马路),吉林省,无,小刀
2019-09-09,西双阳大街1752号,双阳区,长春市,125.650719,43.522920,小刀电动车(双阳店),吉林省,无,小刀
2019-09-09,吉桦路2509号附近,永吉县,吉林市,126.497378,43.664688,小刀电动车,吉林省,无,小刀
2019-09-09,春阳小区西北80米(光明路东),桦甸市,吉林市,126.755468,42.967412,小刀电动车,吉林省,13324419292,小刀
2019-09-09,吉林大街318-5附近,船营区,吉林市,126.566531,43.856857,小刀电动车(吉林大街店),吉林省,无,小刀
2019-09-09,三道街596号附近,舒兰市,吉林市,126.951035,44.406710,小刀电动车,吉林省,15981289205,小刀
2019-09-09,福安路1169号,磐石市,吉林市,126.056479,42.946914,小刀电动车(福安路店),吉林省,0432-65258191,小刀
2019-09-09,蛟河大街18-16号,蛟河市,吉林市,127.347164,43.722766,小刀电动车蛟河旗舰店,吉林省,15844285440,小刀
2019-09-09,新市街212号附近,双辽市,四平市,123.507699,43.508268,小刀电动车,吉林省,无,小刀
2019-09-09,陶家一中,公主岭市,四平市,124.991576,43.645561,小刀电动车,吉林省,无,小刀
2019-09-09,延年大街与052县道交叉口东南50米,梨树县,四平市,124.245341,43.662678,小刀电动车,吉林省,无,小刀
2019-09-09,清源路西50米,公主岭市,四平市,125.081630,43.720079,小刀电动车,吉林省,无,小刀
2019-09-09,东胜利大街西100米,公主岭市,四平市,125.084230,43.718384,小刀电动车,吉林省,无,小刀
2019-09-09,西买卖大街64号,梨树县,四平市,124.331300,43.311134,尼科尼亚电动车小刀电动车,吉林省,0434-6918766,小刀
2019-09-09,光明路与国文大街交叉口东北150米,公主岭市,四平市,124.813845,43.499014,小刀电动车(国文大街),吉林省,无,小刀
2019-09-09,伊通镇中华西路福隆·时代广场北50米,伊通满族自治县,四平市,125.291660,43.343313,小刀电动车(中华西路店),吉林省,13614348359,小刀
2019-09-09,南一经街东(四平市天主教会西南200米),铁东区,四平市,124.379039,43.161129,小刀电动车(四平旗舰店),吉林省,0434-3368908,小刀
2019-09-09,辽河大路5516号附近,龙山区,辽源市,125.149916,42.895027,小刀双动力电动车,吉林省,无,小刀
2019-09-09,东风路2565号,东丰县,辽源市,125.541117,42.675361,小刀电动车,吉林省,无,小刀
2019-09-09,快大茂镇团结路1138号小刀电动车,通化县,通化市,125.765917,41.678851,小刀电动车(新开街),吉林省,13644354009,小刀
2019-09-09,建国街道大厦后北环,临江市,白山市,126.913184,41.810852,小刀电动车行,吉林省,无,小刀
2019-09-09,浑江大街315-6号,浑江区,白山市,126.404583,41.924349,小刀电动车,吉林省,无,小刀
2019-09-09,振瀛大路571号,扶余市,松原市,126.033652,44.984552,小刀电动车(振瀛大路店),吉林省,15143845600,小刀
2019-09-09,锦华路与长白北街交叉口东50米,大安市,白城市,124.283917,45.508079,子余车行,吉林省,无,小刀
2019-09-09,瞻榆镇中意大药房南,通榆县,白城市,122.657401,44.512483,小刀电动车,吉林省,无,小刀
2019-09-09,富文西路555号附近,洮南市,白城市,122.790083,45.343895,小刀电动车(鑫昌大卖场),吉林省,无,小刀
2019-09-09,长白西路266号附近,大安市,白城市,123.765362,45.586247,小刀电动车,吉林省,无,小刀
2019-09-09,团结东路326号附近,镇赉县,白城市,123.209484,45.851876,小刀电动车(胜利卫生院东北),吉林省,无,小刀
2019-09-09,富文东路与松辽北街交叉口东100米,洮南市,白城市,122.790019,45.343888,鑫昌大卖场(富文东路),吉林省,无,小刀
2019-09-09,繁荣大街2947号,通榆县,白城市,123.086437,44.805000,小刀电动车(繁荣南街),吉林省,0436-4224363;13180617775,小刀
2019-09-09,海明西路51-1号,洮北区,白城市,122.830028,45.613146,小刀电动车,吉林省,无,小刀
2019-09-09,福顺段西100米,洮南市,白城市,122.546793,45.515192,小刀电动车(小康东路),吉林省,无,小刀
2019-09-09,和和龙大街49-1号附近,和龙市,延边朝鲜族自治州,129.004289,42.542974,小刀电动车,吉林省,无,小刀
2019-09-09,进学街道局子街建材公寓东,延吉市,延边朝鲜族自治州,129.517589,42.906870,小刀电动车(国富商业步行街店),吉林省,13894315115,小刀
2019-09-09,,南岗区,哈尔滨市,126.610900,45.735032,小刀电动车,黑龙江省,无,小刀
2019-09-09,铁通公路75号附近,尚志市,哈尔滨市,127.987578,45.214653,小刀电动车,黑龙江省,无,小刀
2019-09-09,富锦街93-18号,道外区,哈尔滨市,126.647181,45.790521,小刀电动车(哈尔滨旗舰店),黑龙江省,0451-88936740;13603670305,小刀
2019-09-09,三宝公路福德隆超市向南50米,依兰县,哈尔滨市,130.112725,46.114621,小刀电动车,黑龙江省,15124699808;13654693673,小刀
2019-09-09,中经路71号附近,木兰县,哈尔滨市,127.871927,46.382251,小刀电动车,黑龙江省,无,小刀
2019-09-09,南直路南50米,巴彦县,哈尔滨市,127.403693,46.075509,小刀电动车(巴彦旗舰店),黑龙江省,无,小刀
2019-09-09,延川大街326号,阿城区,哈尔滨市,126.970180,45.532386,小刀电动车(工商街店),黑龙江省,13125919616,小刀
2019-09-09,北二道街116号,呼兰区,哈尔滨市,126.605369,45.989246,小刀电动车(呼兰区旗舰店),黑龙江省,0451-58830999,小刀
2019-09-09,香茗街6之5-6,香坊区,哈尔滨市,126.687622,45.730394,小刀电动车(香坊旗舰店),黑龙江省,18904512533,小刀
2019-09-09,康安路45-3号,道里区,哈尔滨市,126.604463,45.737475,小刀电动车(康安路店),黑龙江省,18745744555,小刀
2019-09-09,新华路62附近,富拉尔基区,齐齐哈尔市,123.646768,47.206813,小刀电动车,黑龙江省,无,小刀
2019-09-09,蒲峪大道444号附近,克东县,齐齐哈尔市,126.252610,48.038542,小刀电动车,黑龙江省,无,小刀
2019-09-09,人民街附近,拜泉县,齐齐哈尔市,126.086648,47.613258,小刀电动车,黑龙江省,无,小刀
2019-09-09,甘南镇文明大街甘南青少年活动中心,甘南县,齐齐哈尔市,123.505083,47.921314,小刀电动车,黑龙江省,无,小刀
2019-09-09,东市场小区33号楼1层,建华区,齐齐哈尔市,123.966056,47.350834,小刀电动车,黑龙江省,13945225693,小刀
2019-09-09,育才街109号,讷河市,齐齐哈尔市,124.876943,48.482236,小刀电动车(育才街店),黑龙江省,无,小刀
2019-09-09,密山镇光复街247号,密山市,鸡西市,131.874051,45.549550,小刀双动力电动车,黑龙江省,0467-8166699,小刀
2019-09-09,解放西街180号附近,虎林市,鸡西市,132.971135,45.766581,小岛电动车行,黑龙江省,0467-5829900;15604876287,小刀
2019-09-09,312省道附近,绥滨县,鹤岗市,131.850364,47.548994,小刀电动车,黑龙江省,无,小刀
2019-09-09,公园路与和平大街交叉口西南50米,绥滨县,鹤岗市,131.691357,47.523371,小刀双动力电动车,黑龙江省,无,小刀
2019-09-09,绥滨镇振兴大街顺达驾校东北100米,绥滨县,鹤岗市,131.866652,47.291019,小刀电动车(振兴大街店),黑龙江省,15246811144,小刀
2019-09-09,一道街90号附近,让胡路区,大庆市,124.791292,46.701075,小刀电动车,黑龙江省,无,小刀
2019-09-09,同乐商服9号门,大同区,大庆市,124.830059,46.034657,小刀电动车,黑龙江省,无,小刀
2019-09-09,乘风大街584-15号,让胡路区,大庆市,124.878757,46.565722,小刀电动车,黑龙江省,0459-5276166,小刀
2019-09-09,中央大街547号附近,肇源县,大庆市,125.084084,45.528582,小刀电动车(中央大街店),黑龙江省,13206853908,小刀
2019-09-09,西苑街249号附近,让胡路区,大庆市,124.856856,46.632644,小刀电动车(西苑街),黑龙江省,无,小刀
2019-09-09,东环北路与德明街交叉口东南150米,肇州县,大庆市,125.284964,45.710538,小刀电动车(民政局北),黑龙江省,0459-8520453;13836779567,小刀
2019-09-09,旭日街道伊春区客动站西100米(如家酒店北40米)戏曲剧院对过,伊春区,伊春市,128.911554,47.728171,小刀电动车,黑龙江省,无,小刀
2019-09-09,建设街与满洲龙路交叉口西北150米,嘉荫县,伊春市,130.396548,48.889121,小刀电动车(嘉荫店),黑龙江省,18945451577,小刀
2019-09-09,307省道南50米,桦南县,佳木斯市,130.223232,46.350363,小刀电动车专卖店,黑龙江省,0454-6716678,小刀
2019-09-09,中央大街348-1号附近,富锦市,佳木斯市,132.630765,47.254095,小刀电动车,黑龙江省,无,小刀
2019-09-09,307省道北50米,桦南县,佳木斯市,130.220555,46.349963,小刀电动车&追风鸟电动车(土龙分店),黑龙江省,无,小刀
2019-09-09,008乡道与212县道交叉口西100米,桦南县,佳木斯市,130.225663,46.351397,宗申机车&小刀电动车,黑龙江省,0454-6716678,小刀
2019-09-09,中央大街580号,富锦市,佳木斯市,132.031076,47.247552,小刀电动车,黑龙江省,无,小刀
2019-09-09,长安路563号,向阳区,佳木斯市,130.350300,46.807155,小刀电动车,黑龙江省,无,小刀
2019-09-09,,东宁市,牡丹江市,131.130551,44.060792,小刀电动车,黑龙江省,无,小刀
2019-09-09,永乐巷东100米,宁安市,牡丹江市,129.481192,44.349748,小刀电动车电动车修理部,黑龙江省,13091842777,小刀
2019-09-09,英雄街78号附近,海林市,牡丹江市,129.391483,44.568994,小刀电动车(英雄街店),黑龙江省,无,小刀
2019-09-09,胜利街与英雄街交叉口西100米,海林市,牡丹江市,129.391534,44.568997,小山东电动车行(英雄街店),黑龙江省,无,小刀
2019-09-09,一道街电子城,北安市,黑河市,126.515526,48.240002,小刀电动车,黑龙江省,无,小刀
2019-09-09,福民大街与繁华路交叉口西北100米,嫩江市,黑河市,125.226248,49.178506,小刀电动车,黑龙江省,无,小刀
2019-09-09,中直北路166号附近,北林区,绥化市,126.987226,46.642397,小刀电动车,黑龙江省,无,小刀
2019-09-09,北二街与202国道交叉口东南100米,明水县,绥化市,125.902214,47.181294,小刀电动车(明珠花园小区西北),黑龙江省,15636559001,小刀
2019-09-09,北横街243号,安达市,绥化市,125.328527,46.411584,小刀电动车,黑龙江省,无,小刀
2019-09-09,奋斗路56号附近,望奎县,绥化市,126.483733,46.829877,小刀,黑龙江省,无,小刀
2019-09-09,青冈县政府街与长江北路交叉口东100米,青冈县,绥化市,126.103126,46.688578,小刀电动车,黑龙江省,18697020676,小刀
2019-09-09,东城路与繁荣大街交叉口西50米,绥棱县,绥化市,127.123060,47.241714,小刀电动车(绥棱专卖店),黑龙江省,无,小刀
2019-09-09,四明南路中国银行东南50米,肇东市,绥化市,125.997506,46.070270,小刀电动车(四明南路店),黑龙江省,无,小刀
2019-09-09,麻城大道南50米,兰西县,绥化市,126.282891,46.259003,小刀电动车(西环路),黑龙江省,无,小刀
2019-09-09,大盈路412号附近,青浦区,上海市,121.091319,31.213806,小刀电动车,上海市,无,小刀
2019-09-09,一二八纪念路603号附近,宝山区,上海市,121.454921,31.327033,小刀电动车,上海市,无,小刀
2019-09-09,三林镇板泉路2137号,浦东新区,上海市,121.532855,31.167300,小刀电动车,上海市,无,小刀
2019-09-09,新昌里昌里东路365号,浦东新区,上海市,121.512089,31.177430,小刀电动车,上海市,无,小刀
2019-09-09,南桥镇江海路271号,奉贤区,上海市,121.458501,30.905900,小刀电动车,上海市,无,小刀
2019-09-09,惠南镇南芦公路38弄4号,浦东新区,上海市,121.714653,31.031902,小刀电动车,上海市,无,小刀
2019-09-09,方塔北路与方塔南路交叉口东北50米,松江区,上海市,121.248575,31.007327,小刀电动车,上海市,无,小刀
2019-09-09,北翟路1552号(豪爵车行),闵行区,上海市,121.339381,31.224251,小刀电动车,上海市,无,小刀
2019-09-09,眉州支路与眉州路交叉口西北50米,杨浦区,上海市,121.529647,31.268972,小刀电动车(眉州路店),上海市,13918765125,小刀
2019-09-09,赵巷镇镇泽路389号,青浦区,上海市,121.191448,31.158387,小刀电动车,上海市,15901702360,小刀
2019-09-09,文涵路158号,松江区,上海市,121.188457,31.027023,小刀电动车,上海市,无,小刀
2019-09-09,光明路168-170号附近,奉贤区,上海市,121.518713,30.906787,小刀电动车,上海市,无,小刀
2019-09-09,川周公路与芙蓉路交叉口北50米,浦东新区,上海市,121.669424,31.163046,小刀电动车,上海市,无,小刀
2019-09-09,高境镇一二八纪念路217号,宝山区,上海市,121.461926,31.327174,小刀电动车,上海市,无,小刀
2019-09-09,北青公路4645号附近,青浦区,上海市,121.231655,31.195544,小刀电动车,上海市,无,小刀
2019-09-09,莘北路121-8号附近,闵行区,上海市,121.373198,31.113842,小刀电动车,上海市,无,小刀
2019-09-09,新桥路737号,青浦区,上海市,121.102291,31.213193,小刀电动车,上海市,无,小刀
2019-09-09,川沙路2901号,浦东新区,上海市,121.687428,31.230235,小刀电动车,上海市,无,小刀
2019-09-09,川环南路与曙光路交叉口东150米,浦东新区,上海市,121.710407,31.189578,小刀电动车,上海市,无,小刀
2019-09-09,外冈镇外青镇外青松公路128号,嘉定区,上海市,121.174379,31.360582,小刀电动车,上海市,无,小刀
2019-09-09,大团镇永春南路158号,浦东新区,上海市,121.738438,30.966196,小刀电动车,上海市,无,小刀
2019-09-09,浦江镇闸航路2812号,闵行区,上海市,121.529790,31.019900,小刀车行,上海市,15921239246,小刀
2019-09-09,古龙路与龙茗路交叉口西北50米,闵行区,上海市,121.384330,31.145429,小刀电动车,上海市,无,小刀
2019-09-09,乐都路419号-8,松江区,上海市,121.219956,31.013162,小刀电动车,上海市,无,小刀
2019-09-09,南芦公路35附近,浦东新区,上海市,121.714682,31.031985,爱玛小刀电动车旗舰店,上海市,无,小刀
2019-09-09,桂林路634号-1,徐汇区,上海市,121.414199,31.180219,小刀电动车(桂林路店),上海市,无,小刀
2019-09-09,康兴路40号,金山区,上海市,121.181726,30.827871,小刀电动车(吕巷店),上海市,无,小刀
2019-09-09,罗星南路571号,金山区,上海市,121.169254,30.890321,小刀电动车,上海市,无,小刀
2019-09-09,杨桃路191号,宝山区,上海市,121.438731,31.372138,小刀电动车,上海市,15021240247,小刀
2019-09-09,江学路40号,松江区,上海市,121.214790,31.037844,小刀电动车富贵车业连锁,上海市,无,小刀
2019-09-09,沪太路1030-3号附近,普陀区,上海市,121.431089,31.272882,小刀电动车,上海市,13040647998;13072165104,小刀
2019-09-09,清河路416号1室,嘉定区,上海市,121.235627,31.377492,小刀电动车,上海市,无,小刀
2019-09-09,北松公路1558附近,闵行区,上海市,121.374487,31.030827,小刀电动车,上海市,15900639208,小刀
2019-09-09,岳州路与舟山路交叉口北50米,虹口区,上海市,121.502412,31.260418,小刀电动车,上海市,13816124601,小刀
2019-09-09,军民公路18-20号附近,浦东新区,上海市,121.632686,31.178496,小刀电动车,上海市,021-58954427,小刀
2019-09-09,南桥立新路与新建中路交叉口西北50米,奉贤区,上海市,121.458960,30.917333,小刀电动车,上海市,无,小刀
2019-09-09,三泉路1318号附近,宝山区,上海市,121.440523,31.323202,上海小刀电动车专卖,上海市,无,小刀
2019-09-09,祝桥镇施新路551弄11号,浦东新区,上海市,121.751065,31.146711,小刀电动车,上海市,13020231767,小刀
2019-09-09,三林镇上南路5600号喜地农贸市场对面,浦东新区,上海市,121.526669,31.126679,小刀电动车,上海市,021-68415077,小刀
2019-09-09,北蔡镇顾全路381号,浦东新区,上海市,121.539623,31.171615,上海富家保健按摩有限公司富家车行小刀电动车,上海市,13761716814,小刀
2019-09-09,南祝路5129号附近(腾飞车行),浦东新区,上海市,121.757073,31.111178,小刀电动车,上海市,13020115269,小刀
2019-09-09,南芦公路19弄1号-5,浦东新区,上海市,121.715166,31.033442,小刀电动车,上海市,无,小刀
2019-09-09,九亭镇沪松公路1524号,松江区,上海市,121.314021,31.136181,小刀电动车,上海市,无,小刀
2019-09-09,场中路与沽源支路交叉口东南50米,虹口区,上海市,121.474724,31.306681,小刀电动车,上海市,13916782855,小刀
2019-09-09,惠东路539号,浦东新区,上海市,121.773061,31.043819,小刀电动车,上海市,无,小刀
2019-09-09,桃浦镇红棉路299号,普陀区,上海市,121.350782,31.282511,小牛电动车行,上海市,无,小刀
2019-09-09,曹路镇川沙路455号,浦东新区,上海市,121.669074,31.276816,小刀电动车,上海市,无,小刀
2019-09-09,桃浦路1154-1156号附近,普陀区,上海市,121.379965,31.261379,小刀电动车,上海市,无,小刀
2019-09-09,MNAIL日式美甲美睫(常徳路店)常德路649号,静安区,上海市,121.444596,31.231542,小刀电动车,上海市,无,小刀
2019-09-09,华漕镇华江公路1309号,闵行区,上海市,121.326757,31.227840,小刀电动车,上海市,无,小刀
2019-09-09,浦江镇浦连路360号,闵行区,上海市,121.538306,31.054853,小刀电动车,上海市,无,小刀
2019-09-09,六灶镇南六公路1191号,浦东新区,上海市,121.705415,31.105541,小刀电动车,上海市,13816984437,小刀
2019-09-09,哈密路480号,长宁区,上海市,121.373529,31.210484,小刀电动车专卖店,上海市,13764232092,小刀
2019-09-09,凤滨路599号附近,崇明区,上海市,121.680989,31.391837,小刀电动车(凤滨路店),上海市,无,小刀
2019-09-09,松汇中路与谷阳南路交叉口东50米,松江区,上海市,121.237305,31.002898,小刀电动车(松汇中路店),上海市,无,小刀
2019-09-09,桃浦镇红棉路108号,普陀区,上海市,121.350418,31.279161,小刀电动车(红棉路店),上海市,18321000051;18321000052,小刀
2019-09-09,南城路航星KTV南50米,浦东新区,上海市,121.597144,31.027452,小刀电动车,上海市,13162498655,小刀
2019-09-09,张弄村476号对面,奉贤区,上海市,121.522503,30.905796,小万车行(张弄中心路),上海市,无,小刀
2019-09-09,周浦镇建设南路12号,浦东新区,上海市,121.654785,31.105991,小刀电动车专卖(建设路),上海市,18616258626;18616250626,小刀
2019-09-09,彭丰路与浦港路交叉口西100米,松江区,上海市,121.149669,31.006298,小刀电动车,上海市,无,小刀
2019-09-09,亭前街与罗升路交叉口南100米,宝山区,上海市,121.343380,31.411718,小刀电动车(罗升路店),上海市,无,小刀
2019-09-09,华新镇上海上海青浦新府路119号,青浦区,上海市,121.226421,31.242789,小刀电动车,上海市,021-59795830;18016387183,小刀
2019-09-09,福中路与重固镇大街交叉口西北50米,青浦区,上海市,121.181034,31.198494,小刀电动车,上海市,无,小刀
2019-09-09,顾曹公路588号,浦东新区,上海市,121.664509,31.292377,小刀电动车,上海市,18221063913;13162091802,小刀
2019-09-09,宣桥镇亦园路74弄60-62号,浦东新区,上海市,121.713785,31.069755,小刀电动车,上海市,无,小刀
2019-09-09,大统路867号,静安区,上海市,121.459423,31.253553,小刀电动车(大统路店),上海市,13818506735,小刀
2019-09-09,高东镇杨园镇南路4号,浦东新区,上海市,121.633951,31.304810,小刀电动车(镇南路店),上海市,无,小刀
2019-09-09,高桥镇张杨北路5368号,浦东新区,上海市,121.576802,31.341280,小刀电动车(张杨北路店),上海市,无,小刀
2019-09-09,真如镇街道真光路1860号,普陀区,上海市,121.385865,31.253731,小吴车行(真光路),上海市,15618666068,小刀
2019-09-09,锦秋路1466-1470号,宝山区,上海市,121.376597,31.317889,小刀电动车(瑞丰路),上海市,无,小刀
2019-09-09,高科西路2861号附近,浦东新区,上海市,121.557334,31.189174,小吕车行(高科西路店),上海市,无,小刀
2019-09-09,凤滨路889号附近,崇明区,上海市,121.673548,31.393354,小刀电动车(凤滨路),上海市,无,小刀
2019-09-09,陈川路216-1号,宝山区,上海市,121.339356,31.479000,小刀电动车(陈川路店),上海市,13651682254,小刀
2019-09-09,安亭镇方泰嘉松北路4155号,嘉定区,上海市,121.215920,31.320510,小刀电动车(嘉松北路),上海市,无,小刀
2019-09-09,新场镇沪南公路7244号,浦东新区,上海市,121.643071,31.027476,小刀电动车(新场店),上海市,无,小刀
2019-09-09,南桥镇南奉公路9292号,奉贤区,上海市,121.466577,30.912848,小刀电动车(南奉公路),上海市,无,小刀
2019-09-09,泗泾镇横港路655号,松江区,上海市,121.263330,31.106744,小刀电动车,上海市,无,小刀
2019-09-09,石化学府路701号,金山区,上海市,121.322056,30.729529,小刀电动车,上海市,无,小刀
2019-09-09,赵重公路3046号,青浦区,上海市,121.185174,31.201675,小刀电动车,上海市,无,小刀
2019-09-09,德华路709号附近,嘉定区,上海市,121.306269,31.291733,小刀电动车,上海市,无,小刀
2019-09-09,华富街44号,青浦区,上海市,121.234433,31.244674,小刀电动车,上海市,无,小刀
2019-09-09,隆昌路211号,杨浦区,上海市,121.548636,31.269324,小刀电动车,上海市,无,小刀
2019-09-09,鹤沙路736号,浦东新区,上海市,121.589597,31.081709,建茂车行·小刀电动车,上海市,13564798321,小刀
2019-09-09,幕府西路99-6号附近,鼓楼区,南京市,118.765284,32.099934,小刀电动车,江苏省,无,小刀
2019-09-09,东月桥路,江宁区,南京市,118.940507,31.937308,小刀电动车,江苏省,无,小刀
2019-09-09,钱仓路66西60米,六合区,南京市,118.900367,32.352654,小刀电动车,江苏省,无,小刀
2019-09-09,新大街32附近,六合区,南京市,118.993900,32.269556,小刀电动车,江苏省,无,小刀
2019-09-09,崇文街13号附近,江宁区,南京市,118.720539,31.639144,小刀电动车,江苏省,无,小刀
2019-09-09,中山北路409-2附近,鼓楼区,南京市,118.749913,32.086144,小刀电动车,江苏省,无,小刀
2019-09-09,小行路26-3号附近,雨花台区,南京市,118.756659,31.989666,小刀电动车,江苏省,无,小刀
2019-09-09,南卫巷12号103室附近,秦淮区,南京市,118.769619,32.037806,小刀电动车,江苏省,无,小刀
2019-09-09,庐山路与怡康街交叉口东北150米,建邺区,南京市,118.743139,32.017326,小刀电动车,江苏省,无,小刀
2019-09-09,横云北路83号,江宁区,南京市,118.781569,31.715118,小刀电动车,江苏省,18115476880,小刀
2019-09-09,六冶南路与青龙西街交叉口西南50米,六合区,南京市,118.934369,32.420975,小刀电动车,江苏省,无,小刀
2019-09-09,大东门街100附近,溧水区,南京市,119.027921,31.652050,小刀电动车,江苏省,无,小刀
2019-09-09,南湖路与水西门大街交叉口北50米,建邺区,南京市,118.757500,32.032994,小刀电动车,江苏省,无,小刀
2019-09-09,滨江大道1号明发滨江新城252栋夏飞车行,浦口区,南京市,118.744698,32.133671,小刀电动车,江苏省,无,小刀
2019-09-09,金沙江东街33号,建邺区,南京市,118.719051,31.980434,小刀电动车,江苏省,无,小刀
2019-09-09,南华巷与蓝旗街交叉口东50米,秦淮区,南京市,118.820866,32.026136,小刀电动车,江苏省,无,小刀
2019-09-09,文鼎广场友好前程大酒店对面,江宁区,南京市,118.900631,31.913632,小刀电动车,江苏省,15950508936,小刀
2019-09-09,上元大街顺达佳苑619号,江宁区,南京市,118.850311,31.955616,小刀电动车(上元大街店),江苏省,无,小刀
2019-09-09,雨花西路222号-19,雨花台区,南京市,118.766150,31.997437,小刀电动车,江苏省,17701581792,小刀
2019-09-09,尧辰路3号东城世家,栖霞区,南京市,118.884483,32.125193,小刀电动车(尧辰路店),江苏省,无,小刀
2019-09-09,珠泉路6幢3号附近,浦口区,南京市,118.636763,32.059137,小刀电动车,江苏省,无,小刀
2019-09-09,寅春路130号附近,栖霞区,南京市,118.844249,32.123008,小刀电动车,江苏省,无,小刀
2019-09-09,仙林大道118号尚东商业街A-1室,栖霞区,南京市,118.927294,32.095287,小刀电动车,江苏省,无,小刀
2019-09-09,河滨西路南50米,高淳区,南京市,119.064280,31.295895,小刀电动车,江苏省,无,小刀
2019-09-09,X103(金航路),江宁区,南京市,118.890511,31.720450,小刀电动车,江苏省,无,小刀
2019-09-09,永宁东街59号附近,高淳区,南京市,119.168137,31.368188,小刀双动力电动车,江苏省,无,小刀
2019-09-09,义乌小商品城B区12栋,江宁区,南京市,118.878190,31.937146,小刀电动车,江苏省,13222726858,小刀
2019-09-09,滨江开发区景明北大街10009号栖风路79-5号小刀电动车,江宁区,南京市,118.590661,31.853664,小刀电动车,江苏省,无,小刀
2019-09-09,通池路57,六合区,南京市,118.807921,32.331610,小刀电动车,江苏省,无,小刀
2019-09-09,下谢路国家地质公园瓜埠山景区北,六合区,南京市,118.895805,32.254555,小刀电动车,江苏省,15851884972,小刀
2019-09-09,东虹街与郁林街交叉口东南100米,江宁区,南京市,118.638099,31.787710,小刀电动车(陆郎专卖店),江苏省,15161471802,小刀
2019-09-09,孙中路与宁桥北路交叉口东北50米,雨花台区,南京市,118.622233,31.890101,小刀电动车,江苏省,无,小刀
2019-09-09,金盛路299号天地新城天柱座3栋1单元,江宁区,南京市,118.828537,31.974382,小刀电动车,江苏省,无,小刀
2019-09-09,金地自在城四期7幢103,雨花台区,南京市,118.665172,31.904150,小刀电动车(金地自在城店),江苏省,无,小刀
2019-09-09,中心河路与皇厂河路交叉口东100米,六合区,南京市,118.871795,32.235726,小刀电动车,江苏省,无,小刀
2019-09-09,四方新村三村1幢,秦淮区,南京市,118.840187,32.018710,小刀电动车工厂直营店,江苏省,无,小刀
2019-09-09,春江新城升景坊41栋108号,雨花台区,南京市,118.745529,31.960878,小刀电动车,江苏省,无,小刀
2019-09-09,仙鹤门鹤鸣路52-15号,玄武区,南京市,118.902984,32.087310,小刀电动车,江苏省,无,小刀
2019-09-09,节制闸路,秦淮区,南京市,118.800448,32.015478,小刀电动车（节制闸路店）,江苏省,无,小刀
2019-09-09,乌江路128号附近,浦口区,南京市,118.468480,31.864707,小刀电动车,江苏省,无,小刀
2019-09-09,百水桥路西50米,栖霞区,南京市,118.906476,32.049411,小刀电动车,江苏省,15850513900,小刀
2019-09-09,朝阳路16幢附近,栖霞区,南京市,119.006143,32.143290,小刀电动车,江苏省,无,小刀
2019-09-09,新篁社区新篁东路163号,六合区,南京市,118.948661,32.374726,小刀电动车,江苏省,无,小刀
2019-09-09,学森路10-45号附近,栖霞区,南京市,118.978519,32.126584,小刀电动车,江苏省,无,小刀
2019-09-09,御史路2号附近,六合区,南京市,118.810241,32.535812,小刀电动车,江苏省,无,小刀
2019-09-09,永阳镇宝塔路宝城名苑10幢(门面房),溧水区,南京市,119.022076,31.661600,小刀电动车,江苏省,无,小刀
2019-09-09,湖景路北50米,雨花台区,南京市,118.645625,31.908259,小刀电动车,江苏省,15251884258,小刀
2019-09-09,永阳镇中山路金盛花园14-2号,溧水区,南京市,119.028577,31.648384,小刀电动车,江苏省,025-57204878,小刀
2019-09-09,东山街道南方花园枫彩园12栋106室门面,江宁区,南京市,118.821935,31.960642,小刀电动车,江苏省,无,小刀
2019-09-09,中驰路192号附近,江宁区,南京市,118.813001,31.958319,小刀电动车,江苏省,无,小刀
2019-09-09,永阳镇珍珠南路广成新天地1-115,溧水区,南京市,119.033775,31.641912,小刀电动车,江苏省,无,小刀
2019-09-09,金山路166号,江宁区,南京市,118.841622,31.936085,小刀电动车,江苏省,无,小刀
2019-09-09,江浦街道上河街新理想佳园附近,浦口区,南京市,118.630657,32.053429,小刀电动车(上河街店),江苏省,13182929213,小刀
2019-09-09,月牙湖街道后标营50-10邻,秦淮区,南京市,118.824895,32.030945,小刀电动车,江苏省,025-84868115,小刀
2019-09-09,宁芜公路93-27号附近,雨花台区,南京市,118.721403,31.963774,小刀电动车,江苏省,无,小刀
2019-09-09,栖霞街道红枫街小刀电动15一16,栖霞区,南京市,118.945420,32.136542,小刀电动车,江苏省,无,小刀
2019-09-09,泰山路160号-6号,六合区,南京市,118.850614,32.340134,小刀电动车(六合专卖店),江苏省,025-57127265;025-57132206,小刀
2019-09-09,永阳镇青年路澳华9栋117号,溧水区,南京市,119.037065,31.647896,小刀专卖店,江苏省,无,小刀
2019-09-09,集庆门大街1号1附近,建邺区,南京市,118.765617,32.019640,小刀电动车专卖店,江苏省,13770552738,小刀
2019-09-09,新石路32号附近,浦口区,南京市,118.419546,31.935929,小刀专卖,江苏省,无,小刀
2019-09-09,交通路65-13号,溧水区,南京市,119.034075,31.658465,小刀电动车(交通路),江苏省,18795820361,小刀
2019-09-09,漆桥镇双牌石新港东路183号,高淳区,南京市,118.998934,31.386570,小刀电动车(新港路),江苏省,025-57851194;13813063828,小刀
2019-09-09,九龙山路与桃园北路交叉口西北150米,高淳区,南京市,118.939402,31.358867,小刀双动力电动车(桃园北路店),江苏省,无,小刀
2019-09-09,河城大街35号(近河城路),高淳区,南京市,118.931778,31.330813,小刀电动车(河城路),江苏省,13776536242,小刀
2019-09-09,东湖路与赤虎山路交叉口东北50米,溧水区,南京市,119.108696,31.694338,小刀电动车(赤虎山路店),江苏省,无,小刀
2019-09-09,浦乌路与珍珠街交叉口东北150米,浦口区,南京市,118.684028,32.115214,小刀电动车(浦乌路店),江苏省,无,小刀
2019-09-09,新马路333-1号附近,浦口区,南京市,118.697219,32.113219,小刀双动力电动车(点将台路店),江苏省,15951849554,小刀
2019-09-09,土桥镇桂园南路155号,江宁区,南京市,119.062381,31.932012,小刀电动车,江苏省,无,小刀
2019-09-09,东湖路与学府路交叉口西北50米,溧水区,南京市,119.116214,31.699831,小刀电动车,江苏省,无,小刀
2019-09-09,育才西路与123省道交叉口东南50米,高淳区,南京市,118.967829,31.305550,小刀电动车(育才西路),江苏省,无,小刀
2019-09-09,文德西路8-1-2,浦口区,南京市,118.623529,32.054102,小刀电动车(金珠花苑东北),江苏省,无,小刀
2019-09-09,桥林街道祈福花园17号,浦口区,南京市,118.533848,31.943162,小刀电动车(祈福花园店),江苏省,无,小刀
2019-09-09,洪蓝镇金牛北路58号,溧水区,南京市,118.988499,31.608557,小刀电动车(洪蓝医院北),江苏省,13952083807,小刀
2019-09-09,辅机路新建公寓旁边,雨花台区,南京市,118.643131,31.900701,小刀电动车(绿洲路店),江苏省,无,小刀
2019-09-09,清江路46号-10,鼓楼区,南京市,118.730678,32.041686,小刀电动车(清江路店),江苏省,无,小刀
2019-09-09,所街85号,建邺区,南京市,118.754411,32.018421,小刀电动车(所街),江苏省,15951853144,小刀
2019-09-09,西善桥北路交通二期8号,雨花台区,南京市,118.718531,31.959829,小刀电动车,江苏省,17368588618,小刀
2019-09-09,瓜埠镇农贸市场,六合区,南京市,118.890767,32.246406,小刀电动车(瓜埠专卖店),江苏省,15190469662,小刀
2019-09-09,泰山路37号,六合区,南京市,118.846154,32.341695,小刀电动车(六和旗舰店),江苏省,无,小刀
2019-09-09,上坝街与小学路交叉口东北100米,栖霞区,南京市,119.193126,32.208163,小刀电动车,江苏省,025-85733102,小刀
2019-09-09,淳溪镇宝塔路152号,高淳区,南京市,118.880699,31.324235,小刀电动车(宝塔路),江苏省,无,小刀
2019-09-09,吉泉北路与汤农路交叉口东50米,浦口区,南京市,118.510428,32.091619,小刀电动车(汤农路店),江苏省,无,小刀
2019-09-09,兴镇路336号,六合区,南京市,118.938034,32.322799,小刀电动车(兴镇路),江苏省,无,小刀
2019-09-09,东升路与花园街交叉口东北100米,栖霞区,南京市,119.082235,32.203133,小刀电动车(花园街),江苏省,无,小刀
2019-09-09,303县道东50米,江宁区,南京市,119.083325,32.002543,小刀电动车(上峰专卖店),江苏省,13376053223,小刀
2019-09-09,汤龙路58号,江宁区,南京市,119.061417,32.058979,小刀电动车(汤山专卖店),江苏省,13675199540,小刀
2019-09-09,冶东线与冶竹线交叉口东南200米,六合区,南京市,118.920074,32.510806,小刀电动车(四合专卖店),江苏省,13814190290,小刀
2019-09-09,振兴路与青年路交叉口东50米,雨花台区,南京市,118.650177,31.922364,小刀电动车,江苏省,无,小刀
2019-09-09,苏州路18-7号,鼓楼区,南京市,118.769358,32.057200,小刀电动车,江苏省,无,小刀
2019-09-09,龙蟠中路480号-1,秦淮区,南京市,118.798341,32.015486,小刀电动车（龙蟠中路直营店）,江苏省,无,小刀
2019-09-09,友谊河路与梅家廊路交叉口西北100米,秦淮区,南京市,118.849018,32.000828,小刀电动车(友谊河路),江苏省,13813091947,小刀
2019-09-09,长山街道107号-10,六合区,南京市,118.890206,32.402243,小刀电动车(长平路),江苏省,无,小刀
2019-09-09,,惠山区,无锡市,120.291995,31.685162,小刀电动车,江苏省,无,小刀
2019-09-09,,锡山区,无锡市,120.502355,31.567987,小刀电动车,江苏省,无,小刀
2019-09-09,,锡山区,无锡市,120.547075,31.617187,小刀电动车,江苏省,无,小刀
2019-09-09,,新吴区,无锡市,120.502815,31.523162,小刀电动车,江苏省,无,小刀
2019-09-09,,惠山区,无锡市,120.222074,31.650038,小刀电动车,江苏省,无,小刀
2019-09-09,,宜兴市,无锡市,119.715812,31.492933,小刀电动车,江苏省,无,小刀
2019-09-09,,宜兴市,无锡市,119.751467,31.452405,小刀电动车,江苏省,无,小刀
2019-09-09,二泉东路222附近,锡山区,无锡市,120.369897,31.588698,小刀电动车,江苏省,无,小刀
2019-09-09,梁溪区江海西路辅路,梁溪区,无锡市,120.299182,31.606120,小刀电动车,江苏省,0510-83128689,小刀
2019-09-09,春惠路318号附近,惠山区,无锡市,120.353291,31.675623,小刀电动车,江苏省,无,小刀
2019-09-09,月城镇南环路9号,江阴市,无锡市,120.227174,31.801674,小刀电动车,江苏省,18360802156,小刀
2019-09-09,璜土镇石庄新颜路97号,江阴市,无锡市,120.026203,31.922897,小刀电动车石庄店,江苏省,无,小刀
2019-09-09,芙蓉路227号,江阴市,无锡市,120.309872,31.918625,小刀电动车(锦隆店),江苏省,无,小刀
2019-09-09,山水西路西50米,滨湖区,无锡市,120.247712,31.499742,小刀电动车,江苏省,无,小刀
2019-09-09,芙蓉北路3号附近,锡山区,无锡市,120.386065,31.646446,小刀电动车,江苏省,无,小刀
2019-09-09,X302(堰玉东路),惠山区,无锡市,120.281428,31.689810,小刀电动车,江苏省,无,小刀
2019-09-09,河塘新村72号,江阴市,无锡市,120.457638,31.722907,小刀电动车(河塘新村店),江苏省,无,小刀
2019-09-09,泰伯大道北50米,新吴区,无锡市,120.437915,31.543939,小刀电动车,江苏省,无,小刀
2019-09-09,水澄路阳光一百北区509-5号,惠山区,无锡市,120.284549,31.643926,小刀电动车,江苏省,无,小刀
2019-09-09,锡宅路与鸿山路交叉口东150米,新吴区,无锡市,120.498908,31.482837,小刀电动车,江苏省,无,小刀
2019-09-09,梁溪区黄巷街道蔚蓝路1号,滨湖区,无锡市,120.282600,31.530635,小刀电动车专卖店,江苏省,18306181898,小刀
2019-09-09,商城南路与锡沙路交叉口南50米,锡山区,无锡市,120.442201,31.660329,小刀电动车,江苏省,无,小刀
2019-09-09,学前东路165号,梁溪区,无锡市,120.314600,31.573152,小刀电动车,江苏省,无,小刀
2019-09-09,大通路120附近,滨湖区,无锡市,120.329683,31.511642,小刀电动车(旺安佳园店),江苏省,无,小刀
2019-09-09,望山路与蠡夏路交叉口东南50米,滨湖区,无锡市,120.267484,31.532746,小刀电动车,江苏省,无,小刀
2019-09-09,华杨南路119号附近,宜兴市,无锡市,119.589854,31.175490,小刀电动车,江苏省,无,小刀
2019-09-09,杨巷镇新芳街新西路90号建强车行,宜兴市,无锡市,119.634672,31.520760,小刀电动车,江苏省,无,小刀
2019-09-09,镇澄路419号附近,江阴市,无锡市,120.215217,31.894558,小刀电动车,江苏省,无,小刀
2019-09-09,通江南路18-1附近,江阴市,无锡市,120.257978,31.899939,小刀电动车,江苏省,13771250263,小刀
2019-09-09,第一岗茂业百货,新吴区,无锡市,120.359343,31.543104,小刀电动车,江苏省,无,小刀
2019-09-09,锡沪路东亭中段63号,锡山区,无锡市,120.359634,31.583516,小刀电动车,江苏省,13601514963,小刀
2019-09-09,乐山路12附近,滨湖区,无锡市,120.117246,31.461566,小刀电动车马山专卖店,江苏省,13003315859,小刀
2019-09-09,春风路225号附近,锡山区,无锡市,120.418640,31.602700,小刀电动车,江苏省,无,小刀
2019-09-09,东北塘东旺路丁车渡61号,锡山区,无锡市,120.350646,31.628789,小刀电动车,江苏省,无,小刀
2019-09-09,伞墩东路与砂山大道交叉口东南50米,江阴市,无锡市,120.426760,31.870527,小刀电动车,江苏省,无,小刀
2019-09-09,芙蓉二路70号附近,锡山区,无锡市,120.410035,31.634436,小刀电动车,江苏省,无,小刀
2019-09-09,锡山开发区东亭镇春雷村友谊北路123号,锡山区,无锡市,120.375276,31.608041,小刀电动车,江苏省,无,小刀
2019-09-09,五洲国际广场B座,惠山区,无锡市,120.214453,31.697788,小刀电动车,江苏省,13771008441,小刀
2019-09-09,锡澄路634号附近,江阴市,无锡市,120.248199,31.858424,小刀电动车专卖店,江苏省,13003356878,小刀
2019-09-09,人民路与文南路交叉口西50米,江阴市,无锡市,120.401620,31.716950,小刀电动车(文林店),江苏省,18168319168,小刀
2019-09-09,永利路16栋附近,江阴市,无锡市,120.000099,31.852938,小刀电动车,江苏省,15151999480,小刀
2019-09-09,青阳镇南环路169号,江阴市,无锡市,120.254777,31.760739,小刀电动车,江苏省,18800691657,小刀
2019-09-09,云林苑别墅区钱长路336号,锡山区,无锡市,120.389040,31.596496,小刀电动车专卖店,江苏省,18626098448,小刀
2019-09-09,浓新路55号,锡山区,无锡市,120.367460,31.642186,小刀电动车(浓新路店),江苏省,13196580009,小刀
2019-09-09,新吴区长江北路863号,梁溪区,无锡市,120.329349,31.575255,小刀电动车,江苏省,无,小刀
2019-09-09,新明西路广益星苑76号,梁溪区,无锡市,120.342251,31.596144,小刀电动车(广益星苑店),江苏省,无,小刀
2019-09-09,政和大道54号附近,惠山区,无锡市,120.320248,31.666724,小刀电动车(惠绿路店),江苏省,无,小刀
2019-09-09,中心街与新湖路交叉口南50米,新吴区,无锡市,120.387097,31.483067,小刀电动车(新安旗舰店),江苏省,13771489770,小刀
2019-09-09,利中街与利康路交叉口西南50米,江阴市,无锡市,120.083128,31.919290,小刀电动车,江苏省,13701525587,小刀
2019-09-09,东降贡湖大道与周新路口北50米路西华胜奔驰宝马奥迪专修连锁,梁溪区,无锡市,120.305372,31.530925,小刀电动车,江苏省,无,小刀
2019-09-09,新郁中路与陶新中路交叉口北100米,江阴市,无锡市,120.511062,31.801281,小刀电动车,江苏省,18767776164,小刀
2019-09-09,顾山镇香山西路29号,江阴市,无锡市,120.561541,31.733431,小刀电动车,江苏省,无,小刀
2019-09-09,惠河路196号,滨湖区,无锡市,120.270505,31.570430,小刀电动车专卖店,江苏省,无,小刀
2019-09-09,东环路与新蕾路交叉口北50米,江阴市,无锡市,120.518372,31.797768,小刀(新桥旗舰店),江苏省,无,小刀
2019-09-09,锡澄线公园新村(青阳建行公交站西),江阴市,无锡市,120.261533,31.763872,小刀双动力电动车,江苏省,13584162887,小刀
2019-09-09,振祁路与文浩路交叉口东100米,惠山区,无锡市,120.185132,31.708039,小刀电动车(文浩路店),江苏省,无,小刀
2019-09-09,建筑路366号-7,滨湖区,无锡市,120.277243,31.549263,小刀电动车(建筑路店),江苏省,15306175657,小刀
2019-09-09,大池路与望惠路交叉口南150米,滨湖区,无锡市,120.239186,31.560127,小刀电动车专卖,江苏省,无,小刀
2019-09-09,梁溪区盛德路42号附近,梁溪区,无锡市,120.251264,31.606931,小刀电动车(盛德路店),江苏省,无,小刀
2019-09-09,人民南路与新生路交叉口西北50米,惠山区,无锡市,120.187328,31.638544,小刀电动车(新生路),江苏省,无,小刀
2019-09-09,墙宅路与振发路交叉口西50米,新吴区,无锡市,120.445649,31.480215,小刀电动车(墙宅路),江苏省,无,小刀
2019-09-09,陆瓠西路280-42号附近,江阴市,无锡市,120.427268,31.815863,小刀电动车,江苏省,无,小刀
2019-09-09,青阳镇人民东路56号,江阴市,无锡市,120.262275,31.912923,小刀电动车,江苏省,无,小刀
2019-09-09,江锋路438号,江阴市,无锡市,120.234362,31.916891,小方车行,江苏省,18861617149,小刀
2019-09-09,天一街与天一路交叉口东北50米,惠山区,无锡市,120.297353,31.639109,小刀电动车(凤翔路辅路店),江苏省,15038025668,小刀
2019-09-09,申港镇镇澄路1598号,江阴市,无锡市,120.149124,31.886480,小刀电动车,江苏省,13812158552,小刀
2019-09-09,张渚镇桃溪路100号,宜兴市,无锡市,119.630081,31.265304,小刀电动车,江苏省,无,小刀
2019-09-09,人民西路356号,江阴市,无锡市,120.469491,31.749068,小刀电动车专卖店,江苏省,13861625421,小刀
2019-09-09,人民西路356号,江阴市,无锡市,120.478104,31.747743,小刀电动车,江苏省,13861625421,小刀
2019-09-09,府前东路与老锡沙线交叉口东150米,锡山区,无锡市,120.497388,31.670162,小刀电动车,江苏省,无,小刀
2019-09-09,周庄镇长寿路308号,江阴市,无锡市,120.386110,31.809819,小刀电动车店,江苏省,13621525067,小刀
2019-09-09,清晏路31-32号,滨湖区,无锡市,120.285287,31.468811,和平小刀电动车(清晏路店),江苏省,13057339563,小刀
2019-09-09,太滆东路30号,宜兴市,无锡市,119.822407,31.367852,小刀电动车(太滆东路店),江苏省,13901537290,小刀
2019-09-09,紫荆新村东风苑西(民主桥东北),宜兴市,无锡市,119.847302,31.252123,小刀电动车(民主路),江苏省,13182067000,小刀
2019-09-09,坊前路15号,新吴区,无锡市,120.386855,31.560662,小刀电动车(厂家直营店),江苏省,0510-88272835,小刀
2019-09-09,云亭环镇南路27号,江阴市,无锡市,120.345679,31.860418,小刀电动车(环镇南路店),江苏省,15716164861,小刀
2019-09-09,秦明高巷路陆家园265号,江阴市,无锡市,120.276288,31.908192,小刀电动车(高巷路),江苏省,无,小刀
2019-09-09,周庄镇光辉路384号(中国电信对面),江阴市,无锡市,120.408930,31.858568,小刀电动车(光辉路店),江苏省,18352588651,小刀
2019-09-09,徐霞客镇峭岐中山路243号,江阴市,无锡市,120.308060,31.813512,小刀电动车(中山路店),江苏省,18352578182,小刀
2019-09-09,月溪路37号,锡山区,无锡市,120.575355,31.538891,小刀电动车,江苏省,无,小刀
2019-09-09,华士镇和平街895号,江阴市,无锡市,120.469014,31.837863,小刀电动车(和平街店),江苏省,无,小刀
2019-09-09,经济开发区长山渡江路18号,江阴市,无锡市,120.342689,31.935458,小刀电动车,江苏省,18861672522,小刀
2019-09-09,震泽路1号附近,滨湖区,无锡市,120.343790,31.481178,小刀电动车(华庄直销店),江苏省,0510-85613807,小刀
2019-09-09,华士镇向阳村向康路6号,江阴市,无锡市,120.431668,31.838855,小刀电动车(向阳中路店),江苏省,无,小刀
2019-09-09,分范线与朝阳路交叉口西北50米,宜兴市,无锡市,119.995941,31.436228,小刀电动车(分范线),江苏省,无,小刀
2019-09-09,皮革城万力大道I1-8号,锡山区,无锡市,120.369365,31.621049,小刀电动车,江苏省,无,小刀
2019-09-09,山观东街6号,江阴市,无锡市,120.352336,31.918183,小刀电动车(东街),江苏省,无,小刀
2019-09-09,八士向阳新村69号斗山花苑南门,锡山区,无锡市,120.386103,31.655290,小刀爱德森电动车,江苏省,15861585148,小刀
2019-09-09,锡南路116号附近,滨湖区,无锡市,120.294238,31.510067,小刀电动车,江苏省,无,小刀
2019-09-09,梁溪区蔚蓝路1号,梁溪区,无锡市,120.301626,31.598323,小刀电动车专卖店,江苏省,18306181898,小刀
2019-09-09,创业路附近,锡山区,无锡市,120.504886,31.690492,无锡小刀,江苏省,无,小刀
2019-09-09,,新沂市,徐州市,118.352136,34.301227,小刀电动车,江苏省,无,小刀
2019-09-09,港炮线,邳州市,徐州市,118.026138,34.476494,小刀电动车,江苏省,无,小刀
2019-09-09,利国镇鑫都商业中心小刀电动车,铜山区,徐州市,117.334307,34.545651,小刀电动车,江苏省,无,小刀
2019-09-09,民主南路67-1号附近,云龙区,徐州市,117.193470,34.256851,小刀电动车,江苏省,无,小刀
2019-09-09,农贸路,贾汪区,徐州市,117.367579,34.263099,小刀电动车,江苏省,无,小刀
2019-09-09,民祥园路19号北80米,云龙区,徐州市,117.244050,34.243436,小刀电动车,江苏省,无,小刀
2019-09-09,新邵线与014乡道交叉口东北100米邵店礼堂附近,新沂市,徐州市,118.447733,34.127192,小刀电动车,江苏省,无,小刀
2019-09-09,北王线农信合作社南50米,新沂市,徐州市,118.399739,34.348513,小刀电动车,江苏省,无,小刀
2019-09-09,余杭路与303县道交叉口西50米,邳州市,徐州市,118.059696,34.388564,小刀电动车,江苏省,无,小刀
2019-09-09,S253(汉源大道),沛县,徐州市,116.908153,34.799449,小刀电动车,江苏省,无,小刀
2019-09-09,252省道东100米,睢宁县,徐州市,117.600849,34.088335,小刀电动车,江苏省,无,小刀
2019-09-09,三汉路与三皇线交叉口西100米,铜山区,徐州市,117.154723,34.122842,小刀电动车,江苏省,无,小刀
2019-09-09,大吴镇大吴商城,贾汪区,徐州市,117.394991,34.325347,小刀电动车,江苏省,18305205037,小刀
2019-09-09,府前路与新城路交叉口西150米,铜山区,徐州市,117.121003,34.364497,小刀电动车,江苏省,无,小刀
2019-09-09,夹河中街与黄河南路交叉口东南100米,泉山区,徐州市,117.182622,34.271168,小刀电动车,江苏省,无,小刀
2019-09-09,,丰县,徐州市,116.597796,34.698741,小刀电动车旗舰店,江苏省,无,小刀
2019-09-09,常店镇马楼街苏果超市对面,丰县,徐州市,116.544722,34.719913,小刀电动车,江苏省,无,小刀
2019-09-09,振兴路与201县道交叉口北100米,沛县,徐州市,117.059281,34.600839,小刀电动车,江苏省,无,小刀
2019-09-09,惠民小区农行东,云龙区,徐州市,117.268930,34.171500,小刀电动车,江苏省,无,小刀
2019-09-09,开发区连接线南50米,邳州市,徐州市,118.007920,34.271421,小刀电动车,江苏省,无,小刀
2019-09-09,广德路24,鼓楼区,徐州市,117.277778,34.287273,小刀电动车,江苏省,无,小刀
2019-09-09,水漫桥路37附近,泉山区,徐州市,117.153455,34.273425,小刀电动车,江苏省,无,小刀
2019-09-09,解放东路52号附近,丰县,徐州市,116.654411,34.702822,小刀电动车,江苏省,无,小刀
2019-09-09,卜王线与郝孟线交叉口东北100米,沛县,徐州市,116.816226,34.677055,小刀电动车,江苏省,无,小刀
2019-09-09,张阎线与沛鹿线交叉口西100米,沛县,徐州市,116.841046,34.722619,小刀电动车,江苏省,无,小刀
2019-09-09,汉台路与香城路交叉口南150米,沛县,徐州市,116.935636,34.724905,小刀电动车,江苏省,无,小刀
2019-09-09,上海路与同康巷交叉口东南50米,铜山区,徐州市,117.185041,34.185993,小刀电动车,江苏省,无,小刀
2019-09-09,矿山路27-4号附近,泉山区,徐州市,117.156471,34.265881,小刀电动车,江苏省,无,小刀
2019-09-09,睢城镇元府中路109号,睢宁县,徐州市,117.961430,33.900003,小刀电动车(天虹大道店),江苏省,15952243029,小刀
2019-09-09,201县道附近,沛县,徐州市,116.929087,34.847819,小刀电动车,江苏省,18251611596,小刀
2019-09-09,,贾汪区,徐州市,117.409585,34.435643,小刀电动车,江苏省,13151981756,小刀
2019-09-09,新安西路157附近,新沂市,徐州市,118.315655,34.374207,小刀电动车,江苏省,无,小刀
2019-09-09,文化路与310国道交叉口东50米,铜山区,徐州市,117.079465,34.282794,小刀电动车(文化路店),江苏省,无,小刀
2019-09-09,煤港路29号,鼓楼区,徐州市,117.199764,34.284176,小刀电动车,江苏省,无,小刀
2019-09-09,323省道北50米,铜山区,徐州市,117.435410,34.293611,小刀电动车,江苏省,无,小刀
2019-09-09,窑湾镇王楼街转盘道,新沂市,徐州市,118.095257,34.248500,小刀电动车,江苏省,13852225292,小刀
2019-09-09,G310(连天线),邳州市,徐州市,117.755218,34.467544,小刀电动车,江苏省,无,小刀
2019-09-09,汉城路大洋百货东50米,鼓楼区,徐州市,117.134143,34.291253,小刀电动车(汉城路店),江苏省,无,小刀
2019-09-09,青年路与301县道交叉口东100米,丰县,徐州市,116.468742,34.847310,小刀电动车,江苏省,无,小刀
2019-09-09,323省道北50米,铜山区,徐州市,117.614208,34.300272,小刀电动车,江苏省,无,小刀
2019-09-09,商业街与振兴路交叉口东南50米,铜山区,徐州市,117.483850,34.091368,小刀电动车(超威电动车驻房村办事处),江苏省,无,小刀
