add_time,address,area,city,lat,lng,name,province,tel,topic
2019-09-09,中关村东路123号,海淀区,北京市,116.333720,39.969678,新大洲电动车,北京市,13901215765,新大洲
2019-09-09,宋庄镇葛渠村315号,通州区,北京市,116.648099,40.010157,新大洲电动车(窑管路店),北京市,4008202109,新大洲
2019-09-09,河西务王河支路国际城郁金花苑北50米,武清区,天津市,116.956304,39.622740,新大洲电动车,天津市,无,新大洲
2019-09-09,镇宁路9号附近,鹿泉区,石家庄市,114.315036,38.086482,新大洲电动车,河北省,无,新大洲
2019-09-09,中华北大街210-1西50米,新华区,石家庄市,114.477709,38.071675,新大洲电动车,河北省,无,新大洲
2019-09-09,南郭东路与长兴街交叉口东南50米,桥西区,石家庄市,114.408553,38.054042,新大洲电动车工厂直营店,河北省,13473094153,新大洲
2019-09-09,南城路与新柳路交叉口东南50米,栾城区,石家庄市,114.728048,37.886989,新大洲电动车大众车行,河北省,无,新大洲
2019-09-09,民心西路与碧水街交叉口东北50米,鹿泉区,石家庄市,114.400397,37.920263,新大洲电动车,河北省,无,新大洲
2019-09-09,银河路与248乡道交叉口北200米,丰润区,唐山市,118.202383,39.780260,新大洲电动车,河北省,无,新大洲
2019-09-09,南大路与程安街交叉口北50米,乐亭县,唐山市,118.914192,39.421440,新大洲电动车(南大路),河北省,无,新大洲
2019-09-09,361省道南50米,丰润区,唐山市,117.956634,39.643453,新大洲电动车(捷安特自行车),河北省,无,新大洲
2019-09-09,唐海镇垦丰大街中市场斜对面,曹妃甸区,唐山市,118.444717,39.272018,新大洲电动车,河北省,无,新大洲
2019-09-09,257乡道北50米,丰润区,唐山市,118.166143,39.739976,新大洲电动车,河北省,无,新大洲
2019-09-09,S251(秦青公路),海港区,秦皇岛市,119.611652,40.095629,新大洲电动车,河北省,无,新大洲
2019-09-09,秦青路30号附近,海港区,秦皇岛市,119.530014,40.015789,新大洲电动车,河北省,无,新大洲
2019-09-09,251省道西50米,海港区,秦皇岛市,119.532789,40.001417,新大洲电动车,河北省,无,新大洲
2019-09-09,南园大街与南苑路交叉口西50米,山海关区,秦皇岛市,119.749576,39.996557,新大洲电动车,河北省,无,新大洲
2019-09-09,永安酒店北50米(宁海道东),抚宁区,秦皇岛市,119.414687,39.802394,新大洲电动车,河北省,15703307281,新大洲
2019-09-09,101乡道东50米,北戴河区,秦皇岛市,119.451947,39.884255,新大洲电动车,河北省,无,新大洲
2019-09-09,,昌黎县,秦皇岛市,118.867090,39.682590,新大洲电动车,河北省,无,新大洲
2019-09-09,102国道北50米,海港区,秦皇岛市,119.442611,39.934538,新大洲电动车专卖,河北省,无,新大洲
2019-09-09,草厂新路95号附近,北戴河区,秦皇岛市,119.482411,39.823754,新大洲电动车,河北省,无,新大洲
2019-09-09,蛇刘线附近,卢龙县,秦皇岛市,118.931671,40.051878,新大洲电动车,河北省,无,新大洲
2019-09-09,关城东路20号附近,山海关区,秦皇岛市,119.770812,40.006885,新大洲电动车,河北省,无,新大洲
2019-09-09,长江中道1-18号,海港区,秦皇岛市,119.542708,39.930594,新大洲电动车(长江中道),河北省,无,新大洲
2019-09-09,前进大街65号附近,复兴区,邯郸市,114.447141,36.614865,新大洲电动车,河北省,13333006306,新大洲
2019-09-09,肥馆线西50米,肥乡区,邯郸市,114.909902,36.494858,新大洲电动车,河北省,无,新大洲
2019-09-09,新兴大街东50米,丛台区,邯郸市,114.500809,36.650445,新大洲电动车,河北省,无,新大洲
2019-09-09,振兴路33号附近,涉县,邯郸市,113.679837,36.560960,新大洲电动车,河北省,13703104367,新大洲
2019-09-09,花园步行街a-9号附近,峰峰矿区,邯郸市,114.208052,36.423327,新大洲电动车,河北省,无,新大洲
2019-09-09,中山东路44号附近,磁县,邯郸市,114.390712,36.357838,新大洲电动车,河北省,无,新大洲
2019-09-09,邯临公路北50米,曲周县,邯郸市,115.022769,36.783362,新大洲电动车,河北省,无,新大洲
2019-09-09,铁西北大街103号附近,丛台区,邯郸市,114.486055,36.627028,新大洲电动车专卖,河北省,15100052196;13731027811,新大洲
2019-09-09,人民东路3号,临漳县,邯郸市,114.613354,36.328175,新大洲电动车,河北省,18832015968,新大洲
2019-09-09,318省道南50米,永年区,邯郸市,114.644344,36.837548,新大洲电动车,河北省,无,新大洲
2019-09-09,丛峰线南50米,临漳县,邯郸市,114.428007,36.239835,新大洲电动车,河北省,无,新大洲
2019-09-09,磁州镇东关桥西行50米路东,磁县,邯郸市,114.381299,36.359871,新大洲本田电动车(普利司通电动车),河北省,无,新大洲
2019-09-09,建设大街137号附近,南和县,邢台市,114.692340,37.007889,新大洲电动车,河北省,无,新大洲
2019-09-09,中兴西大街736-6号附近,桥西区,邢台市,114.449392,37.059505,新大洲电动车(金梦园小区西),河北省,无,新大洲
2019-09-09,工人村西五百米路南,内丘县,邢台市,114.469155,37.227341,新大洲电动车,河北省,15612901259;15832928694,新大洲
2019-09-09,072乡道与325省道交叉口东北50米,邢台县,邢台市,114.618930,37.078964,新大洲电动车,河北省,无,新大洲
2019-09-09,G112(京环线),涞水县,保定市,115.793530,39.377679,新大洲电动车,河北省,13733399486,新大洲
2019-09-09,,满城区,保定市,115.316418,38.917907,新大洲电动车,河北省,无,新大洲
2019-09-09,朝阳路185号西北70米,涞水县,保定市,115.714955,39.396406,新大洲电动车(涞水店),河北省,无,新大洲
2019-09-09,高保路南50米,高阳县,保定市,115.705624,38.723502,新大洲电动车,河北省,无,新大洲
2019-09-09,竞秀区朝阳南大街与西大园南街交叉口东北50米,竞秀区,保定市,115.469322,38.864982,新大洲电动车(朝阳南大街),河北省,无,新大洲
2019-09-09,平安大街与维民街交叉口西100米,蠡县,保定市,115.705602,38.636016,新大洲电动车,河北省,无,新大洲
2019-09-09,乐凯大街和南二环交叉路口向东100米路北,莲池区,保定市,115.456475,38.820491,新大洲电动车,河北省,无,新大洲
2019-09-09,,定州市,保定市,115.167643,38.596638,新大洲电动车,河北省,无,新大洲
2019-09-09,恒祥南大街209号附近,莲池区,保定市,115.492183,38.863939,新大洲本田电动车(恒祥南大街),河北省,无,新大洲
2019-09-09,安新镇永安大街京新风景园21号楼,安新县,保定市,115.930527,38.944594,新大洲电动车(安新专卖店),河北省,13633383125,新大洲
2019-09-09,高林村镇农村信用合作社,徐水区,保定市,115.674849,39.062700,新大洲电动车,河北省,无,新大洲
2019-09-09,崔庄镇晶晶幼儿智能学园西,徐水区,保定市,115.735422,39.016021,新大洲电动车,河北省,0312-8786049,新大洲
2019-09-09,庆都路与141乡道交叉口东50米,唐县,保定市,115.042419,38.782035,新大洲电动车(141乡道店),河北省,13111623522,新大洲
2019-09-09,东辛庄村,定兴县,保定市,115.908793,39.135124,新大洲电动车小松车行专卖,河北省,无,新大洲
2019-09-09,兴隆大街,高碑店市,保定市,116.049946,39.137095,新大洲电动车白沟总经销,河北省,无,新大洲
2019-09-09,固城车站大街65号附近,定兴县,保定市,115.718642,39.138972,神翔车行新大洲电动车(固城专卖店),河北省,无,新大洲
2019-09-09,柴沟堡镇凤凰酒店隔壁,怀安县,张家口市,114.424126,40.668448,新大洲电动车,河北省,无,新大洲
2019-09-09,人民南街58号,涿鹿县,张家口市,115.216135,40.368982,新大洲本田电动车(人民南街店),河北省,无,新大洲
2019-09-09,109国道与456县道交叉口西北200米,阳原县,张家口市,114.646837,40.196441,新大洲电动车,河北省,无,新大洲
2019-09-09,木兰北路与金峰街交叉口西50米,围场满族蒙古族自治县,承德市,117.758992,41.952651,新大洲电动车围场(华强店),河北省,无,新大洲
2019-09-09,乾宁北大街与北环中路交叉口东100米,青县,沧州市,116.814456,38.585790,新大洲电动车,河北省,无,新大洲
2019-09-09,茧城大街240号,东光县,沧州市,116.546931,37.884201,新大洲电动车,河北省,无,新大洲
2019-09-09,兴业街北50米,固安县,廊坊市,116.389197,39.424157,新大洲电动车,河北省,15233168954,新大洲
2019-09-09,南关街与272省道交叉口南200米,大城县,廊坊市,116.627565,38.689393,新大洲电动车,河北省,无,新大洲
2019-09-09,燕郊经济技术开发区行宫西大街320号,三河市,廊坊市,116.803010,39.947962,新大汌电动车,河北省,无,新大洲
2019-09-09,和平西路1688号附近,桃城区,衡水市,115.653219,37.746752,新大洲电动车,河北省,18932805058,新大洲
2019-09-09,282省道西50米,深州市,衡水市,115.699790,38.060436,新大洲电动车,河北省,18230188080,新大洲
2019-09-09,枣强镇门庄成达公司东50米道南,枣强县,衡水市,115.751144,37.490740,新大洲电动车,河北省,无,新大洲
2019-09-09,真武路康宁街十字路口往南500米路西,小店区,太原市,112.576132,37.738977,新大洲电动车,山西省,无,新大洲
2019-09-09,永安镇翠屏路物质局对面,浑源县,大同市,113.684780,39.689970,新大洲电动车,山西省,无,新大洲
2019-09-09,广场东街,云冈区,大同市,113.144139,40.006032,新大州电动车,山西省,无,新大洲
2019-09-09,桥南路,黎城县,长治市,113.388274,36.506648,新大洲电动车,山西省,无,新大洲
2019-09-09,青羊东街53号附近,平顺县,长治市,113.442406,36.204641,新大洲电动车助力车专卖店,山西省,无,新大洲
2019-09-09,长乐巷东100米,太谷县,晋中市,112.548501,37.419216,新大洲电动车(长乐巷),山西省,无,新大洲
2019-09-09,侯郭线西150米,闻喜县,运城市,111.314318,35.428066,新大洲电动车,山西省,无,新大洲
2019-09-09,台运线,盐湖区,运城市,110.938525,35.137536,新大洲电动车,山西省,无,新大洲
2019-09-09,S235(侯风线),闻喜县,运城市,111.315426,35.432455,新大洲电动车,山西省,无,新大洲
2019-09-09,振兴街南50米,稷山县,运城市,110.916553,35.501268,新大洲本田电动车(振兴街),山西省,无,新大洲
2019-09-09,001乡道与804县道交叉口东北50米,稷山县,运城市,111.023547,35.522813,新大洲电动车,山西省,13383592929,新大洲
2019-09-09,311省道北50米,五台县,忻州市,113.142854,38.647509,新大洲电动车(二虎车行),山西省,18636060728,新大洲
2019-09-09,云中北路与团结街交叉口东100米,忻府区,忻州市,112.745796,38.434271,新大洲电动车,山西省,15513222887,新大洲
2019-09-09,外贸路与新建路交叉口南50米,岢岚县,忻州市,111.570869,38.707692,新大洲电动车,山西省,无,新大洲
2019-09-09,朝阳东街,洪洞县,临汾市,111.675624,36.252048,新大洲电动车,山西省,无,新大洲
2019-09-09,霍州市北环路174号附近,霍州市,临汾市,111.742136,36.573326,新大洲电动车,山西省,无,新大洲
2019-09-09,襄侯线,襄汾县,临汾市,111.364309,35.725928,新大洲电动车,山西省,无,新大洲
2019-09-09,丁陶大卖场东北80米(丁陶大道东),襄汾县,临汾市,111.427491,35.882283,新大洲电动车(党校北院西),山西省,13453730114,新大洲
2019-09-09,柳林镇青龙龙城大酒店西侧,柳林县,吕梁市,110.915402,37.441926,新大洲电动车(柳林专卖店),山西省,13191216634,新大洲
2019-09-09,胜溪街黑坡沟新村西150米(孝西站南),孝义市,吕梁市,111.773448,37.137209,新大洲电动车代理,山西省,13037096204,新大洲
2019-09-09,货源街43号,离石区,吕梁市,111.145934,37.516915,新大洲电动车(吕梁总代理),山西省,13935800774,新大洲
2019-09-09,湖滨路与胜溪街交叉口西北100米,孝义市,吕梁市,111.773500,37.137190,勇骏车行,山西省,13037096204,新大洲
2019-09-09,兴旺巷与新民街交叉口西北50米,和林格尔县,呼和浩特市,111.826152,40.378344,新大洲电动车,内蒙古自治区,无,新大洲
2019-09-09,010县道北50米,赛罕区,呼和浩特市,111.902520,40.848530,新大洲电动车,内蒙古自治区,无,新大洲
2019-09-09,昭君路108号附近,玉泉区,呼和浩特市,111.662839,40.781013,新大洲电动车,内蒙古自治区,无,新大洲
2019-09-09,鄂尔多斯大街金谷农商银行旁,玉泉区,呼和浩特市,111.663670,40.793771,新大洲电动车,内蒙古自治区,无,新大洲
2019-09-09,,昆都仑区,包头市,109.813707,40.676634,新大洲电动车,内蒙古自治区,无,新大洲
2019-09-09,,昆都仑区,包头市,109.826950,40.685250,新大洲电动车,内蒙古自治区,无,新大洲
2019-09-09,白彦道74附近,昆都仑区,包头市,109.802928,40.667719,新大洲电动车,内蒙古自治区,无,新大洲
2019-09-09,公园路与幸福路交叉口东南100米,乌达区,乌海市,106.724165,39.496898,宏飞新大洲本田电动车,内蒙古自治区,13947320915,新大洲
2019-09-09,高桥路20-18,宁城县,赤峰市,119.337401,41.598908,新大洲电动车(高桥路店),内蒙古自治区,0476-4225925;15149086001,新大洲
2019-09-09,交通路东50米,科尔沁区,通辽市,122.258116,43.608573,新大洲电动车,内蒙古自治区,无,新大洲
2019-09-09,交通路356号,科尔沁区,通辽市,122.257529,43.610739,新大洲电动车,内蒙古自治区,无,新大洲
2019-09-09,薛家湾镇火车站对面,准格尔旗,鄂尔多斯市,111.236440,39.867742,新大洲电动车,内蒙古自治区,无,新大洲
2019-09-09,德胜大街与达拉特路交叉口南100米,达拉特旗,鄂尔多斯市,110.015087,40.391297,新大洲电动车,内蒙古自治区,无,新大洲
2019-09-09,达拉特北路9号街坊附近,东胜区,鄂尔多斯市,110.002441,39.822271,新大洲电动车,内蒙古自治区,无,新大洲
2019-09-09,阿尔寨路西50米,鄂托克旗,鄂尔多斯市,107.021283,39.376149,新大洲电动车,内蒙古自治区,无,新大洲
2019-09-09,海流图镇车站向西的坡坡上,乌拉特中旗,巴彦淖尔市,108.518752,41.565176,新大洲电动车,内蒙古自治区,无,新大洲
2019-09-09,别力古台镇汉贝东街1号,阿巴嘎旗,锡林郭勒盟,114.973623,44.020883,新大洲电动车店,内蒙古自治区,无,新大洲
2019-09-09,杭盖路204号,锡林浩特市,锡林郭勒盟,116.092345,43.947481,新大洲电动车,内蒙古自治区,无,新大洲
2019-09-09,友谊路与恐龙大街交叉口西北150米,二连浩特市,锡林郭勒盟,111.989683,43.650356,新大洲本田电动车,内蒙古自治区,无,新大洲
2019-09-09,丰乐二街9甲1号4门,沈河区,沈阳市,123.485023,41.765764,新大洲电动车(旗舰店),辽宁省,无,新大洲
2019-09-09,大菜市4号门外,西岗区,大连市,121.630810,38.927997,新大洲电动车,辽宁省,无,新大洲
2019-09-09,解放西路219号,铁西区,鞍山市,122.941051,41.110079,新大洲电动车,辽宁省,无,新大洲
2019-09-09,共和街七层楼交通岗北,铁西区,鞍山市,122.959776,41.122751,新大洲电动车,辽宁省,无,新大洲
2019-09-09,椅圈镇,东港市,丹东市,123.767377,39.879915,世锋新大洲本田(小刀电动车),辽宁省,无,新大洲
2019-09-09,西安街与解放路交叉口东南50米,古塔区,锦州市,121.120955,41.114984,新大洲本田电动车(锦州旗舰店),辽宁省,无,新大洲
2019-09-09,长安里106-91号,古塔区,锦州市,121.120966,41.114985,新大洲本田(西安街),辽宁省,无,新大洲
2019-09-09,桃花潭路7附近,鲅鱼圈区,营口市,122.137202,40.252521,新大洲电动车,辽宁省,无,新大洲
2019-09-09,204省道东50米,阜新蒙古族自治县,阜新市,121.458161,41.806551,新大洲电动车,辽宁省,无,新大洲
2019-09-09,育红路160号,双台子区,盘锦市,122.060275,41.193000,新大洲电动车,辽宁省,无,新大洲
2019-09-09,105省道东50米,昌图县,铁岭市,123.800691,42.922240,新大洲电动车,辽宁省,13188408801,新大洲
2019-09-09,老城镇老城商场西北350米,昌图县,铁岭市,123.994721,42.787301,新大洲电动车老城总经销,辽宁省,15898089428,新大洲
2019-09-09,团结路西100米,喀喇沁左翼蒙古族自治县,朝阳市,119.749616,41.125346,新大洲电动车,辽宁省,无,新大洲
2019-09-09,王宝镇,绥中县,葫芦岛市,120.137974,40.151961,新大洲电动车王宝旗舰店,辽宁省,无,新大洲
2019-09-09,213省道南50米,绥中县,葫芦岛市,119.777841,40.374599,新大洲电动车(秋子沟乡人民代表大会南),辽宁省,无,新大洲
2019-09-09,朱小线附近,建昌县,葫芦岛市,119.813554,40.551626,新大洲电动车(养马甸子),辽宁省,无,新大洲
2019-09-09,双阳大街177号附近,双阳区,长春市,125.669888,43.525735,新大洲电动车(双阳大街),吉林省,无,新大洲
2019-09-09,九台街道信合花园1期1号楼3号门市新大洲电动车专卖,九台区,长春市,125.843000,44.160903,新大洲电动车专卖,吉林省,无,新大洲
2019-09-09,吉林大街344-9号,昌邑区,吉林市,126.566695,43.860247,新大洲本田电动车(桃源路),吉林省,无,新大洲
2019-09-09,文明路北50米,伊通满族自治县,四平市,125.495171,43.184440,新大洲电动车,吉林省,无,新大洲
2019-09-09,喜丰路与建设街交叉口西南150米,浑江区,白山市,126.404498,41.924357,新大洲电动车全场特卖,吉林省,无,新大洲
2019-09-09,士英街与太祖路交叉口北50米,扶余市,松原市,126.033611,44.985351,新大洲电动车,吉林省,无,新大洲
2019-09-09,尚志大街449号,尚志市,哈尔滨市,127.976440,45.211122,新大洲电动车(尚志总代理),黑龙江省,13836099055,新大洲
2019-09-09,朝阳路与西安街交叉口西南50米,拜泉县,齐齐哈尔市,126.086668,47.608313,新大洲电动车,黑龙江省,13846204378,新大洲
2019-09-09,通江街道育才街115号,讷河市,齐齐哈尔市,124.877083,48.481820,新大洲电动车专卖店,黑龙江省,无,新大洲
2019-09-09,通江街48-15号,饶河县,双鸭山市,134.008189,46.797920,新大洲本田(饶河县审计局东),黑龙江省,13946690876,新大洲
2019-09-09,大祁街与育才路交叉口南150米,林甸县,大庆市,124.876833,47.189341,新大洲电动车,黑龙江省,无,新大洲
2019-09-09,肇州镇八厂西街209号,肇州县,大庆市,125.263503,45.706899,新大洲电动车,黑龙江省,15146343722,新大洲
2019-09-09,,桦川县,佳木斯市,130.724952,47.018518,新大洲电动车,黑龙江省,无,新大洲
2019-09-09,新兴路与新华路交叉口东50米,桦南县,佳木斯市,130.577969,46.241822,新大洲本田摩托车电动车(福田五星三轮摩托车三轮电动车),黑龙江省,0454-6669777,新大洲
2019-09-09,中央大街30号,富锦市,佳木斯市,132.051457,47.255049,新大州电动车,黑龙江省,0454-2336327;13284652327,新大洲
2019-09-09,中央大街348-1号附近,富锦市,佳木斯市,132.630839,47.253985,新大洲电动车,黑龙江省,无,新大洲
2019-09-09,北横街160号,安达市,绥化市,125.327129,46.411139,新大洲电动车(北横街店),黑龙江省,13836854618,新大洲
2019-09-09,奋斗路与文化街交叉口西南100米,望奎县,绥化市,126.483391,46.828615,新大洲电动车(望奎旗舰店),黑龙江省,无,新大洲
2019-09-09,沪太公路与沪王路交叉口东北50米,宝山区,上海市,121.365871,31.373911,新大洲电动车,上海市,15002164229,新大洲
2019-09-09,可乐路与平塘路交叉口东北50米,长宁区,上海市,121.365728,31.206153,新大洲电动车,上海市,无,新大洲
2019-09-09,富强街28-22号,闵行区,上海市,121.360119,31.154286,新大洲电动车,上海市,13166386670,新大洲
2019-09-09,栖山路1269-6号,浦东新区,上海市,121.562456,31.256058,新大洲电动车,上海市,4008202109,新大洲
2019-09-09,清河路443号新大洲旗舰店,嘉定区,上海市,121.235323,31.376709,新大洲电动车,上海市,无,新大洲
2019-09-09,学府路98号附近,松江区,上海市,121.121143,30.984969,新大洲电动车,上海市,无,新大洲
2019-09-09,海防路194附近,静安区,上海市,121.448963,31.239735,新大洲电动车,上海市,无,新大洲
2019-09-09,墅沟路546号附近,嘉定区,上海市,121.268839,31.378455,新大洲电动车,上海市,无,新大洲
2019-09-09,电台路314号附近,宝山区,上海市,121.393888,31.350649,新大洲电动车,上海市,无,新大洲
2019-09-09,东太东路与东太路交叉口东南50米,宝山区,上海市,121.366259,31.386085,新大洲电动车,上海市,13661467629,新大洲
2019-09-09,东川公路5938号,浦东新区,上海市,121.718515,31.236337,新大洲电动车,上海市,无,新大洲
2019-09-09,",西藏北路1046一1048号",静安区,上海市,121.467039,31.260928,新大洲电动车,上海市,无,新大洲
2019-09-09,龙恒路290号附近,徐汇区,上海市,121.448658,31.166303,新大洲电动车,上海市,13774471212,新大洲
2019-09-09,北蔡镇莲园路170号,浦东新区,上海市,121.550940,31.184900,新大洲电动车,上海市,无,新大洲
2019-09-09,古莲路与鹤林新路交叉口西100米,宝山区,上海市,121.404339,31.450278,新大洲电动车,上海市,无,新大洲
2019-09-09,川沙路与民春路交叉口北100米,浦东新区,上海市,121.669084,31.276909,新大洲电动车,上海市,无,新大洲
2019-09-09,兴新路1047号北90米,金山区,上海市,121.077538,30.871580,新大洲电动车,上海市,无,新大洲
2019-09-09,淞滨支路115号,宝山区,上海市,121.487188,31.369870,新大洲电动车,上海市,无,新大洲
2019-09-09,华漕镇纪翟路2794号,闵行区,上海市,121.267713,31.244985,新大洲电动车,上海市,无,新大洲
2019-09-09,华和路288号附近,宝山区,上海市,121.403006,31.291049,新大洲电动车,上海市,无,新大洲
2019-09-09,红旗东路201号,金山区,上海市,121.363286,30.762828,新大洲电动车,上海市,无,新大洲
2019-09-09,中山东路174号,松江区,上海市,121.247175,31.007260,新大洲电动车,上海市,021-37605629,新大洲
2019-09-09,新泾镇新渔东路483-1号,长宁区,上海市,121.382116,31.212829,新大洲电动车,上海市,13918394302,新大洲
2019-09-09,长宁路2073号附近,长宁区,上海市,121.399856,31.217803,新大洲电动车,上海市,15221533242,新大洲
2019-09-09,莲花路1112号,徐汇区,上海市,121.396749,31.153897,新大洲电动车,上海市,13918499781,新大洲
2019-09-09,铜川路1675-1677号附近,普陀区,上海市,121.388781,31.252042,新大洲电动车,上海市,无,新大洲
2019-09-09,丹巴路与梅川路交叉口东100米,普陀区,上海市,121.389522,31.240554,新大洲电动车,上海市,无,新大洲
2019-09-09,江苏省昆山市花桥镇曹浦路中城花园嘉景庭3栋116号,嘉定区,上海市,121.137408,31.302750,新大洲电动车,上海市,18952455725,新大洲
2019-09-09,真南路与祁安路交叉口西北100米,普陀区,上海市,121.385152,31.283656,新大洲电动车,上海市,4008202109,新大洲
2019-09-09,金山工业区亭朱公路188号,金山区,上海市,121.337616,30.848632,新大洲电动车,上海市,无,新大洲
2019-09-09,马陆镇大治路471号,嘉定区,上海市,121.298527,31.376172,新大洲电动车,上海市,无,新大洲
2019-09-09,西藏北路796-2号临附近,静安区,上海市,121.467128,31.251198,新大洲电动车,上海市,15801891696,新大洲
2019-09-09,沧州路与靖宇中路交叉口东北50米,杨浦区,上海市,121.527712,31.284615,新大洲电动车,上海市,4008202109,新大洲
2019-09-09,梅陇镇虹梅南路1200号,闵行区,上海市,121.424680,31.123135,新大洲电动车,上海市,无,新大洲
2019-09-09,新桥路709号对面,青浦区,上海市,121.103320,31.213422,新大洲电动车,上海市,无,新大洲
2019-09-09,新市南路519-521号附近,虹口区,上海市,121.481297,31.291491,新大洲电动车,上海市,021-65605988,新大洲
2019-09-09,斜土路175号,黄浦区,上海市,121.482103,31.206207,新大洲电动车,上海市,13917881574,新大洲
2019-09-09,响椿公路与竖桥公路交叉口东100米,崇明区,上海市,121.593484,31.616583,新大洲电动车,上海市,无,新大洲
2019-09-09,吴泾镇吴中路382号,闵行区,上海市,121.412061,31.186624,新大洲电动车,上海市,021-54371607,新大洲
2019-09-09,康桥镇秀沈路200号,浦东新区,上海市,121.563341,31.136278,新大洲电动车,上海市,4008202109,新大洲
2019-09-09,中山北路1315号,普陀区,上海市,121.422630,31.249059,新大洲电动车,上海市,4008202109,新大洲
2019-09-09,桃浦路1150号附近,普陀区,上海市,121.379980,31.261358,新大洲电动车,上海市,4008202109,新大洲
2019-09-09,夏乐路与浦红西路交叉口西北50米,浦东新区,上海市,121.757709,31.087310,新大洲电动车,上海市,无,新大洲
2019-09-09,朱枫公路9126号附近,金山区,上海市,121.012152,30.894687,新大洲电动车,上海市,4008202109,新大洲
2019-09-09,祝桥镇东大街12号,浦东新区,上海市,121.756996,31.116876,新大洲电动车,上海市,4008202109,新大洲
2019-09-09,北江榉路588弄1期二号楼119室附近,闵行区,上海市,121.487849,31.104721,新大洲电动车,上海市,4008202109;13127502203,新大洲
2019-09-09,川南奉公路与沪南公路交叉口西北50米,浦东新区,上海市,121.774967,31.041784,新大洲电动车,上海市,4008202109,新大洲
2019-09-09,大场镇大华三路30号,宝山区,上海市,121.421273,31.274883,新大洲电动车,上海市,18917000071,新大洲
2019-09-09,桂林路117号附近,徐汇区,上海市,121.419080,31.165419,新大洲电动车,上海市,无,新大洲
2019-09-09,航城路108号,浦东新区,上海市,121.756621,31.155005,新大洲电动车,上海市,无,新大洲
2019-09-09,陈家镇牛棚镇安崇路188号,崇明区,上海市,121.836126,31.523470,新大洲电动车,上海市,13818531330,新大洲
2019-09-09,东川路与碧江路交叉口东北50米,闵行区,上海市,121.401873,31.009511,新大洲电动车,上海市,4008202109,新大洲
2019-09-09,封浜村星华公路1568号,嘉定区,上海市,121.300646,31.268864,新大洲电动车,上海市,4008202109,新大洲
2019-09-09,宏海公路1993,崇明区,上海市,121.346244,31.714449,新大洲电动车,上海市,4008202109,新大洲
2019-09-09,练塘镇蒸兴路68号,青浦区,上海市,121.028585,30.972522,新大洲电动车,上海市,4008202109,新大洲
2019-09-09,国顺东路141号附近,杨浦区,上海市,121.538581,31.301761,新大洲电动车,上海市,4008202109,新大洲
2019-09-09,沪太支路1799号,宝山区,上海市,121.414925,31.299711,新大洲电动车,上海市,4008202109,新大洲
2019-09-09,合庆镇东川公路7568号,浦东新区,上海市,121.725500,31.219760,新大洲电动车,上海市,无,新大洲
2019-09-09,南蕰澡路1883号,宝山区,上海市,121.405110,31.334546,新大洲电动车,上海市,18939715081,新大洲
2019-09-09,小木桥路316号,徐汇区,上海市,121.460470,31.197839,新大洲电动车(小木桥路),上海市,无,新大洲
2019-09-09,彭浦镇场中路2838号,静安区,上海市,121.439918,31.304789,新大洲电动车(场中路店),上海市,021-56471218;4008202109,新大洲
2019-09-09,南桥镇西渡西闸公路扶栏村107号,奉贤区,上海市,121.442164,30.993748,新大洲电动车(西闸支路),上海市,13482669499,新大洲
2019-09-09,清河路438号,嘉定区,上海市,121.235149,31.377137,新大洲电动车(清河路),上海市,021-69917877;4008202109,新大洲
2019-09-09,阳曲路820号,静安区,上海市,121.460160,31.319978,新大洲电动车(阳曲路店),上海市,4008202109;13162112282,新大洲
2019-09-09,川周公路4259-2号,浦东新区,上海市,121.582118,31.121267,新大洲电动车(川周公路店),上海市,4008202109,新大洲
2019-09-09,昆港公路429-488号附近,松江区,上海市,121.149168,31.006072,新大洲电动车(新港路店),上海市,4008202109,新大洲
2019-09-09,兰州路1104号金鹏花园2号楼一层,杨浦区,上海市,121.526671,31.267189,新大洲电动车(兰州路店),上海市,13120583133,新大洲
2019-09-09,大场镇祁连山路锦秋路1224号,宝山区,上海市,121.382712,31.319203,新大洲电动车(锦秋路),上海市,4008202109,新大洲
2019-09-09,永泰路1486号,浦东新区,上海市,121.532527,31.144228,新大洲电动车(永泰路),上海市,15001778687,新大洲
2019-09-09,周浦镇康沈路2584号,浦东新区,上海市,121.581547,31.096983,新大洲电动车(原小刀上达),上海市,13701967508,新大洲
2019-09-09,归昌路299号五莲路口,浦东新区,上海市,121.599292,31.277839,新大洲电动车(归昌路店),上海市,15618908717,新大洲
2019-09-09,潘圆公路89号附近,崇明区,上海市,121.775303,31.338871,新大洲电动车(圆沙店),上海市,13816760229;13472884868,新大洲
2019-09-09,江苏路771号-4,长宁区,上海市,121.433966,31.212687,新大洲电动车(江苏路店),上海市,17601252235,新大洲
2019-09-09,九亭镇九亭大街801号,松江区,上海市,121.320302,31.126222,新大洲电动车(九亭大街店),上海市,4008202109;15900729732,新大洲
2019-09-09,金山卫镇学府路755号小军车行,金山区,上海市,121.321813,30.730343,新大洲电动车(学府路店),上海市,4008202109,新大洲
2019-09-09,川南奉公路8316号,奉贤区,上海市,121.717426,30.938823,新大洲电动车(航云店),上海市,4008202109,新大洲
2019-09-09,成都北路738号附近,黄浦区,上海市,121.466005,31.235803,新大洲电动车(成都北路),上海市,13918845248,新大洲
2019-09-09,华漕镇纪翟路22号,闵行区,上海市,121.296423,31.206454,新大洲电动车(纪翟路),上海市,无,新大洲
2019-09-09,中山北一路10号-1、2,虹口区,上海市,121.474111,31.268179,新大洲电动车(中山北一路),上海市,021-65405110;4008202109,新大洲
2019-09-09,茸盛路548号附近,松江区,上海市,121.246918,31.065041,新大洲电动车(茸盛路),上海市,4008202109;18817999506,新大洲
2019-09-09,浦江镇闵弛二路65号,闵行区,上海市,121.539012,31.043966,新大洲电动车(闵驰二路店),上海市,4008202109;13482150536,新大洲
2019-09-09,平凉路2246号,杨浦区,上海市,121.549161,31.273052,新大洲电动车(周家嘴路店),上海市,4008202109,新大洲
2019-09-09,颛桥镇光华路301号,闵行区,上海市,121.393094,31.070267,新大洲电动车(光华路),上海市,无,新大洲
2019-09-09,长征镇同普路1451号,普陀区,上海市,121.363459,31.234240,新大洲电动车(同普路),上海市,无,新大洲
2019-09-09,真如镇街道真北路2936号,普陀区,上海市,121.393439,31.267810,新大洲电动车(真北路),上海市,4008202109,新大洲
2019-09-09,永顺路与罗溪路交叉口西北100米,宝山区,上海市,121.348134,31.412585,新大洲电动车(罗溪路),上海市,无,新大洲
2019-09-09,江桥镇铜川路2586-2号,嘉定区,上海市,121.366396,31.256486,新大洲电动车(嘉福坊店),上海市,4008202109,新大洲
2019-09-09,华泾镇华发路399号,徐汇区,上海市,121.446363,31.126606,新大洲电动车(华发路店),上海市,无,新大洲
2019-09-09,原平路与江场西路交叉口东北50米,静安区,上海市,121.430980,31.297059,新大洲电动车(原平路),上海市,4008202109,新大洲
2019-09-09,国定路34号,杨浦区,上海市,121.516635,31.294113,新大洲电动车(国定路店),上海市,021-55781013,新大洲
2019-09-09,周浦镇建设路15号,浦东新区,上海市,121.654443,31.105913,新大洲电动车(建设路),上海市,4008202109,新大洲
2019-09-09,镇北江燕路浦江·世博家园四街坊,闵行区,上海市,121.507060,31.080358,新大洲电动车(世博家园4街坊店),上海市,无,新大洲
2019-09-09,川沙新镇川六公路1709号,浦东新区,上海市,121.725815,31.154270,新大洲电动车(德兴街),上海市,无,新大洲
2019-09-09,三三公路4922号附近,浦东新区,上海市,121.900094,30.953676,新大洲电动车(亭园新村北),上海市,无,新大洲
2019-09-09,华亭镇浏翔公路7096号,嘉定区,上海市,121.283806,31.467813,新大洲电动车(浏翔公路),上海市,4008202109,新大洲
2019-09-09,重固镇赵重公路3016号,青浦区,上海市,121.185236,31.200915,新大洲电动车(赵重公路店),上海市,4008202109,新大洲
2019-09-09,凌兆路与长清路交叉口东北50米,浦东新区,上海市,121.496327,31.142444,新大洲电动车(长清路店),上海市,4008202109,新大洲
2019-09-09,三林镇浦三路大道站路30号,浦东新区,上海市,121.534501,31.158725,新大洲电动车(大道站路),上海市,13012836780,新大洲
2019-09-09,马陆镇沪宜公路2138号,嘉定区,上海市,121.284738,31.330970,新大洲电动车(玉桂路),上海市,4008202109,新大洲
2019-09-09,嘉松北路与春及路交叉口西北100米,嘉定区,上海市,121.177456,31.361615,新大洲电动车(永久凤凰自行车专卖),上海市,13818289561,新大洲
2019-09-09,钦州南路160号,徐汇区,上海市,121.424160,31.159822,新大洲电动车(钦州南路),上海市,4008202109,新大洲
2019-09-09,宝秀路永德小区西北100米,闵行区,上海市,121.463072,31.046303,新大洲电动车(宝秀路),上海市,4008202109,新大洲
2019-09-09,庄行镇一新路115号,奉贤区,上海市,121.397297,30.906318,新大洲电动车(一新街店),上海市,4008202109,新大洲
2019-09-09,新河镇新开河路398号,崇明区,上海市,121.530283,31.579795,新大洲电动车(永鑫专卖店),上海市,13818455561,新大洲
2019-09-09,200-800号呼玛路725号,宝山区,上海市,121.443167,31.337557,新大洲电动车(呼玛路),上海市,4008202109;13564998237,新大洲
2019-09-09,华灵路1885弄-19号-101室,宝山区,上海市,121.405292,31.279781,新大洲电动车(华灵路),上海市,021-66395396;4008202109,新大洲
2019-09-09,祥凝浜路856号,青浦区,上海市,121.052276,31.104917,新大洲电动车(祥凝浜路),上海市,4008202109,新大洲
2019-09-09,外青松公路与白石公路交叉口西南50米,青浦区,上海市,121.139001,31.246794,新大洲电动车(外青松公路店),上海市,无,新大洲
2019-09-09,剑河路36号,长宁区,上海市,121.368469,31.221118,新大洲电动车(剑河路),上海市,13331810529;021-52173757;4008202109,新大洲
2019-09-09,练塘镇练新路123号,青浦区,上海市,121.041767,31.008199,新大洲电动车(练新路),上海市,无,新大洲
2019-09-09,庙行镇张庙街道三泉路1302号,宝山区,上海市,121.440847,31.322968,新大洲电动车(三泉路),上海市,13564560065,新大洲
2019-09-09,创新西路84号,浦东新区,上海市,121.656696,31.203663,新大洲电动车(创新西路店),上海市,4008202109;18918634276,新大洲
2019-09-09,振兴路142-144,松江区,上海市,121.309592,31.017944,新大洲电动车(振兴路店),上海市,无,新大洲
2019-09-09,孙桥镇孙桥路428号,浦东新区,上海市,121.630745,31.177904,新大洲电动车(孙桥路),上海市,无,新大洲
2019-09-09,桃浦镇白丽路689号,普陀区,上海市,121.345220,31.289039,新大洲电动车(白丽路店),上海市,4008202109,新大洲
2019-09-09,洞泾镇长兴路320号,松江区,上海市,121.273500,31.081840,新大洲电动车(长兴路店),上海市,4008202109,新大洲
2019-09-09,乐都路405号天自公司,松江区,上海市,121.220544,31.013192,新大洲电动车(乐都路店),上海市,021-57717110;4008202109,新大洲
2019-09-09,唐山路381-1号,虹口区,上海市,121.503056,31.253862,新大洲电动车(唐山路店),上海市,4008202109,新大洲
2019-09-09,泥诚镇人民村高桥一组150号,浦东新区,上海市,121.824026,30.904057,新大洲电动车(蔡家住宅东南),上海市,4008202109,新大洲
2019-09-09,周浦镇川周公路4261号,浦东新区,上海市,121.582236,31.121455,新大洲电动车(川周公路),上海市,4008202109,新大洲
2019-09-09,娄塘路866号,嘉定区,上海市,121.215003,31.433341,新大洲电动车(娄塘路店),上海市,4008202109,新大洲
2019-09-09,鼓浪路390-392号,松江区,上海市,121.276831,31.115927,新大洲电动车(鼓浪路店),上海市,15241813666,新大洲
2019-09-09,外青松公路8996号,松江区,上海市,121.187733,31.097891,新大洲电动车(佘山花苑北),上海市,4008202109,新大洲
2019-09-09,花园浜路41号,嘉定区,上海市,121.215729,31.315487,新大洲电动车(花园浜路店),上海市,无,新大洲
2019-09-09,盈港东路1900-1902号(新虹桥明珠花园南),青浦区,上海市,121.269996,31.171596,新大洲电动车(新虹桥明珠花园南),上海市,无,新大洲
2019-09-09,德华路421-423号,嘉定区,上海市,121.311606,31.293806,新大洲电动车(德华路),上海市,4008202109,新大洲
2019-09-09,自忠路23号,黄浦区,上海市,121.481193,31.220410,新大洲电动车(小蔡车行),上海市,18018694828;15317288648,新大洲
2019-09-09,曹安路2047号,嘉定区,上海市,121.369101,31.255942,新大洲电动车(阿荣车行),上海市,无,新大洲
2019-09-09,崇明北门路与新崇西路交叉口西南50米,崇明区,上海市,121.394668,31.626483,新大洲,上海市,无,新大洲
2019-09-09,上南路1632-1号,浦东新区,上海市,121.496663,31.167808,新大洲,上海市,4008202109,新大洲
2019-09-09,金桥镇金高路1764号,浦东新区,上海市,121.609541,31.268742,新大洲,上海市,4008202109,新大洲
2019-09-09,赵华路489号,青浦区,上海市,121.197838,31.151400,新大洲(赵华路),上海市,021-59752819,新大洲
2019-09-09,嘉松北路6991号,嘉定区,上海市,121.212185,31.271431,新大洲(黄渡·绿苑路),上海市,4008202109,新大洲
2019-09-09,安远路695号鸿鸿茶楼旁边,静安区,上海市,121.436055,31.235469,新大洲(安远路),上海市,无,新大洲
2019-09-09,梅陇镇虹梅南路2998号,闵行区,上海市,121.436237,31.091667,新大洲(曹建路店),上海市,021-54332766,新大洲
2019-09-09,龙华西路9号-3室,徐汇区,上海市,121.453157,31.170267,新大洲(马龙专卖店),上海市,13023139336;15021397753,新大洲
2019-09-09,共江路797号,宝山区,上海市,121.451842,31.329678,新大洲(共江路),上海市,18918679223,新大洲
2019-09-09,金桥镇东陆路1345号,浦东新区,上海市,121.599255,31.269790,新大洲(东陆公路店),上海市,13917993792,新大洲
2019-09-09,川沙镇城丰路362号,浦东新区,上海市,121.683395,31.188839,新大洲(城丰路店),上海市,13167234324,新大洲
2019-09-09,辽源西路164-1号,杨浦区,上海市,121.510541,31.268621,新大洲(辽源西路),上海市,4008202109,新大洲
2019-09-09,南奉公路9302号(金鹏花苑东),奉贤区,上海市,121.466610,30.912842,新大洲(古华南区953号楼西),上海市,4008202109;13818899240,新大洲
2019-09-09,峨山路607-4号,浦东新区,上海市,121.522258,31.214412,新大洲(峨山路店),上海市,13381719591,新大洲
2019-09-09,中山西路526号,长宁区,上海市,121.412237,31.212834,新大洲电动车专卖店,上海市,13764888250,新大洲
2019-09-09,政立路217号,杨浦区,上海市,121.514822,31.308155,新大洲电动车旗舰店,上海市,无,新大洲
2019-09-09,高桥镇草高支路615-617号,浦东新区,上海市,121.576326,31.351426,宝岛新大洲电动车,上海市,无,新大洲
2019-09-09,新桥镇莘松路1399号,松江区,上海市,121.339717,31.093030,新大洲电动车维修销售专卖,上海市,13918712398,新大洲
2019-09-09,联谊路513号,宝山区,上海市,121.426885,31.344180,新大洲电动车专卖店(小孟车行),上海市,18202123450,新大洲
2019-09-09,包头路888-1、888号-2,杨浦区,上海市,121.538603,31.324358,爱玛电动车&新大洲电动车,上海市,4008202109;13764275734,新大洲
2019-09-09,汲浜公路与陈彷公路三一〇三弄交叉口西北50米,崇明区,上海市,121.752257,31.519063,新大洲电动车经营部,上海市,无,新大洲
2019-09-09,莘庄镇莘北路54号,闵行区,上海市,121.373954,31.114621,上海依莱达电动车&新大洲电动车,上海市,13916765301;15201990166,新大洲
2019-09-09,彭浦镇高平路212号,静安区,上海市,121.429249,31.281815,新大洲电动车小胡车行,上海市,无,新大洲
2019-09-09,朱桥镇宝钱公路3735号,嘉定区,上海市,121.189593,31.409261,新大洲专卖店(汇华小区东北),上海市,18616673735,新大洲
2019-09-09,祁连山南路1555-1561,嘉定区,上海市,121.370470,31.247040,上海祁连山南路小牛电动车新大州电动车,上海市,021-59197807,新大洲
2019-09-09,康沈公路与康沈路868弄交叉口北150米,浦东新区,上海市,121.574149,31.132125,新大洲专卖店,上海市,13166400776;19956815290,新大洲
2019-09-09,川北公路3055号(交江大楼对面),浦东新区,上海市,121.613029,31.206208,新大洲专卖店,上海市,021-58551996,新大洲
2019-09-09,嘉兴路307号,虹口区,上海市,121.491019,31.256550,新大洲专卖店(嘉兴路),上海市,15800725143,新大洲
2019-09-09,新场镇申江南路坦直红绿灯往北20米坦南村157号,浦东新区,上海市,121.646848,31.073848,新大洲专卖店,上海市,无,新大洲
2019-09-09,,杨浦区,上海市,121.518919,31.311861,新大洲专卖店(三门路),上海市,021-65587009,新大洲
2019-09-09,徐行镇嘉行公路1358号对面,嘉定区,上海市,121.252880,31.423837,上海新大洲专卖,上海市,无,新大洲
2019-09-09,延长中路776号附近,静安区,上海市,121.446494,31.266694,新大洲旗舰店,上海市,13764522718,新大洲
2019-09-09,沪闵路3618、3686号,闵行区,上海市,121.399391,31.070578,新大洲本田摩托车,上海市,4008202109;13661680668,新大洲
2019-09-09,江桥镇嘉怡路388号,嘉定区,上海市,121.348263,31.266114,新大洲本田电动车(嘉怡路),上海市,无,新大洲
2019-09-09,牡丹江路578-580附近,宝山区,上海市,121.494163,31.385599,新本冈田电动车,上海市,无,新大洲
2019-09-09,沧源路697号新大洲电动车,闵行区,上海市,121.429550,31.013138,好运来车行,上海市,无,新大洲
2019-09-09,大团镇三宣公路389号,浦东新区,上海市,121.755497,30.992220,尚品电动车(三宣公路),上海市,15721404018,新大洲
2019-09-09,东方路靠近中国农业银行南码头路588号(上海浦三路支行),浦东新区,上海市,121.511680,31.190825,电动车店,上海市,无,新大洲
2019-09-09,天宝路508号,虹口区,上海市,121.498946,31.267990,雪梅车行,上海市,021-65142942;13611739668,新大洲
2019-09-09,中山北路1315号,普陀区,上海市,121.442813,31.256758,小叶车行,上海市,13788912672,新大洲
2019-09-09,嘉松北路与黄渡·绿苑路交叉口南50米,嘉定区,上海市,121.212323,31.271399,上海卡摩电动车(绿苑路),上海市,无,新大洲
2019-09-09,东川公路7558号,浦东新区,上海市,121.749657,31.175612,新大洲,上海市,13564032945,新大洲
2019-09-09,东街道莱阳路431号,浦东新区,上海市,121.582771,31.275830,小戴车行(莱阳路店),上海市,13661521008,新大洲
2019-09-09,桠溪镇永兴小区11幢,高淳区,南京市,119.161609,31.364877,新大洲电动车,江苏省,无,新大洲
2019-09-09,双高公路与907县道交叉口西北100米,高淳区,南京市,118.969432,31.301011,新大洲电动车,江苏省,无,新大洲
2019-09-09,双龙大道,江宁区,南京市,118.828214,31.912905,新大洲电动车,江苏省,无,新大洲
2019-09-09,光华园3栋105,秦淮区,南京市,118.819209,32.023140,新大洲电动车(光华园店),江苏省,无,新大洲
2019-09-09,桠溪镇永兴小区,高淳区,南京市,119.161421,31.364877,福明车行,江苏省,无,新大洲
2019-09-09,七里岗大街紫金银行对面,江宁区,南京市,118.935850,31.937532,新大洲电动车(中市北街),江苏省,无,新大洲
2019-09-09,拉萨路与永庆巷交叉口东50米,鼓楼区,南京市,118.773391,32.045954,新大洲电动车(永庆巷),江苏省,无,新大洲
2019-09-09,慈溪街与温州路交叉口东50米,江宁区,南京市,118.878221,31.937172,新大洲电动车(科苑路店),江苏省,无,新大洲
2019-09-09,南湖路99号,建邺区,南京市,118.752366,32.020589,新大洲电动车(南湖路),江苏省,无,新大洲
2019-09-09,岔路口金盛路24号,江宁区,南京市,118.818325,31.967460,新大洲电动车,江苏省,13905168438,新大洲
2019-09-09,东旺路11号,江宁区,南京市,118.846347,31.834394,新大洲电动车,江苏省,无,新大洲
2019-09-09,百润路8号天润城十三街区013幢107室,浦口区,南京市,118.734982,32.155260,新大洲电动车(百润路),江苏省,18260001507,新大洲
2019-09-09,宁芜公路与西善桥街交叉口东北150米,雨花台区,南京市,118.718337,31.959467,新大洲电动车(交通商住楼店),江苏省,025-86808752,新大洲
2019-09-09,正阳路160号,江宁区,南京市,118.858873,31.772559,新大洲电动车(正阳路店),江苏省,无,新大洲
2019-09-09,灵顺北路166号,江宁区,南京市,118.981352,31.864839,新大洲电动车,江苏省,无,新大洲
2019-09-09,东屏街130-8号(小学站台对面),江宁区,南京市,118.769714,31.871322,新大洲,江苏省,13776405240,新大洲
2019-09-09,集贤街60号,江宁区,南京市,118.950373,31.797293,新大洲电动车(集贤街店),江苏省,15951767850,新大洲
2019-09-09,玉堂路与104国道交叉口西北50米,江宁区,南京市,118.967017,31.930739,新大洲电动车(七里岗店),江苏省,15335184022,新大洲
2019-09-09,韩东路与204县道交叉口西北100米,高淳区,南京市,118.926750,31.395378,新大洲电动车,江苏省,13182955525,新大洲
2019-09-09,孝陵卫双拜巷8号,玄武区,南京市,118.864666,32.032531,新大洲电动车(孝陵卫店),江苏省,无,新大洲
2019-09-09,新华西路458号,六合区,南京市,118.734741,32.204440,新大洲电动车,江苏省,无,新大洲
2019-09-09,廊下村,锡山区,无锡市,120.518886,31.614319,无锡新大洲电动车,江苏省,无,新大洲
2019-09-09,,锡山区,无锡市,120.556283,31.529465,新大洲电动车,江苏省,无,新大洲
2019-09-09,,惠山区,无锡市,120.234200,31.603058,新大洲电动车,江苏省,无,新大洲
2019-09-09,,滨湖区,无锡市,120.284142,31.546399,新大洲电动车,江苏省,无,新大洲
2019-09-09,雅西路,惠山区,无锡市,120.216866,31.642046,新大洲电动车,江苏省,13861695605,新大洲
2019-09-09,紫竹路,宜兴市,无锡市,119.846261,31.376308,新大洲电动车,江苏省,无,新大洲
2019-09-09,大通路,滨湖区,无锡市,120.303862,31.505391,新大洲电动车,江苏省,无,新大洲
2019-09-09,卧龙大街12号附近,江阴市,无锡市,120.227636,31.803931,新大洲电动车,江苏省,无,新大洲
2019-09-09,甘西路,锡山区,无锡市,120.572400,31.545458,新大洲电动车,江苏省,无,新大洲
2019-09-09,清晏路敦睦路交口京沪时代对面,滨湖区,无锡市,120.287310,31.468949,新大洲电动车,江苏省,无,新大洲
2019-09-09,皮革城电动车市场H3-6-7,锡山区,无锡市,120.369021,31.620840,新大洲电动车(皮革城)跑车,江苏省,无,新大洲
2019-09-09,太平路与环镇南路交叉口东100米,江阴市,无锡市,120.344398,31.860337,新大洲电动车(云亭店),江苏省,无,新大洲
2019-09-09,新吴区坊前路18-5号附近,新吴区,无锡市,120.385845,31.561275,新大洲电动车,江苏省,无,新大洲
2019-09-09,华士镇自由街189号,江阴市,无锡市,120.466842,31.837458,新大洲电动车,江苏省,无,新大洲
2019-09-09,锡沪中路25号附近,梁溪区,无锡市,120.316179,31.589246,新大洲电动车,江苏省,无,新大洲
2019-09-09,曙明路与金惠路交叉口东北50米,惠山区,无锡市,120.350335,31.667986,新大洲电动车,江苏省,无,新大洲
2019-09-09,塘新路与锡澄路交叉口东北50米,惠山区,无锡市,120.305496,31.623951,新大洲电动车,江苏省,无,新大洲
2019-09-09,陆育路16号附近,惠山区,无锡市,120.095974,31.573740,新大洲电动车,江苏省,无,新大洲
2019-09-09,新吴区梅西新村71号,新吴区,无锡市,120.428769,31.544475,新大洲电动车店,江苏省,18018388685,新大洲
2019-09-09,鹅洲东路83号附近,宜兴市,无锡市,119.896551,31.480198,新大洲电动车,江苏省,0510-87815848,新大洲
2019-09-09,汤省公路与银湖路交叉口西北50米,宜兴市,无锡市,119.805794,31.235362,新大洲电动车,江苏省,0510-87436550,新大洲
2019-09-09,丁蜀镇蠡蜀路133号建陶小区1号楼501室(蠡苑小区南门),宜兴市,无锡市,119.850115,31.259577,新大洲电动车专卖店,江苏省,13812242641,新大洲
2019-09-09,闸口北路11号附近,宜兴市,无锡市,119.916342,31.523897,新大洲电动车,江苏省,无,新大洲
2019-09-09,墙宅路418,新吴区,无锡市,120.448205,31.484489,小张车行(硕放店),江苏省,15261529157;15720693206,新大洲
2019-09-09,文定路115-117号,江阴市,无锡市,120.284972,31.903903,新大洲电动车江阴长红总代理,江苏省,13961660210,新大洲
2019-09-09,复新河西路,丰县,徐州市,116.615985,34.685664,新大洲电动车,江苏省,无,新大洲
2019-09-09,S252(人民路),铜山区,徐州市,117.559523,34.288661,新大洲电动车,江苏省,无,新大洲
2019-09-09,,贾汪区,徐州市,117.321772,34.324957,新大洲电动车,江苏省,无,新大洲
2019-09-09,姚王线与306县道交叉口东50米,睢宁县,徐州市,117.857879,33.875485,新大洲电动车,江苏省,无,新大洲
2019-09-09,323省道北150米,邳州市,徐州市,117.907337,34.324348,新大洲电动车,江苏省,无,新大洲
2019-09-09,中阳大道与广电巷交叉口东150米,丰县,徐州市,116.605933,34.690956,新大洲电动车,江苏省,无,新大洲
2019-09-09,459镇道东150米,铜山区,徐州市,117.075794,34.277278,新大洲电动车,江苏省,无,新大洲
2019-09-09,新元大道与昆仑大道交叉口北200米,云龙区,徐州市,117.301431,34.208468,新大洲电动车,江苏省,无,新大洲
2019-09-09,下淀路15号商住楼,鼓楼区,徐州市,117.214630,34.282786,新大洲电动车,江苏省,无,新大洲
2019-09-09,X204(利大线),贾汪区,徐州市,117.402802,34.490467,新大洲电动车,江苏省,无,新大洲
2019-09-09,中山北路170号,鼓楼区,徐州市,117.185705,34.276006,新大洲电动车,江苏省,无,新大洲
2019-09-09,上海路171号附近,泉山区,徐州市,117.187045,34.205033,新大洲电动车,江苏省,无,新大洲
2019-09-09,惠民小区菜市场,云龙区,徐州市,117.261978,34.172382,新大洲电动车,江苏省,无,新大洲
2019-09-09,迎宾路南50米,铜山区,徐州市,117.595997,34.206490,新大洲电动车单集专卖店,江苏省,无,新大洲
2019-09-09,欣欣路北100米,泉山区,徐州市,117.224534,34.204579,新大洲电动车(东南郡店),江苏省,无,新大洲
2019-09-09,现代农业示范区菁华北路光华安置小区,睢宁县,徐州市,117.921429,33.940651,新大洲电动车(光华安置小区店),江苏省,无,新大洲
2019-09-09,德政路83号,云龙区,徐州市,117.239727,34.243560,新大洲电动车(狮子山小区店),江苏省,无,新大洲
2019-09-09,东丰路西100米,铜山区,徐州市,117.209726,34.151689,新大洲电动车,江苏省,17851163336,新大洲
2019-09-09,104国道东50米附近,睢宁县,徐州市,117.915632,33.873365,新大洲电动车,江苏省,无,新大洲
2019-09-09,淮海西路155-11号附近,泉山区,徐州市,117.174546,34.262664,新大洲电动车(博爱街),江苏省,无,新大洲
2019-09-09,X206(占李线),睢宁县,徐州市,117.755944,33.994217,新大洲电动车(王集专卖店),江苏省,无,新大洲
2019-09-09,农贸路与工业路交叉口西100米,贾汪区,徐州市,117.369211,34.263202,新大洲电动车(大庙旗舰店),江苏省,15952170162,新大洲
2019-09-09,坝子街26号附近,鼓楼区,徐州市,117.195370,34.274547,新大洲电动车(坝子街),江苏省,无,新大洲
2019-09-09,徐肖线,铜山区,徐州市,117.084415,34.235702,新大洲电动车,江苏省,无,新大洲
2019-09-09,西苑小区西苑菜市场北门东50米,泉山区,徐州市,117.147158,34.273534,新大洲电动车(黄河南路),江苏省,无,新大洲
2019-09-09,大黄山街道矿山路爱客来超级市场北,贾汪区,徐州市,117.351728,34.288247,新大洲电动车,江苏省,13151992206,新大洲
2019-09-09,煤港路182号,鼓楼区,徐州市,117.212156,34.297689,新大洲电动车(煤港路店),江苏省,无,新大洲
2019-09-09,204县道东50米,铜山区,徐州市,117.261804,34.148501,新大洲电动车,江苏省,无,新大洲
2019-09-09,富民路北50米,铜山区,徐州市,117.312440,34.438322,新大洲电动车(柳泉专卖店),江苏省,无,新大洲
2019-09-09,古镇路西50米,睢宁县,徐州市,118.045165,33.907359,新大洲电动车(高作专卖店),江苏省,无,新大洲
2019-09-09,铜山路2号-1-101号,云龙区,徐州市,117.212867,34.261122,新大洲电动车(铜山路),江苏省,无,新大洲
2019-09-09,黄河路与253省道交叉口西北100米,沛县,徐州市,117.019886,34.518364,新大洲电动车(张庄旗舰店),江苏省,无,新大洲
2019-09-09,新区南京路34-2号,铜山区,徐州市,117.179827,34.185536,新大洲电动车,江苏省,15262050098,新大洲
2019-09-09,府前路与305镇道交叉口东北100米,铜山区,徐州市,117.118739,34.364355,新大洲电动车,江苏省,无,新大洲
2019-09-09,运河路东150米,铜山区,徐州市,117.253412,34.363488,新大洲电动车,江苏省,无,新大洲
2019-09-09,牌楼街道二环北路堤北邮局西隔壁,鼓楼区,徐州市,117.201442,34.284190,新大洲电动车(堤北专卖店),江苏省,无,新大洲
2019-09-09,310国道南50米,贾汪区,徐州市,117.574468,34.398397,新大洲电动车(高庄专卖店),江苏省,18051913868,新大洲
2019-09-09,人民路与206县道交叉口南150米,睢宁县,徐州市,117.747673,33.993020,新大洲电动车(王集专卖店),江苏省,13775821932,新大洲
2019-09-09,煤源路289号附近,贾汪区,徐州市,117.450670,34.421997,新大洲电动车(贾汪旗舰店),江苏省,无,新大洲
2019-09-09,三堡镇,铜山区,徐州市,117.173709,34.130430,三堡镇新大洲电动车专卖店,江苏省,15996990012,新大洲
2019-09-09,汉城路1号,鼓楼区,徐州市,117.134213,34.291267,新大洲电动车(徐州旗舰店),江苏省,无,新大洲
2019-09-09,广德路东支路35,贾汪区,徐州市,117.279341,34.284584,新大洲电动车(广德路东支路),江苏省,15952159033,新大洲
2019-09-09,下淀路144号商住楼,鼓楼区,徐州市,117.220419,34.285257,新大洲电动车(徐州旗舰店),江苏省,15052008012,新大洲
2019-09-09,建国东路111-3号,云龙区,徐州市,117.196479,34.258434,新大洲电动车,江苏省,无,新大洲
2019-09-09,,金坛区,常州市,119.558194,31.752758,新大洲电动车,江苏省,无,新大洲
2019-09-09,,武进区,常州市,120.040794,31.708411,新大洲电动车,江苏省,无,新大洲
2019-09-09,创业中路,新北区,常州市,119.962328,31.917758,新大洲电动车,江苏省,无,新大洲
2019-09-09,,新北区,常州市,119.867407,31.979157,新大洲电动车,江苏省,无,新大洲
2019-09-09,五星街道新民村委钱家村47号,钟楼区,常州市,119.930499,31.788326,新大洲电动车,江苏省,无,新大洲
2019-09-09,滆湖西路6号附近,武进区,常州市,119.904017,31.690827,新大洲电动车,江苏省,无,新大洲
2019-09-09,礼坂路,武进区,常州市,120.010092,31.630061,新大洲电动车(军哥旗舰店),江苏省,无,新大洲
2019-09-09,圩墩路70号附近,武进区,常州市,120.063808,31.716245,新大洲电动车,江苏省,无,新大洲
2019-09-09,云台山路,新北区,常州市,119.971152,31.855931,新大洲电动车,江苏省,无,新大洲
2019-09-09,永安东路6号附近,新北区,常州市,119.910254,31.911913,新大洲电动车,江苏省,无,新大洲
2019-09-09,太湖中路与太湖西路交叉口东100米,新北区,常州市,119.957098,31.818922,新大洲电动车,江苏省,无,新大洲
2019-09-09,龙栖路与龙虎大街交叉口西北150米,新北区,常州市,119.984331,31.848824,新大洲电动车,江苏省,无,新大洲
2019-09-09,常芙东路73号,武进区,常州市,120.161702,31.776637,新大洲电动车(芙蓉华军店一哥车行),江苏省,无,新大洲
2019-09-09,运河路102号客车厂院内,钟楼区,常州市,119.923450,31.799278,新大洲电动车常州办事处,江苏省,无,新大洲
2019-09-09,湟里镇金鼎路53号,武进区,常州市,119.712405,31.641150,新大洲电动车,江苏省,无,新大洲
2019-09-09,人民东路99号附近,武进区,常州市,119.961380,31.727802,新大洲电动车,江苏省,无,新大洲
2019-09-09,怀德中路288-4号附近,钟楼区,常州市,119.911770,31.774092,新大洲电动车,江苏省,无,新大洲
2019-09-09,魏安路59号附近,新北区,常州市,119.932156,31.965401,新大洲电动车,江苏省,无,新大洲
2019-09-09,广电东路154号附近,武进区,常州市,119.979652,31.712810,新大洲电动车,江苏省,18914333870,新大洲
2019-09-09,遥观镇新南村委史家塘,武进区,常州市,120.091657,31.722431,新大洲电动车大卖场,江苏省,无,新大洲
2019-09-09,玫瑰路35-13号附近,钟楼区,常州市,119.887455,31.789984,新大洲电动车,江苏省,无,新大洲
2019-09-09,万水美兰花园商铺38-7,钟楼区,常州市,119.889499,31.796071,新大洲电动车,江苏省,15961285528,新大洲
2019-09-09,横山桥农贸市场领秀江南对面,武进区,常州市,120.094776,31.761337,新大洲电动车专卖店,江苏省,无,新大洲
2019-09-09,金三角东路45号,武进区,常州市,119.987521,31.518480,新大洲电动车,江苏省,无,新大洲
2019-09-09,朱林大街181号附近,金坛区,常州市,119.465430,31.738607,新大洲(朱林小曹专卖),江苏省,无,新大洲
2019-09-09,,武进区,常州市,119.976632,31.651082,新大洲电动车,江苏省,无,新大洲
2019-09-09,湖塘镇鸣新中路71号,武进区,常州市,119.939411,31.674153,新大洲电动车(成教路店),江苏省,15861156919,新大洲
2019-09-09,新东街与花市路交叉口西南150米,武进区,常州市,119.761044,31.707070,新大洲电动车(明都夏溪店),江苏省,无,新大洲
2019-09-09,大名路天宁香烛店斜对面,武进区,常州市,119.791986,31.680540,新大洲电动车(嘉泽店),江苏省,13861083181,新大洲
2019-09-09,雪堰镇南宅街振兴北路17号,武进区,常州市,120.032569,31.562716,新大洲电动车,江苏省,0519-86203523;13806111456,新大洲
2019-09-09,湖塘镇武宜中路27-3号,武进区,常州市,119.935354,31.676155,新大洲电动车(鸣新西路),江苏省,0519-86531857,新大洲
2019-09-09,丽华北路与离宫路交叉口南50米,天宁区,常州市,119.978310,31.744921,新大洲电动车(明都丽华店),江苏省,13915039356,新大洲
2019-09-09,北环东路138-8、138-9号,金坛区,常州市,119.582012,31.745974,新大洲电动车专卖,江苏省,无,新大洲
2019-09-09,南夏墅东街与南夏路中街交叉口东50米,武进区,常州市,119.941966,31.627647,新大洲电动车(明都南夏墅店),江苏省,13861069633,新大洲
2019-09-09,武宜中路27-2号附近,武进区,常州市,119.935450,31.676154,江苏明都汽摩集团(鸣凰店),江苏省,0519-86531857,新大洲
2019-09-09,,武进区,常州市,119.967667,31.591117,新大洲电动车专卖店,江苏省,无,新大洲
2019-09-09,江兴西路253号附近,吴江区,苏州市,120.645046,31.170048,新大洲电动车,江苏省,无,新大洲
2019-09-09,上供路101号西北60米,吴中区,苏州市,120.497171,31.248372,新大洲电动车,江苏省,无,新大洲
2019-09-09,乘航东路18号,张家港市,苏州市,120.590490,31.840783,新大洲电动车,江苏省,无,新大洲
2019-09-09,吴越路702附近,吴江区,苏州市,120.394749,30.900699,新大洲电动车,江苏省,无,新大洲
2019-09-09,越城西路380号,吴中区,苏州市,120.583557,31.211264,新大洲电动车,江苏省,无,新大洲
2019-09-09,众盛阳光步行街与运东大道交叉口东北50米,吴江区,苏州市,120.663144,31.181809,新大洲电动车运东专卖店,江苏省,无,新大洲
2019-09-09,茅塔路6号北70米,吴江区,苏州市,120.651446,30.885951,新大洲电动车,江苏省,无,新大洲
2019-09-09,娄门街道齐门外大街梅巷花园180号,姑苏区,苏州市,120.625099,31.335331,新大洲电动车,江苏省,无,新大洲
2019-09-09,何山路99-10号,虎丘区,苏州市,120.556034,31.306545,新大洲电动车官方专卖店,江苏省,13914044886,新大洲
2019-09-09,珠江南路368号2306室附近,吴中区,苏州市,120.537055,31.268512,新大洲电动车,江苏省,无,新大洲
2019-09-09,西泾村1组锦新医用塑料容器厂南门,吴中区,苏州市,120.423803,31.083329,新大洲电动车,江苏省,无,新大洲
2019-09-09,南街与邓尉山路交叉口北50米,吴中区,苏州市,120.391852,31.291180,新大洲电动车,江苏省,无,新大洲
2019-09-09,中环北线与昆北路交叉口东北50米,昆山市,苏州市,120.954737,31.419178,新大洲电动车,江苏省,无,新大洲
2019-09-09,盛南公路与织庄路交叉口东北50米,吴江区,苏州市,120.579493,30.886971,新大洲电动车,江苏省,无,新大洲
2019-09-09,永琪路4-9号附近,张家港市,苏州市,120.709700,31.847694,新大洲电动车,江苏省,无,新大洲
2019-09-09,四通路51号西北80米,太仓市,苏州市,121.134787,31.485426,新大洲电动车,江苏省,无,新大洲
2019-09-09,五联路297号附近,昆山市,苏州市,120.945675,31.438550,新大洲电动车,江苏省,18962426263,新大洲
2019-09-09,新湖建业路29号邻里商业广场2-28,太仓市,苏州市,121.056008,31.468612,新大洲电动车,江苏省,无,新大洲
2019-09-09,依湖路与清禾路交叉口北150米,吴中区,苏州市,120.706131,31.241540,新大洲电动车,江苏省,15371864949,新大洲
2019-09-09,菀坪东路299号附近,吴江区,苏州市,120.605795,31.064155,新大洲电动车,江苏省,18013713070;18606255178,新大洲
2019-09-09,洪泾里南与琴湖路交叉口西50米,常熟市,苏州市,120.766165,31.645685,新大洲电动车,江苏省,无,新大洲
2019-09-09,邻里中心越江路511号,吴江区,苏州市,120.829903,31.021826,新友车行,江苏省,13382543303,新大洲
2019-09-09,苏州工业园区南榭雨街9号凤凰新天地F1,苏州工业园区,苏州市,120.765385,31.302611,新大洲电动车(凤凰新天地店),江苏省,无,新大洲
2019-09-09,相开发区泰元路23号,相城区,苏州市,120.635825,31.398918,新大洲电动车,江苏省,无,新大洲
2019-09-09,青阳北路806号附近,昆山市,苏州市,120.993413,31.464348,新大洲电动车,江苏省,无,新大洲
2019-09-09,碧溪镇新港集贸市场A-88号,常熟市,苏州市,120.942373,31.729118,新大洲电动车专卖店,江苏省,13952436789,新大洲
2019-09-09,木渎商城14幢,吴中区,苏州市,120.518918,31.255707,新大洲电瓶车店,江苏省,无,新大洲
2019-09-09,青年路111-112号,张家港市,苏州市,120.644735,31.960216,新大洲电动车,江苏省,18551239821,新大洲
2019-09-09,吴门桥街道苏福路大润发超市1楼,姑苏区,苏州市,120.627276,31.281863,新大洲电动车(人民南路店),江苏省,13912797853,新大洲
2019-09-09,玄武路88号,太仓市,苏州市,121.102909,31.650581,新大洲电动车(璜泾专卖),江苏省,15850279970,新大洲
2019-09-09,天益楼宾馆(桃源汽车站西南),吴江区,苏州市,120.488935,30.808058,新大洲电动车,江苏省,无,新大洲
2019-09-09,三新路与莫邪路交叉口东北50米,姑苏区,苏州市,120.640916,31.317365,新大洲(三新路店),江苏省,无,新大洲
2019-09-09,金门路与阊胥路交叉口西北50米,姑苏区,苏州市,120.603122,31.310753,新大洲电动车(苏州姑苏店),江苏省,无,新大洲
2019-09-09,Y008(湖胥马路),吴中区,苏州市,120.506304,31.192299,新大洲电动车,江苏省,0512-66536044,新大洲
2019-09-09,善桥街与穹灵路交叉口西50米,吴中区,苏州市,120.448367,31.276571,新大洲电动车,江苏省,无,新大洲
2019-09-09,木东公路30号,吴中区,苏州市,120.518781,31.239099,新大洲电动车(木东路专卖店),江苏省,无,新大洲
2019-09-09,芦墟镇越江路513号,吴江区,苏州市,120.830069,31.021749,雅奇电动车(新大洲电动车),江苏省,无,新大洲
2019-09-09,玉山镇城北岚清路367号,昆山市,苏州市,120.951639,31.412654,新大洲电动车,江苏省,无,新大洲
2019-09-09,太平街道太平大街58号,相城区,苏州市,120.704276,31.428096,新大洲电动车,江苏省,无,新大洲
2019-09-09,巴城镇正仪镇君子亭路华夏时代超市向东20米,昆山市,苏州市,120.861129,31.372165,新大洲电动车,江苏省,无,新大洲
2019-09-09,花桥镇三星路10-6号,昆山市,苏州市,121.148318,31.294032,新大洲电动车(安亭店),江苏省,无,新大洲
2019-09-09,北浦路508号,吴江区,苏州市,120.705748,30.997993,新大洲电动车,江苏省,13812734965,新大洲
2019-09-09,芦墟镇浦北路286号,吴江区,苏州市,120.841487,31.021488,新大洲电动车,江苏省,无,新大洲
2019-09-09,盛泽镇西白洋小区旁革新小学对面,吴江区,苏州市,120.637924,30.900751,新大洲电动车,江苏省,无,新大洲
2019-09-09,长康路与长旺路交叉口北150米,相城区,苏州市,120.511169,31.435256,新大洲电动车(长旺路),江苏省,13584843316,新大洲
2019-09-09,如元路泰元商业街A34号(采莲商业广场东南),相城区,苏州市,120.641005,31.403966,新大洲电动车(泰元商业街店),江苏省,18962177558,新大洲
2019-09-09,盛吴路与葑门路交叉口西150米,姑苏区,苏州市,120.648550,31.300460,新大洲电动车专卖店(葑门路),江苏省,无,新大洲
2019-09-09,相聚元街629号电动车维修,相城区,苏州市,120.618958,31.374094,新大洲电动车(相城商业街店),江苏省,18915569216,新大洲
2019-09-09,越溪镇越城东路88号,吴中区,苏州市,120.590714,31.209238,新大洲电动车(越城西路店),江苏省,无,新大洲
2019-09-09,北厍镇新厍路307号,吴江区,苏州市,120.787379,31.054352,新大洲电动车店,江苏省,无,新大洲
2019-09-09,经济技术开发区花港路767号对面,吴江区,苏州市,120.646729,31.206201,新大洲电动车(花港旗舰店),江苏省,无,新大洲
2019-09-09,新园路与204国道老线交叉口南50米,太仓市,苏州市,121.117846,31.428661,新大洲电动车(新园路店),江苏省,无,新大洲
2019-09-09,南苑小区(兴浦街东),昆山市,苏州市,121.054763,31.252049,新大洲电动车,江苏省,无,新大洲
2019-09-09,周市镇萧林东路207号,昆山市,苏州市,121.005666,31.404444,新大洲电动车(萧林东路),江苏省,无,新大洲
2019-09-09,环镇北路与002县道交叉口东北100米,常熟市,苏州市,121.022346,31.703971,新大洲电动车,江苏省,无,新大洲
2019-09-09,长江路58号上城2幢102号,吴中区,苏州市,120.553479,31.262617,新大洲电动车(长江路店),江苏省,15312185279,新大洲
2019-09-09,光明路旁花望新村对面(光明路861号),昆山市,苏州市,121.098479,31.298836,新大洲电动车,江苏省,0512-57692787;13584946233,新大洲
2019-09-09,禹迹路与镇南路交叉口东50米,吴江区,苏州市,120.509404,30.911878,新大洲电动车,江苏省,15851688135,新大洲
2019-09-09,黎里镇金家坝金鼎西路80号,吴江区,苏州市,120.779535,31.092411,新大洲本田电动车,江苏省,无,新大洲
2019-09-09,陆慕镇澄和路48号香城花园一区西门口,相城区,苏州市,120.635112,31.357147,新大洲电动车(澄和路),江苏省,13291191191,新大洲
2019-09-09,中川路中国工商银行对面,吴江区,苏州市,120.717244,31.153004,新大洲电动车(同里店),江苏省,15371833776;15371833774,新大洲
2019-09-09,湖胥马路,吴中区,苏州市,120.478750,31.237054,新大洲电动车(胥口店),江苏省,18913518432,新大洲
2019-09-09,玉山镇震川西路164号,昆山市,苏州市,120.953617,31.377056,新大洲电动车(昆山旗舰店),江苏省,无,新大洲
2019-09-09,陆家镇童泾路155号(近童泾北路),昆山市,苏州市,121.042437,31.316139,新大洲电动车(童泾北路店),江苏省,18913274889,新大洲
2019-09-09,人民南路145-2号,太仓市,苏州市,121.103810,31.451473,新大洲电动车(人民南路),江苏省,13962603538,新大洲
2019-09-09,金狮河沿11号,姑苏区,苏州市,120.618384,31.297327,新大洲电动车,江苏省,18913595725,新大洲
2019-09-09,富元路1400.1402号,相城区,苏州市,120.632912,31.404382,新大洲电动车,江苏省,18013120799,新大洲
2019-09-09,苏州工业园区东沈浒路榭雨苑商业街,苏州工业园区,苏州市,120.759600,31.337448,新大洲电动车,江苏省,15850044780;19941915145,新大洲
2019-09-09,枫舟苑,虎丘区,苏州市,120.550734,31.308222,新大洲电动车,江苏省,无,新大洲
2019-09-09,湄长新村82幢门面,姑苏区,苏州市,120.639019,31.274715,新大洲电动车(湄长店),江苏省,15506187072,新大洲
2019-09-09,,姑苏区,苏州市,120.614570,31.313173,新大洲电动车(苏州姑苏店),江苏省,13914033775,新大洲
2019-09-09,X301(苴沿线),如东县,南通市,121.163524,32.412377,新大洲电动车,江苏省,无,新大洲
2019-09-09,长江西路,如皋市,南通市,120.562616,32.097567,新大洲电动车,江苏省,无,新大洲
2019-09-09,友谊路与流八路交叉口南50米,如皋市,南通市,120.454093,32.371750,新大洲电动车,江苏省,无,新大洲
2019-09-09,卫海北路907附近,如东县,南通市,120.895113,32.530788,新大洲电动车,江苏省,无,新大洲
2019-09-09,交通东路4号北80米,如东县,南通市,120.922011,32.352966,新大洲电动车,江苏省,无,新大洲
2019-09-09,世纪新城55幢105,崇川区,南通市,120.913735,31.985850,新大洲电动车,江苏省,13962916525,新大洲
2019-09-09,011县道附近,如皋市,南通市,120.555727,32.193732,新大洲电动车(吴窑店),江苏省,无,新大洲
2019-09-09,新跃河南路与024县道交叉口西南100米,通州区,南通市,120.826075,32.216194,新大洲电动车,江苏省,无,新大洲
2019-09-09,栟洋路与225省道交叉口西50米,如东县,南通市,120.908090,32.547002,新大洲电动车靖海专卖店,江苏省,无,新大洲
2019-09-09,迎宾北路与203县道交叉口北150米,如东县,南通市,121.089193,32.449541,新大洲电动车,江苏省,无,新大洲
2019-09-09,人民东路9号,崇川区,南通市,120.940615,32.019574,新大洲电动车,江苏省,无,新大洲
2019-09-09,马塘镇农药厂桥南东郊市场,如东县,南通市,121.068485,32.315362,新大洲电动车马塘店,江苏省,无,新大洲
2019-09-09,中华西路与厂洪路交叉口东南150米,海门市,南通市,121.240124,31.894040,新大洲电动车,江苏省,13016765874,新大洲
2019-09-09,新苑华庭4幢101店面房,港闸区,南通市,120.808381,32.054339,新大洲电动车,江苏省,18762757973,新大洲
2019-09-09,文峰街道文峰路15号,崇川区,南通市,120.877642,32.011458,新大洲电动车(文峰路),江苏省,13862948702,新大洲
2019-09-09,洋海线与海天线交叉口西北100米,海门市,南通市,121.118765,31.923172,新大洲电动车(天补佰成专卖店),江苏省,13962833844,新大洲
2019-09-09,建设小区城东路85-86楼2号,如皋市,南通市,120.611558,32.357037,新大洲电动车(城东路),江苏省,13338083703,新大洲
2019-09-09,碧华路体育馆东20米,通州区,南通市,121.080199,32.067890,新大洲,江苏省,无,新大洲
2019-09-09,汇龙镇建新路41号,启东市,南通市,121.664818,31.806245,新大洲电动车(启东旗舰店),江苏省,无,新大洲
2019-09-09,015县道南50米,如东县,南通市,120.888792,32.278132,上海新大洲电动车(汤园店),江苏省,无,新大洲
2019-09-09,七贯路与海保路交叉口南50米,如东县,南通市,121.335673,32.250945,新大洲电动车(马店店),江苏省,无,新大洲
2019-09-09,巿掘港镇芳泉路第四人民医院西100米,如东县,南通市,121.174768,32.298890,新大洲电动车(掘港专卖店),江苏省,无,新大洲
2019-09-09,如港公路西50米,如皋市,南通市,120.552454,32.260775,新大洲电动车,江苏省,无,新大洲
2019-09-09,四总路与221省道交叉口东南50米,如东县,南通市,121.121045,32.468085,新大洲(四总路店),江苏省,13773799596,新大洲
2019-09-09,党政路,东海县,连云港市,118.931927,34.709205,新大洲电动车,江苏省,无,新大洲
2019-09-09,牛山街道菜市街华佛幼儿园西第四间,东海县,连云港市,118.765720,34.520362,新大洲电动车,江苏省,0518-87892567;18961351969,新大洲
2019-09-09,海头镇G204北朱皋村南,赣榆区,连云港市,119.182987,34.952107,新大洲电动车接建车行,江苏省,无,新大洲
2019-09-09,田楼镇田楼街田楼中学东北100米,灌南县,连云港市,119.623912,34.245049,新大洲电动车,江苏省,无,新大洲
2019-09-09,浦湾路与323省道交叉口西150米,东海县,连云港市,118.845780,34.542500,新大洲电动车,江苏省,无,新大洲
2019-09-09,振兴路西50米,东海县,连云港市,118.762524,34.384615,新大洲电动三轮车,江苏省,无,新大洲
2019-09-09,南牛公路东50米,东海县,连云港市,118.769426,34.553450,新大洲电动三轮车,江苏省,无,新大洲
2019-09-09,兴隆路与双拥路交叉口南100米,东海县,连云港市,118.935152,34.568083,新大洲电动三轮车,江苏省,无,新大洲
2019-09-09,,东海县,连云港市,118.710252,34.447647,新大洲电动三轮车,江苏省,无,新大洲
2019-09-09,,盱眙县,淮安市,118.300587,33.040560,新大洲电动车,江苏省,无,新大洲
2019-09-09,清江浦区白云路,清江浦区,淮安市,119.073322,33.542302,新大洲电动车,江苏省,无,新大洲
2019-09-09,盐河路,淮阴区,淮安市,119.101418,33.642765,新大洲电动车,江苏省,无,新大洲
2019-09-09,翔宇大道九龙湾金街B-108,淮安区,淮安市,119.127720,33.539095,新大洲电动车,江苏省,15161710904,新大洲
2019-09-09,北中心街与康乐街交叉口南50米,清江浦区,淮安市,119.070868,33.585989,新大洲电动车(康乐街),江苏省,无,新大洲
2019-09-09,南昌路与水渡口大道交叉口西150米,清江浦区,淮安市,119.063873,33.601386,新大洲电动车,江苏省,15751710227,新大洲
2019-09-09,双塘路与政府路交叉口西南100米,淮阴区,淮安市,118.879070,33.423967,新大洲电动车,江苏省,13915111988,新大洲
2019-09-09,红兰路与望海路交叉路口大润发超市,东台市,盐城市,120.314958,32.852292,新大洲电动车(东台大润发超市),江苏省,无,新大洲
2019-09-09,方大线,大丰区,盐城市,120.456851,33.266847,新大洲电动车,江苏省,18051691183,新大洲
2019-09-09,302县道南50米,滨海县,盐城市,120.103912,33.949771,新大洲电动车(五汛店),江苏省,无,新大洲
2019-09-09,302县道与309县道交叉口北200米,响水县,盐城市,119.589334,34.096419,新大洲电动车,江苏省,无,新大洲
2019-09-09,人民北路503号附近,滨海县,盐城市,119.842413,34.013101,新大洲电动车,江苏省,无,新大洲
2019-09-09,东坎镇迎宾路(三中南校区东50米),滨海县,盐城市,119.862290,34.018735,新大洲电动车,江苏省,无,新大洲
2019-09-09,东风北路55号,阜宁县,盐城市,119.807318,33.778968,新大洲电动车,江苏省,无,新大洲
2019-09-09,大庆西路152号附近,亭湖区,盐城市,120.134446,33.369841,新大洲电动车,江苏省,无,新大洲
2019-09-09,八滩中路与沿河路交叉口西100米,滨海县,盐城市,120.076370,34.141153,新大洲金邦电动车专卖及维修,江苏省,无,新大洲
2019-09-09,英才路与226省道交叉口北150米,滨海县,盐城市,120.098416,34.265684,新大洲电动车专卖,江苏省,无,新大洲
2019-09-09,阜城大街156号,阜宁县,盐城市,119.793082,33.782529,新大洲电动车(阜宁总店),江苏省,无,新大洲
2019-09-09,峰峰路329号附近,东台市,盐城市,120.290361,32.868224,新大洲电动车(峰峰路店),江苏省,无,新大洲
2019-09-09,通济路3号,亭湖区,盐城市,120.227381,33.306730,新大洲电动车(伍佑店),江苏省,15951552625,新大洲
2019-09-09,北环路辅路东100米,亭湖区,盐城市,120.106826,33.400631,小刀电动车大卖场,江苏省,无,新大洲
2019-09-09,青墩接线,亭湖区,盐城市,120.186384,33.493109,新大洲电动车,江苏省,无,新大洲
2019-09-09,建军东路88-13号,亭湖区,盐城市,120.162658,33.388249,新大洲豪顺电动车,江苏省,无,新大洲
2019-09-09,小尖镇唐豫河大桥南,响水县,盐城市,119.666471,34.120071,新大洲电动车,江苏省,无,新大洲
2019-09-09,沟墩镇阜阳西路49号,阜宁县,盐城市,119.885383,33.676967,新大洲电动车,江苏省,无,新大洲
2019-09-09,卧龙路南50米,盐都区,盐城市,120.107932,33.187430,新大洲电动车,江苏省,13912503121,新大洲
2019-09-09,黄山路与青年路交接口向南绿地二期西大门口,亭湖区,盐城市,120.209325,33.393711,新大洲电动车,江苏省,15251052012,新大洲
2019-09-09,文峰街道大庆路芝林广场东北50米,亭湖区,盐城市,120.141364,33.371547,新大洲电动车,江苏省,13382617731,新大洲
2019-09-09,人民南路170-5号附近,大丰区,盐城市,120.464166,33.191489,新大洲电动车,江苏省,无,新大洲
2019-09-09,伍佑街道人民北路6-2号,亭湖区,盐城市,120.144065,33.385104,新大洲电动车,江苏省,13382617770,新大洲
2019-09-09,建业路与永张线交叉口西南200米,盐都区,盐城市,120.077270,33.371241,新大洲电动车,江苏省,无,新大洲
2019-09-09,振阳街16附近,射阳县,盐城市,120.256590,33.766261,新大洲电动车(射阳店),江苏省,0515-82321456;15151059932,新大洲
2019-09-09,建业路267号附近,射阳县,盐城市,120.023151,33.815728,新大洲电动车,江苏省,无,新大洲
2019-09-09,大纵湖镇义丰镇人民中路101号镇政府东侧,盐都区,盐城市,119.855700,33.226687,新大洲电动车,江苏省,无,新大洲
2019-09-09,城北路与环城路交叉口东南50米,滨海县,盐城市,119.864610,34.021170,新大洲电动车,江苏省,18914631478,新大洲
2019-09-09,301县道西50米,滨海县,盐城市,120.191809,34.221088,新大洲电动车(淮民社区卫生服务站西南),江苏省,无,新大洲
2019-09-09,双拥北路东50米,射阳县,盐城市,120.264805,33.785781,新大洲电动车,江苏省,无,新大洲
2019-09-09,202县道与振东路交叉口南50米,滨海县,盐城市,120.229158,34.139657,新大洲电动车(振东店),江苏省,13512593229,新大洲
2019-09-09,沿河路与老街东路交叉口西北50米,滨海县,盐城市,120.076616,34.142425,新大洲电动车(八滩旗舰店),江苏省,无,新大洲
2019-09-09,S226(曹华路),东台市,盐城市,120.673518,32.862383,新大洲电动车(东台曹丿店),江苏省,无,新大洲
2019-09-09,发鸿街东50米,射阳县,盐城市,120.255442,33.805143,新大洲电动车,江苏省,15950336851,新大洲
2019-09-09,盘湾路145号,射阳县,盐城市,120.196439,33.537076,新大洲电动车,江苏省,无,新大洲
2019-09-09,兴建西路与徐西路交叉口东100米,建湖县,盐城市,119.790897,33.471626,新大洲电动车,江苏省,13962028758,新大洲
2019-09-09,头富街中街与新镇西路交叉口西北50米,东台市,盐城市,120.553769,32.889002,新大洲(头富街中街店),江苏省,无,新大洲
2019-09-09,人民北路36号,滨海县,盐城市,119.837209,34.004432,新大洲电动车(滨海旗舰店),江苏省,13912588576,新大洲
2019-09-09,冈合西路40号附近,射阳县,盐城市,120.230007,33.670147,新大洲电动车(新兴路),江苏省,无,新大洲
2019-09-09,政府路与梁台路交叉口西北200米,东台市,盐城市,120.369395,32.772909,新大洲电动车(梁垛店),江苏省,无,新大洲
2019-09-09,小佃线北50米,响水县,盐城市,119.649379,34.046011,新大洲电动车,江苏省,无,新大洲
2019-09-09,人民东路55号附近,射阳县,盐城市,120.312834,33.776267,新大洲电动车(张网店),江苏省,13357999605,新大洲
2019-09-09,丝绸路与五汛中路交叉口东150米,滨海县,盐城市,120.087838,33.949481,新大洲电动车(五汛旗舰店),江苏省,15961915258,新大洲
2019-09-09,红旗西大街67号附近,邗江区,扬州市,119.375031,32.361514,新大洲电动车,江苏省,无,新大洲
2019-09-09,X105(施桥北路),邗江区,扬州市,119.461757,32.317105,新大洲电动车,江苏省,无,新大洲
2019-09-09,人民东路,邗江区,扬州市,119.356236,32.585369,新大洲电动车,江苏省,无,新大洲
2019-09-09,司徒庙路90号附近,邗江区,扬州市,119.399977,32.425735,新大洲电动车,江苏省,无,新大洲
2019-09-09,安宜东路107附近,宝应县,扬州市,119.326996,33.235877,新大洲电动车宝应专卖店,江苏省,无,新大洲
2019-09-09,中兴路333号附近,高邮市,扬州市,119.582542,32.678323,新大洲电动车,江苏省,无,新大洲
2019-09-09,泰山西路94号,宝应县,扬州市,119.313115,33.242590,新大洲电动车,江苏省,无,新大洲
2019-09-09,202县道与302县道交叉口南100米,江都区,扬州市,119.783638,32.709037,新大洲电动车,江苏省,无,新大洲
2019-09-09,三阳南路与富南路交叉口东北50米,高邮市,扬州市,119.673045,32.759260,新大洲电动车(杰宝大王电动车),江苏省,无,新大洲
2019-09-09,真武镇振兴南路68号林南桥桥南,江都区,扬州市,119.580570,32.610073,新大洲电动车,江苏省,无,新大洲
2019-09-09,305县道北50米,高邮市,扬州市,119.524915,32.776961,新大洲电动车,江苏省,13151144260,新大洲
2019-09-09,泰北路88-13号,高邮市,扬州市,119.463424,32.797977,新大洲电动车(秦邮嘉园专卖店),江苏省,13651628856;15252507257,新大洲
2019-09-09,真州镇人民街75号,仪征市,扬州市,119.180787,32.268808,新大洲电动车(仪征专卖店),江苏省,无,新大洲
2019-09-09,乔三司路与少游路交叉口东50米,高邮市,扬州市,119.668948,32.816708,新大洲电动车,江苏省,无,新大洲
2019-09-09,安宜镇安宜嘉苑16幢8198号,宝应县,扬州市,119.307841,33.253683,新大洲电动车(安宜专卖店),江苏省,15152709292,新大洲
2019-09-09,汶河南路15号,广陵区,扬州市,119.433156,32.386290,新大洲电动车(扬州专卖店),江苏省,无,新大洲
2019-09-09,梦溪路与绿竹巷交叉口南100米,京口区,镇江市,119.466035,32.211583,新大洲电动车,江苏省,无,新大洲
2019-09-09,康庄路与305县道交叉口东150米,句容市,镇江市,119.126646,31.806795,新大洲电动车,江苏省,无,新大洲
2019-09-09,后茅路与春天路交叉口东南150米,句容市,镇江市,119.241010,31.791990,新大洲,江苏省,无,新大洲
2019-09-09,丹北镇香樟苑,丹阳市,镇江市,119.778829,32.091176,新大洲电动车(香樟苑店),江苏省,无,新大洲
2019-09-09,镇北路与镇西路交叉口东50米,丹阳市,镇江市,119.598240,32.029025,新大洲电动车(镇东路),江苏省,无,新大洲
2019-09-09,东寰路与铜龙省道交叉口东北50米,句容市,镇江市,119.044194,32.121854,电动车专卖,江苏省,无,新大洲
2019-09-09,华阳镇开发区开发区西转盘,句容市,镇江市,119.154265,31.943067,新大洲电动车,江苏省,无,新大洲
2019-09-09,天王镇家易发购物中心南侧,句容市,镇江市,119.211057,31.742773,新大洲电动车,江苏省,无,新大洲
2019-09-09,开发区黄梅集镇农村商业银行旁,句容市,镇江市,119.120867,31.997086,新大洲电动车,江苏省,无,新大洲
2019-09-09,英特电脑(句容市郭庄镇政府东),句容市,镇江市,119.037816,31.805940,新大洲电动车店,江苏省,无,新大洲
2019-09-09,宝龙大道与崇文路交叉口西50米,句容市,镇江市,119.040625,32.144043,新大洲电动车(宝龙大道店),江苏省,无,新大洲
2019-09-09,济川街道大生村王溪1号,泰兴市,泰州市,119.987873,32.129967,大生新大洲电动车,江苏省,无,新大洲
2019-09-09,鼓楼西路57号江平小学斜对面,泰兴市,泰州市,120.007113,32.164751,新大洲电动车,江苏省,无,新大洲
2019-09-09,通姜路与金诚街交叉口西南50米,姜堰区,泰州市,120.050272,32.405668,新大洲电动车,江苏省,无,新大洲
2019-09-09,青年北路20号附近,海陵区,泰州市,119.913439,32.485393,新大洲电动车(青年北路店),江苏省,0523-82086080,新大洲
2019-09-09,X207(北星路),姜堰区,泰州市,119.870428,32.579887,新大洲专卖,江苏省,无,新大洲
2019-09-09,阳江中路172附近,泰兴市,泰州市,120.012660,32.194625,新大洲,江苏省,无,新大洲
2019-09-09,黄桥镇文明路泰兴第二人民医院东50米,泰兴市,泰州市,120.239598,32.240117,新大洲电动车,江苏省,13775780828,新大洲
2019-09-09,马厂西路171号附近,姜堰区,泰州市,120.132766,32.512357,新大洲电动车,江苏省,无,新大洲
2019-09-09,金港中路170号,高港区,泰州市,119.878467,32.315535,新大洲电动车,江苏省,13505123542,新大洲
2019-09-09,九顷北路西50米,兴化市,泰州市,119.851504,32.951274,新大洲电动车(万嘉名城店),江苏省,15861083066,新大洲
2019-09-09,永安洲镇新洲东路43号,高港区,泰州市,119.922412,32.229337,新大洲电动车(永安店),江苏省,13852603055,新大洲
2019-09-09,国庆东路37号,泰兴市,泰州市,120.024782,32.166118,新大洲电动车,江苏省,无,新大洲
2019-09-09,创业路339号(利民超市旁),兴化市,泰州市,119.841833,32.888746,新大洲电动车,江苏省,13852875818,新大洲
2019-09-09,老城黄线与208县道交叉口西100米,泰兴市,泰州市,120.083565,32.160961,新大洲电动车,江苏省,无,新大洲
2019-09-09,双园路与229省道交叉口南200米,姜堰区,泰州市,120.173231,32.365300,新大洲电动车(金彭电动三轮车),江苏省,无,新大洲
2019-09-09,许庄街道三星北路111号,高港区,泰州市,119.914756,32.353525,新大洲电动车,江苏省,15052344475,新大洲
2019-09-09,电厂路与336省道交叉口西北150米,泰兴市,泰州市,119.972794,32.232811,新大洲电动车,江苏省,无,新大洲
2019-09-09,苏陈社区俞张线苏陈镇公交站东北50米,海陵区,泰州市,120.020382,32.499357,新大洲电动车,江苏省,无,新大洲
2019-09-09,戴南大道与311县道交叉口东100米,兴化市,泰州市,120.074163,32.741975,新大洲电动车(兴源购物中心东),江苏省,无,新大洲
2019-09-09,金马大街与陈岱线交叉口西150米,高港区,泰州市,119.975304,32.419811,新大洲电动车,江苏省,无,新大洲
2019-09-09,水乡路3号,兴化市,泰州市,119.851454,32.950812,万嘉茶庄,江苏省,15052362296;18061050171,新大洲
2019-09-09,实小东巷与建设路交叉口西南50米,兴化市,泰州市,119.841206,32.937126,新大洲电动车(兴化专卖店),江苏省,无,新大洲
2019-09-09,王舍路与229省道交叉口北150米,姜堰区,泰州市,120.165277,32.443193,新大洲电动车,江苏省,无,新大洲
2019-09-09,港城花苑21幢,高港区,泰州市,119.877868,32.321245,新大洲电动车,江苏省,无,新大洲
2019-09-09,南湖街道苏奥电商产业园南门104号,沭阳县,宿迁市,118.773001,34.075129,新大洲电动车,江苏省,无,新大洲
2019-09-09,青阳小学对面,泗洪县,宿迁市,118.225003,33.462706,新大洲电动车,江苏省,无,新大洲
2019-09-09,经济开发区庐山路2号富建名河雅居东门,宿豫区,宿迁市,118.317508,33.932283,新大洲电动车,江苏省,无,新大洲
2019-09-09,梅府路南50米,泗洪县,宿迁市,118.198714,33.595800,新大洲电动车,江苏省,无,新大洲
2019-09-09,德圣街29号附近,宿城区,宿迁市,118.189277,33.911964,新大洲电动车,江苏省,无,新大洲
2019-09-09,742乡道北50米,沭阳县,宿迁市,118.871239,34.275607,新大洲电动车,江苏省,无,新大洲
2019-09-09,192乡道与196乡道交叉口东北100米,泗洪县,宿迁市,118.298951,33.307787,新大洲电动车,江苏省,无,新大洲
2019-09-09,重峰线,泗洪县,宿迁市,118.133242,33.423033,新大洲电动车,江苏省,15061450066,新大洲
2019-09-09,北京北路13号南50米,沭阳县,宿迁市,118.772392,34.129639,新大洲电动车,江苏省,无,新大洲
2019-09-09,快乐购生活购物中心东北,泗洪县,宿迁市,118.200331,33.670779,新大洲电动车,江苏省,无,新大洲
2019-09-09,富康大道192号附近,宿城区,宿迁市,118.283034,33.933046,新大洲电动车直营店,江苏省,无,新大洲
2019-09-09,人民路与府前路交叉口东50米,宿豫区,宿迁市,118.490437,34.042484,新大洲电动车,江苏省,无,新大洲
2019-09-09,扬子江路与龙虎山路交叉口东北50米,宿豫区,宿迁市,118.359390,33.931110,新大洲电动车专卖店,江苏省,无,新大洲
2019-09-09,水岸城邦内街,泗洪县,宿迁市,118.221899,33.454670,新大洲电动车(泗洪专卖店),江苏省,无,新大洲
2019-09-09,205国道与928乡道交叉口西北100米,沭阳县,宿迁市,118.750605,34.164368,新大洲电动车,江苏省,18796499789,新大洲
2019-09-09,桃园南路与104县道交叉口西北100米,泗洪县,宿迁市,118.121341,33.338329,新大洲电动车,江苏省,无,新大洲
2019-09-09,江南镇窄溪西路205号,桐庐县,杭州市,119.766369,29.865353,新大洲电动车,浙江省,无,新大洲
2019-09-09,塘栖路370-1号附近,余杭区,杭州市,120.195558,30.477851,新大洲电动车,浙江省,0571-89020132,新大洲
2019-09-09,回龙路41-8号附近,下城区,杭州市,120.186028,30.331803,新大洲电动车,浙江省,15167168248,新大洲
2019-09-09,丁桥镇长睦路420号,江干区,杭州市,120.230961,30.368164,新大洲电动车,浙江省,无,新大洲
2019-09-09,孩儿巷88号,下城区,杭州市,120.166658,30.261838,新大洲(孩儿巷),浙江省,无,新大洲
2019-09-09,梦园街与镇北路交叉口东150米,西湖区,杭州市,120.072386,30.161414,新大洲电动车专卖店,浙江省,无,新大洲
2019-09-09,宝华路与海通街交叉口东100米,江干区,杭州市,120.305093,30.301753,新大洲电动车,浙江省,无,新大洲
2019-09-09,商乐街74-76号,萧山区,杭州市,120.289472,30.167838,新大洲电动车,浙江省,无,新大洲
2019-09-09,天城东路与4号大街交叉口西北100米,江干区,杭州市,120.337664,30.305916,新大洲电动车,浙江省,13656670965,新大洲
2019-09-09,丰潭路258号,西湖区,杭州市,120.109228,30.282601,新大洲电动车(丰潭路店),浙江省,15168325677;13656647868,新大洲
2019-09-09,滨兴路迎春小区门店97、98号,滨江区,杭州市,120.223121,30.195236,新大洲(迎春小区店),浙江省,15356710575,新大洲
2019-09-09,仁和街道云会村茅家坟49号,余杭区,杭州市,120.095732,30.405190,新大洲电动车,浙江省,无,新大洲
2019-09-09,三墩镇城北商贸园44幢西111号,西湖区,杭州市,120.091824,30.310891,新大洲电动车,浙江省,13656636841,新大洲
2019-09-09,长兴路与长江路交叉口东100米,滨江区,杭州市,120.191652,30.177516,新大洲电动车(长河店),浙江省,18368880566,新大洲
2019-09-09,杭行路与祥运路交叉口北200米,余杭区,杭州市,120.116581,30.340161,新大洲电动车,浙江省,13735466661,新大洲
2019-09-09,邱山大街148-152号附近,余杭区,杭州市,120.296436,30.419616,新大洲电动车(邱山大街店),浙江省,无,新大洲
2019-09-09,三合路与华中路交叉口西南50米,下城区,杭州市,120.201491,30.325383,新大洲电动车,浙江省,无,新大洲
2019-09-09,石桥路与秋石快速路入口交叉口西北50米,下城区,杭州市,120.193423,30.321206,新大洲电动车,浙江省,无,新大洲
2019-09-09,金禾街166号靠近西园琴行,江干区,杭州市,120.277666,30.308382,新大洲,浙江省,无,新大洲
2019-09-09,绍兴路与香积寺路交叉口西50米,下城区,杭州市,120.161252,30.304906,新大洲电动车(香积寺路),浙江省,无,新大洲
2019-09-09,富春路46号附近,桐庐县,杭州市,119.672454,29.795648,新大洲电动车(塔坞路),浙江省,无,新大洲
2019-09-09,德胜路302号,拱墅区,杭州市,120.154435,30.293136,新大洲电动车,浙江省,13588102821,新大洲
2019-09-09,浦沿街道东冠公寓8号楼,滨江区,杭州市,120.162297,30.165976,新大洲电动车(东冠路),浙江省,无,新大洲
2019-09-09,浦沿街道新浦路131号,滨江区,杭州市,120.150932,30.156598,新大洲电动车(新浦路店),浙江省,无,新大洲
2019-09-09,转塘街道转塘直街建设弄5幢1单元新大洲车行,西湖区,杭州市,120.081186,30.159679,新大洲电动车(转塘店),浙江省,15168258405,新大洲
2019-09-09,庆春路16号,下城区,杭州市,120.186217,30.258186,新大洲电动车(庆春路店),浙江省,无,新大洲
2019-09-09,九堡镇九横路宣家埠一区50号,江干区,杭州市,120.262596,30.329062,新大洲专卖店,浙江省,无,新大洲
2019-09-09,婺江路336号,上城区,杭州市,120.195224,30.233388,新大洲电动车(婺江路店),浙江省,18658137347,新大洲
2019-09-09,文新街道文一西路362号362号,西湖区,杭州市,120.095115,30.286873,新大洲电动车,浙江省,无,新大洲
2019-09-09,安西线与莫干山路交叉口东150米,余杭区,杭州市,120.047297,30.379063,新大洲电动车,浙江省,无,新大洲
2019-09-09,兴达路16-4号,富阳区,杭州市,119.945990,30.057244,新大洲电动车(富阳专卖店),浙江省,13362112965;18758126118;13357111728,新大洲
2019-09-09,文二路306号华东电动车市场内25号摊位,西湖区,杭州市,120.127042,30.282823,新大州电动车,浙江省,无,新大洲
2019-09-09,三墩镇灯彩街400号,西湖区,杭州市,120.076673,30.324785,新大洲电动车旗舰店,浙江省,无,新大洲
2019-09-09,南苑街151号,海曙区,宁波市,121.527898,29.849912,新大洲电动车,浙江省,无,新大洲
2019-09-09,"蛟川街道镇宁西路徐家80号,新大洲电动车专卖店",镇海区,宁波市,121.663358,29.922335,新大洲电动车,浙江省,无,新大洲
2019-09-09,俞范东路673-14号附近,镇海区,宁波市,121.676728,29.962601,新大洲电动车,浙江省,无,新大洲
2019-09-09,古林镇环城路69号,海曙区,宁波市,121.433099,29.827661,新大洲电动车,浙江省,无,新大洲
2019-09-09,集士西路25-1号,海曙区,宁波市,121.435893,29.866542,新大洲电动车,浙江省,18967671516,新大洲
2019-09-09,邱隘镇盛莫路570号,鄞州区,宁波市,121.634174,29.843812,新大洲电动车,浙江省,无,新大洲
2019-09-09,新大路138号(阳光假日宾馆旁边),北仑区,宁波市,121.831143,29.907704,新大洲电动车,浙江省,无,新大洲
2019-09-09,梅墟路与镇兴路交叉口东南50米,鄞州区,宁波市,121.653546,29.898917,新大洲电动车,浙江省,无,新大洲
2019-09-09,洪都路287号附近,江北区,宁波市,121.508505,29.928943,新大洲电动车,浙江省,无,新大洲
2019-09-09,寻海路与洋沙山西二路交叉口东50米,北仑区,宁波市,121.898306,29.759688,新大洲电动车,浙江省,15757457087,新大洲
2019-09-09,狮子街46号附近,海曙区,宁波市,121.555036,29.863155,新大洲电动车,浙江省,无,新大洲
2019-09-09,高塘街花样旱冰场旁国鑫宾馆对面,北仑区,宁波市,121.793065,29.925100,新大洲电动车,浙江省,无,新大洲
2019-09-09,鄞奉路882号,海曙区,宁波市,121.523600,29.837328,新大洲电动车,浙江省,13095944651;18989302653,新大洲
2019-09-09,桥北街65号建发超市旁,北仑区,宁波市,121.746040,29.951904,新大洲电动车,浙江省,无,新大洲
2019-09-09,妙英段西50米,江北区,宁波市,121.424370,29.998249,新大洲电动车专卖,浙江省,无,新大洲
2019-09-09,桑田路212号附近,鄞州区,宁波市,121.592664,29.876809,新大洲电动车,浙江省,0574-87761633,新大洲
2019-09-09,梅墟梅景路504号,鄞州区,宁波市,121.657873,29.886975,新大洲电动车(梅墟路),浙江省,无,新大洲
2019-09-09,坝头路33号35号,北仑区,宁波市,121.809766,29.887875,新大洲电动车,浙江省,无,新大洲
2019-09-09,沿山河南路223号附近,北仑区,宁波市,121.768956,29.874469,新大洲电动车,浙江省,无,新大洲
2019-09-09,人民大道137号,宁海县,宁波市,121.437911,29.293495,新大洲电动车(人民大道),浙江省,无,新大洲
2019-09-09,周江岸路与环城西路交叉口西南50米,海曙区,宁波市,121.521885,29.874133,新大洲电动车(周江岸路),浙江省,无,新大洲
2019-09-09,宁横路1136号,鄞州区,宁波市,121.589070,29.836063,新大洲电动车(沧海路),浙江省,无,新大洲
2019-09-09,甬江南路217号附近,北仑区,宁波市,121.789980,29.903561,新大洲电动车(甬江南路店),浙江省,13857463503,新大洲
2019-09-09,大榭街道兴岛南路396号,北仑区,宁波市,121.965854,29.900148,新大洲电动车(大榭专卖店),浙江省,13777039771,新大洲
2019-09-09,观海卫镇三北东路724号,慈溪市,宁波市,121.420937,30.152906,新大洲电动车(盛昭路),浙江省,无,新大洲
2019-09-09,公建路与许家堰路交叉口南50米,余姚市,宁波市,121.147291,30.160195,新大洲电动车,浙江省,无,新大洲
2019-09-09,中山南路6号,余姚市,宁波市,121.346662,30.027678,新大洲电动车(中山南路店),浙江省,13336868632,新大洲
2019-09-09,江南东路698号附近,北仑区,宁波市,121.723022,29.939062,新大洲电动车(渡口路店),浙江省,无,新大洲
2019-09-09,庐山中路与芦山路交叉口西北150米,北仑区,宁波市,121.806449,29.897567,新大洲电动车(庐山中路店),浙江省,0574-86114088,新大洲
2019-09-09,新浦镇新胜路101-105号,慈溪市,宁波市,121.369396,30.244687,博丽车行专卖(新胜路店),浙江省,0574-82389200,新大洲
2019-09-09,阳明西路169-2号,余姚市,宁波市,121.149073,30.049764,新大洲电动车(阳明西路店),浙江省,0574-62647958,新大洲
2019-09-09,惊驾路84号,鄞州区,宁波市,121.573086,29.876506,新大洲电动车,浙江省,13600623504,新大洲
2019-09-09,庄市街道兆龙625-627,镇海区,宁波市,121.612959,29.925371,浩宇车行新大洲电动车,浙江省,18667427837,新大洲
2019-09-09,宁城街61号附近,龙湾区,温州市,120.847262,27.923851,新大洲电动车,浙江省,无,新大洲
2019-09-09,郭溪塘下景德东路482号景德东路482号邮政局对面,瓯海区,温州市,120.574498,27.990858,新大洲电动车店,浙江省,无,新大洲
2019-09-09,灵溪镇望鹤路401-403号,苍南县,温州市,120.404422,27.509713,新大洲电动车,浙江省,0577-68622053,新大洲
2019-09-09,桥埭路,南湖区,嘉兴市,120.836120,30.807602,新大洲电动车,浙江省,无,新大洲
2019-09-09,百桃开发区晏城路73号,桐乡市,嘉兴市,120.575031,30.608663,新大洲电动车,浙江省,无,新大洲
2019-09-09,梅嘉路285南50米,秀洲区,嘉兴市,120.712568,30.625776,新大洲电动车,浙江省,无,新大洲
2019-09-09,凤桥镇凤飞路老汽车站对面,南湖区,嘉兴市,120.857347,30.660426,新大洲电动车,浙江省,无,新大洲
2019-09-09,禾兴北路95号,南湖区,嘉兴市,120.746873,30.775538,新大洲电动车,浙江省,0573-82219826,新大洲
2019-09-09,洪合镇洪运路486号,秀洲区,嘉兴市,120.660269,30.681516,洪合镇新大洲电动车旗舰店,浙江省,13362439691,新大洲
2019-09-09,滨西路文华小区985号楼底商,桐乡市,嘉兴市,120.527065,30.608301,新大洲电动车,浙江省,13857309026,新大洲
2019-09-09,凯旋路与建园路交叉口东南50米,桐乡市,嘉兴市,120.619615,30.673566,新大洲电动车,浙江省,无,新大洲
2019-09-09,硖仲路225号附近,海宁市,嘉兴市,120.661502,30.527442,新大洲电动车,浙江省,无,新大洲
2019-09-09,新洛东路232-234,秀洲区,嘉兴市,120.614987,30.798709,新大洲电动车(新洛东路店),浙江省,无,新大洲
2019-09-09,解放西路368-374号,嘉善县,嘉兴市,120.915333,30.845081,新大洲电动车(解放西路店),浙江省,无,新大洲
2019-09-09,硖川路126-130号,海宁市,嘉兴市,120.711469,30.538478,新大洲电动车专卖店(硖川路店),浙江省,无,新大洲
2019-09-09,乾元镇龙门街19号,德清县,湖州市,120.085799,30.539076,天能电池新大洲电动车(德清专卖店),浙江省,13058947333,新大洲
2019-09-09,大教场沿与鲁迅西路交叉口西北100米,越城区,绍兴市,120.573032,29.994227,新大洲电动车,浙江省,无,新大洲
2019-09-09,东浦街道东浦镇金家村村委会,越城区,绍兴市,120.524579,30.056157,新大洲电动车,浙江省,无,新大洲
2019-09-09,北海路北海花园3幢,越城区,绍兴市,120.571926,30.008788,新大洲专卖店,浙江省,13106353028,新大洲
2019-09-09,北海街道荷塘月色小区,越城区,绍兴市,120.566762,30.005803,绍兴市越城区勇子电动车商行,浙江省,18267563158,新大洲
2019-09-09,510县道与511县道交叉口东北100米,上虞区,绍兴市,120.849333,30.096032,新大洲电动车,浙江省,无,新大洲
2019-09-09,保尔路,浦江县,金华市,119.947881,29.459273,新大洲电动车,浙江省,18266925080,新大洲
2019-09-09,城西街道桥头村20号陈龙摩托车修理,义乌市,金华市,119.973122,29.289634,新大洲电动车店,浙江省,无,新大洲
2019-09-09,南市路171号,东阳市,金华市,120.233844,29.253288,新大洲电动车(东阳店),浙江省,13967991175,新大洲
2019-09-09,沈家东迹大道189号,衢江区,衢州市,118.937737,28.964350,新大洲电动车专卖店,浙江省,无,新大洲
2019-09-09,小南海镇大众路56号加油站对面,龙游县,衢州市,119.171870,29.055796,新大洲电动车,浙江省,无,新大洲
2019-09-09,东迹大道189号附近,衢江区,衢州市,118.937610,28.964300,三信车行,浙江省,无,新大洲
2019-09-09,东河北路35-37号佳捷时电动车,定海区,舟山市,122.118913,30.017129,新大洲电动车,浙江省,无,新大洲
2019-09-09,,瑶海区,合肥市,117.364279,31.840266,新大洲电动车,安徽省,无,新大洲
2019-09-09,,肥西县,合肥市,117.196387,31.794156,新大洲电动车,安徽省,无,新大洲
2019-09-09,金梅路,长丰县,合肥市,117.251799,31.974828,新大洲电动车,安徽省,无,新大洲
2019-09-09,习友路附近,蜀山区,合肥市,117.217621,31.799846,新大洲电动车,安徽省,无,新大洲
2019-09-09,长江西路397-2号附近,蜀山区,合肥市,117.236865,31.850797,新大洲电动车,安徽省,无,新大洲
2019-09-09,临泉东路附近,瑶海区,合肥市,117.360126,31.874925,新大洲电动车,安徽省,无,新大洲
2019-09-09,亳州路201号附近,庐阳区,合肥市,117.262495,31.879631,新大洲电动车,安徽省,无,新大洲
2019-09-09,包公路225号附近,肥西县,合肥市,117.177488,31.731934,新大洲电动车,安徽省,无,新大洲
2019-09-09,莲花路天门湖花园18栋2-102门面房,蜀山区,合肥市,117.230759,31.743006,新大洲电动车(莲花路店),安徽省,无,新大洲
2019-09-09,龙图路和潜口路的交叉口附近,包河区,合肥市,117.280472,31.805076,新大洲电动车,安徽省,无,新大洲
2019-09-09,繁华大道53号附近,包河区,合肥市,117.322505,31.794672,新大洲电动车,安徽省,无,新大洲
2019-09-09,龙王店路,庐阳区,合肥市,117.232293,31.903180,新大洲电动车,安徽省,无,新大洲
2019-09-09,合作化南路102号,蜀山区,合肥市,117.251470,31.844943,新大洲电动车,安徽省,18019992224,新大洲
2019-09-09,金寨路高架桥东南,包河区,合肥市,117.243955,31.803112,新大洲电动车,安徽省,无,新大洲
2019-09-09,芙蓉社区翠微苑西门石鼓路87号,蜀山区,合肥市,117.205430,31.786392,新大洲电动车,安徽省,无,新大洲
2019-09-09,双凤工业区北城世纪城一期鸿徽苑商铺S1-109号,长丰县,合肥市,117.245478,32.000451,新大洲电动车(北城店),安徽省,无,新大洲
2019-09-09,蒙城路21号小区(城隍庙西门斜对面合肥大药房旁),庐阳区,合肥市,117.276527,31.864920,新大洲电动车(蒙城路店),安徽省,13966658175,新大洲
2019-09-09,069县道西50米,庐江县,合肥市,117.213755,31.301827,新大洲电动车,安徽省,无,新大洲
2019-09-09,五里路875-1,庐江县,合肥市,117.276404,31.269466,新大洲电动车,安徽省,无,新大洲
2019-09-09,集贤路附近,肥西县,合肥市,117.152582,31.738246,新大洲电动车,安徽省,无,新大洲
2019-09-09,通济桥与沿河西路交叉口西南50米,肥东县,合肥市,117.463902,31.882138,新大洲电动车(龙泉路),安徽省,无,新大洲
2019-09-09,蒙城路与安庆路交口100米路西,庐阳区,合肥市,117.276155,31.863412,新大洲电动车(安捷专卖店),安徽省,无,新大洲
2019-09-09,史河路与青阳路交叉口东50米,蜀山区,合肥市,117.241028,31.862265,新大洲电动车(青阳路店),安徽省,13063499135,新大洲
2019-09-09,岳西路贵池路向南100米,蜀山区,合肥市,117.225480,31.844409,新大洲电动车,安徽省,18656975612,新大洲
2019-09-09,明珠华庭小区大门口,蜀山区,合肥市,117.231096,31.764389,新大洲电动车,安徽省,18156063848,新大洲
2019-09-09,S321(芜铜路),繁昌县,芜湖市,118.116512,31.052422,新大洲电动车,安徽省,13045660117,新大洲
2019-09-09,渡江大道,繁昌县,芜湖市,118.203097,31.083979,新大洲电动车,安徽省,13083215524,新大洲
2019-09-09,,无为县,芜湖市,118.017725,31.299884,新大洲电动车新河总经销,安徽省,无,新大洲
2019-09-09,104省道东50米,芜湖县,芜湖市,118.622075,31.074535,新大洲电动车,安徽省,无,新大洲
2019-09-09,万春花园2多层51栋,鸠江区,芜湖市,118.493519,31.367740,新大洲电动车专卖店,安徽省,无,新大洲
2019-09-09,惠民北路109号,南陵县,芜湖市,118.337851,30.922475,新大洲专卖,安徽省,无,新大洲
2019-09-09,025乡道与320省道交叉口西200米,南陵县,芜湖市,118.163673,30.951290,新大洲电动车,安徽省,无,新大洲
2019-09-09,芜屯北路31号,芜湖县,芜湖市,118.568364,31.153435,新大洲专卖店,安徽省,无,新大洲
2019-09-09,保丰路与芜屯路交叉口西北100米,芜湖县,芜湖市,118.543179,31.241585,新大洲电动车,安徽省,13956215679,新大洲
2019-09-09,半边街与迎江大道交叉口东50米,鸠江区,芜湖市,118.232468,31.461146,上海新大洲电动车,安徽省,0553-5360287,新大洲
2019-09-09,米市街108号附近,无为县,芜湖市,117.919657,31.297246,新大洲电动车(江苏宗申电动三轮车专卖),安徽省,无,新大洲
2019-09-09,五里岗路与秋浦大道交叉口东北100米附近,南陵县,芜湖市,118.323313,30.900722,新大洲电动车,安徽省,无,新大洲
2019-09-09,银湖中路50-15号,镜湖区,芜湖市,118.375198,31.351793,新大洲电动车芜湖总代理,安徽省,0553-5018462,新大洲
2019-09-09,城关镇祥源星河国际红树湾小区东门,五河县,蚌埠市,117.892620,33.143727,新大洲电动车,安徽省,无,新大洲
2019-09-09,解放街道淮河东路途汽车站东五洲男科医院内,龙子湖区,蚌埠市,117.388323,32.942928,新大洲电动车,安徽省,无,新大洲
2019-09-09,涂山路619附近,禹会区,蚌埠市,117.334090,32.928751,新大洲电动车,安徽省,0552-4082766,新大洲
2019-09-09,138乡道北100米,固镇县,蚌埠市,117.467195,33.098884,新大洲电动车(王庄店),安徽省,15255219070,新大洲
2019-09-09,东风路与谷阳路交叉口北100米,固镇县,蚌埠市,117.324365,33.320072,新大洲电动车,安徽省,无,新大洲
2019-09-09,021县道与024县道交叉口东南150米,寿县,淮南市,116.879982,32.070755,新大洲电动车,安徽省,无,新大洲
2019-09-09,寿春路西50米,寿县,淮南市,116.784046,32.559745,新大洲电动车,安徽省,无,新大洲
2019-09-09,S308(八公山路),八公山区,淮南市,116.839888,32.629119,新大洲电动车,安徽省,18715686799,新大洲
2019-09-09,城关镇烟草局对面,凤台县,淮南市,116.719185,32.710991,新大洲电动车(凤台店),安徽省,无,新大洲
2019-09-09,石桥镇工业区18号,当涂县,马鞍山市,118.607470,31.424338,林峰电动车,安徽省,13053219575,新大洲
2019-09-09,环峰东路266号附近,含山县,马鞍山市,118.118245,31.716895,新大洲电动车,安徽省,13865650761;18855503920,新大洲
2019-09-09,012县道与062乡道交叉口西50米,当涂县,马鞍山市,118.510303,31.496560,新大洲电动车,安徽省,无,新大洲
2019-09-09,陋室西街55号,和县,马鞍山市,118.362925,31.718834,新大洲电动车(和县旗舰店),安徽省,无,新大洲
2019-09-09,惠黎路中国农业银行北侧,相山区,淮北市,116.790806,33.967396,新大洲电动车(惠黎路),安徽省,13093511230,新大洲
2019-09-09,枞阳镇渡江路60-3号,枞阳县,铜陵市,117.221511,30.707748,新大洲电动车,安徽省,无,新大洲
2019-09-09,铜官大道北段-89号,铜官区,铜陵市,117.816852,30.941525,新大洲电动车,安徽省,13515624588,新大洲
2019-09-09,063县道北50米,宿松县,安庆市,116.273063,30.156881,新大洲电动车,安徽省,无,新大洲
2019-09-09,人民路与法华路交叉口东南50米,太湖县,安庆市,116.305097,30.446758,新大洲电动车(太湖店),安徽省,13966437921,新大洲
2019-09-09,016县道附近,桐城市,安庆市,117.070440,31.194177,新大洲电动车,安徽省,无,新大洲
2019-09-09,孚玉镇人民西路418号,宿松县,安庆市,116.114697,30.161076,新大洲电动车(人民西路店),安徽省,13956526968,新大洲
2019-09-09,晋湖路与长河路交叉口南50米,太湖县,安庆市,116.303366,30.442187,新大洲电动车(太湖店),安徽省,15357080388,新大洲
2019-09-09,孚玉镇宿松路315号,宿松县,安庆市,116.117600,30.155929,新大洲电动车(张孟湖皮肤科西南),安徽省,13033188941,新大洲
2019-09-09,人民东路98号附近,太湖县,安庆市,116.319829,30.448310,新大洲电动车,安徽省,无,新大洲
2019-09-09,海峰路51号,桐城市,安庆市,116.965348,31.054521,新大洲电动车(皖中专卖店),安徽省,18956906779,新大洲
2019-09-09,腰铺镇京华园,南谯区,滁州市,118.307020,32.227642,新大洲电动车,安徽省,无,新大洲
2019-09-09,创业北路阳光河畔怡园15栋,琅琊区,滁州市,118.335045,32.303754,新大洲电动车,安徽省,无,新大洲
2019-09-09,港口路122号,全椒县,滁州市,118.276586,32.093048,新大洲电动车,安徽省,15555055032,新大洲
2019-09-09,建阳南路706附近,来安县,滁州市,118.434286,32.453319,上海新大洲(来安专卖),安徽省,18955009939,新大洲
2019-09-09,046县道西50米,阜南县,阜阳市,115.761357,32.516763,新大洲电动车,安徽省,无,新大洲
2019-09-09,老庄镇,颍泉区,阜阳市,115.701056,32.963437,新大洲电动车,安徽省,18110599152,新大洲
2019-09-09,贯清路,颍州区,阜阳市,115.824763,32.868120,新大洲电动车,安徽省,13965579493,新大洲
2019-09-09,027县道西150米,颍东区,阜阳市,115.942523,33.066016,新大洲电动车,安徽省,无,新大洲
2019-09-09,信义街112号附近,界首市,阜阳市,115.353795,33.260099,界首市新大洲电动车旗舰店,安徽省,13339222033,新大洲
2019-09-09,万寿中路与国泰北路交叉口西北150米,太和县,阜阳市,115.601233,33.211709,新大洲电动车(国泰北路),安徽省,13625686560,新大洲
2019-09-09,幸福西路10号附近,颍东区,阜阳市,115.863831,32.906761,新大洲电动车(青峰田建伟专卖店),安徽省,无,新大洲
2019-09-09,023县道北50米,颍泉区,阜阳市,115.763481,33.079434,新大洲电动车(邵营专卖店),安徽省,无,新大洲
2019-09-09,105国道西50米,颍上县,阜阳市,115.964891,32.766180,上海新大洲电动车,安徽省,无,新大洲
2019-09-09,闻集镇029县道与105国道交叉口东北50米附近两河路口,颍泉区,阜阳市,115.626642,33.115539,成成车行,安徽省,18655877252,新大洲
2019-09-09,三塔路84附近,阜南县,阜阳市,115.588685,32.649552,新大洲电动车,安徽省,13345588013,新大洲
2019-09-09,北京中路167号,颍泉区,阜阳市,115.819409,32.918486,新大洲电动车(阜北专卖店),安徽省,13075068390,新大洲
2019-09-09,莲花路102号,颍州区,阜阳市,115.834536,32.885571,新大洲电动车(莲花路店),安徽省,无,新大洲
2019-09-09,临沂商城d区106号,颍泉区,阜阳市,115.835661,32.940391,新大洲电动车(兰山路),安徽省,18096768999,新大洲
2019-09-09,047县道与102省道交叉口西50米,颍州区,阜阳市,115.707447,32.909276,大扬电动车,安徽省,无,新大洲
2019-09-09,036县道东50米,颍上县,阜阳市,116.114668,32.643701,新大洲电动车,安徽省,15256850683,新大洲
2019-09-09,340省道东50米,颍东区,阜阳市,115.937543,32.851810,新大洲电动车,安徽省,13955804290,新大洲
2019-09-09,045县道西50米,颍州区,阜阳市,115.886924,32.790741,新大洲电动车(袁集专卖店),安徽省,15956863788,新大洲
2019-09-09,迎宾大道南50米,颍上县,阜阳市,116.371367,32.642893,新大洲电动车(夏桥小双专卖店),安徽省,无,新大洲
2019-09-09,308省道南50米,太和县,阜阳市,115.559547,33.219619,新大洲电动车(耿楼专卖店),安徽省,无,新大洲
2019-09-09,鼓楼街道人民中路,颍州区,阜阳市,115.806511,32.909924,新大洲电动车(搬井洪奎专卖店),安徽省,0558-2725219,新大洲
2019-09-09,太人民北路与建设西路交口西侧正北方向63米,太和县,阜阳市,115.623525,33.175251,新大汌电动车,安徽省,0558-8667788,新大洲
2019-09-09,三塔镇王庙行政村魏庄,太和县,阜阳市,115.808347,33.162061,新大洲电动车(武海涛专卖店),安徽省,13966597446,新大洲
2019-09-09,周棚镇刘堂行政村后刘6号,颍泉区,阜阳市,115.862368,32.980038,新大洲电动车(刘堂刘亮店),安徽省,13505583847,新大洲
2019-09-09,人民路与忠诚街交叉口东50米,泗县,宿州市,117.886346,33.481125,新大洲电动车,安徽省,无,新大洲
2019-09-09,环城南路与裕城街交叉口东50米,埇桥区,宿州市,116.976996,33.636299,新大洲电动车,安徽省,无,新大洲
2019-09-09,101省道浩旭旅馆旁,砀山县,宿州市,116.392430,34.353530,新大洲电动车,安徽省,17755734905,新大洲
2019-09-09,解放西路236号附近,灵璧县,宿州市,117.548033,33.542320,新大洲电动车,安徽省,无,新大洲
2019-09-09,苏埠镇金色水岸,裕安区,六安市,116.357386,31.628933,新大洲电动车,安徽省,无,新大洲
2019-09-09,环城东路西50米,霍邱县,六安市,116.299302,32.344371,新大洲电动车,安徽省,无,新大洲
2019-09-09,金马新区南门,裕安区,六安市,116.480251,31.778835,新大洲电动车专卖店,安徽省,13771923164;15055972571,新大洲
2019-09-09,013县道与361乡道交叉口西南50米,霍邱县,六安市,116.440635,32.295527,新大洲电动车,安徽省,13385681678,新大洲
2019-09-09,皖西大市场4号楼,裕安区,六安市,116.476598,31.713256,新大洲电动车(皖西大市场店),安徽省,无,新大洲
2019-09-09,金鑫国际佳园步行街08号,金寨县,六安市,115.935126,31.716523,新大洲电动车(金鑫国际佳园东北),安徽省,13365688833,新大洲
2019-09-09,叶集区汪俊饲料超市(南海路北),叶集区,六安市,115.915994,31.849922,新大洲电动车(叶集专卖店),安徽省,13034031789,新大洲
2019-09-09,莲花北路与010县道交叉口东北150米,叶集区,六安市,116.176717,31.818715,新大洲电动车(裕丰阁店),安徽省,无,新大洲
2019-09-09,独山将军大道,裕安区,六安市,116.234257,31.619666,光钰车业,安徽省,0564-2910972;18919791945,新大洲
2019-09-09,014县道东50米,裕安区,六安市,116.234239,31.619714,新大洲电动车,安徽省,0564-2910972;18919791945,新大洲
2019-09-09,春秋路东50米,舒城县,六安市,116.930387,31.442033,新大洲电动车,安徽省,13155382912,新大洲
2019-09-09,梅河路447号(近梅河西路),舒城县,六安市,116.942377,31.462087,新大洲派乐电动车(梅河西路店),安徽省,无,新大洲
2019-09-09,霍城关镇光明大道一中正大超市旁,霍邱县,六安市,116.276874,32.341666,新大洲(霍邱旗舰店),安徽省,0564-6096999,新大洲
2019-09-09,磨子谭路华龙新村17-18号,裕安区,六安市,116.487266,31.740851,新大洲电动车(磨子潭路),安徽省,0564-3214168;18860469888,新大洲
2019-09-09,209省道西50米,金寨县,六安市,115.936758,31.781425,新大洲电动车,安徽省,无,新大洲
2019-09-09,康宁路与淮中大道交叉口西北150米,涡阳县,亳州市,116.215196,33.500630,新大洲电动车,安徽省,无,新大洲
2019-09-09,建设路北150米,涡阳县,亳州市,116.221195,33.506147,新大洲电动车,安徽省,无,新大洲
2019-09-09,038县道东50米,蒙城县,亳州市,116.487335,33.364975,新大洲电动车,安徽省,19856773112,新大洲
2019-09-09,,利辛县,亳州市,116.192581,33.136617,新大洲电动车,安徽省,无,新大洲
2019-09-09,长春路建设北路向北50米路西小吴车行,利辛县,亳州市,116.210876,33.153906,新大洲电动车,安徽省,无,新大洲
2019-09-09,春店路与永兴路交叉口北100米,利辛县,亳州市,116.204455,33.158205,新大洲电动车,安徽省,无,新大洲
2019-09-09,039县道东50米,蒙城县,亳州市,116.728906,33.245898,新大洲电动车,安徽省,17733330132,新大洲
2019-09-09,105国道东50米,谯城区,亳州市,115.648864,33.557339,新大洲电动车,安徽省,无,新大洲
2019-09-09,庄周办事处牛群商贸城金牛像北20米路东,蒙城县,亳州市,116.563189,33.250269,新大洲电动车,安徽省,无,新大洲
2019-09-09,民安路与滨河中路交叉口东南150米,利辛县,亳州市,116.213597,33.137523,新大洲电动车,安徽省,13856770086,新大洲
2019-09-09,向阳东路21号附近,利辛县,亳州市,116.198406,33.141918,新大洲电动车(向阳路店),安徽省,无,新大洲
2019-09-09,振兴路附近,涡阳县,亳州市,116.141965,33.671641,新大洲电动车专卖,安徽省,无,新大洲
2019-09-09,新丰村,东至县,池州市,117.033628,30.460485,新大洲电动车,安徽省,13156612199,新大洲
2019-09-09,秋浦西路327号,贵池区,池州市,117.474906,30.653367,新大洲电动车,安徽省,无,新大洲
2019-09-09,高湖社区高湖街道,广德市,宣城市,119.426560,30.952811,新大洲电动车(高湖卢伟车业),安徽省,无,新大洲
2019-09-09,中港西路,郎溪县,宣城市,119.177802,31.130493,新大洲电动车,安徽省,无,新大洲
2019-09-09,东关街北50米,广德市,宣城市,119.426654,30.891750,新大洲电动车,安徽省,无,新大洲
2019-09-09,天寿路与太极大道交叉口西150米,广德市,宣城市,119.431829,30.893409,新大洲电动车,安徽省,无,新大洲
2019-09-09,港口镇新建街金港商贸城对过,宁国市,宣城市,118.916783,30.727212,新大洲电动车(港口店),安徽省,18656301430,新大洲
2019-09-09,敬亭路177号附近,宣州区,宣城市,118.748266,30.954297,新大洲电动车,安徽省,无,新大洲
2019-09-09,宁阳西路,宁国市,宣城市,118.973318,30.614852,新大洲电动车(宁国专卖店),安徽省,0563-4170567,新大洲
2019-09-09,,闽侯县,福州市,119.215084,26.070597,新大洲电动车,福建省,15205046268,新大洲
2019-09-09,,长乐区,福州市,119.632026,25.983213,新大洲电动车,福建省,无,新大洲
2019-09-09,学府北路,闽侯县,福州市,119.191627,26.062305,新大洲电动车,福建省,无,新大洲
2019-09-09,茶园路7号附近,晋安区,福州市,119.312451,26.104542,新大洲电动车,福建省,0591-26919998,新大洲
2019-09-09,瑞亭街145号,福清市,福州市,119.390462,25.711440,新大洲电动车,福建省,15205083698,新大洲
2019-09-09,齐安路68号3号楼附近,仓山区,福州市,119.293839,26.001862,新大洲电动车,福建省,无,新大洲
2019-09-09,锦标路26号西50米,台江区,福州市,119.295699,26.053416,新大洲电动车,福建省,无,新大洲
2019-09-09,六一中路311号新大洲电动车专卖店,台江区,福州市,119.320338,26.062962,新大洲电动车(雁塔街专卖店),福建省,18659101179,新大洲
2019-09-09,奎桥路279-285号附近,长乐区,福州市,119.514661,25.952004,新大洲电动车长乐旗舰店,福建省,无,新大洲
2019-09-09,北二环西路48号,鼓楼区,福州市,119.295576,26.108322,新大洲电动车,福建省,无,新大洲
2019-09-09,学府南路西50米,闽侯县,福州市,119.192908,26.031802,新大洲电动车,福建省,15005904391,新大洲
2019-09-09,白马北路104-106号附近,鼓楼区,福州市,119.289415,26.083931,新大洲电动车,福建省,无,新大洲
2019-09-09,国宾大道362号附近,闽侯县,福州市,119.185425,26.077199,新大洲电动车,福建省,无,新大洲
2019-09-09,源通东路与源通西路交叉口西北50米,闽侯县,福州市,119.193147,26.072411,新大洲电动车,福建省,无,新大洲
2019-09-09,溪滨路与罗川中路交叉口北150米,罗源县,福州市,119.557686,26.484541,新大洲电动车,福建省,0591-26801118,新大洲
2019-09-09,君竹路182号立马华庭1楼一层08号店面,马尾区,福州市,119.458922,25.996138,新大洲电动车(沿山东路),福建省,13615042293,新大洲
2019-09-09,蓝钻街77号店里白马南路新华都超市隔壁,台江区,福州市,119.300868,26.050130,新大洲,福建省,无,新大洲
2019-09-09,洪山镇梁厝路国光小区1号楼06店面,鼓楼区,福州市,119.253939,26.082365,新大洲电动车,福建省,13328672005,新大洲
2019-09-09,六一北路418号,鼓楼区,福州市,119.316789,26.085067,新大洲本田电动车(福飞南路店),福建省,无,新大洲
2019-09-09,阳翟路73号附近,同安区,厦门市,118.152854,24.714249,新大洲电动车同安旗舰店,福建省,无,新大洲
2019-09-09,新安村新华都对面,海沧区,厦门市,118.000259,24.520326,新大洲电动车,福建省,无,新大洲
2019-09-09,延寿南街,城厢区,莆田市,119.022096,25.420991,新大洲电动车,福建省,无,新大洲
2019-09-09,涵华西路463号附近,涵江区,莆田市,119.100250,25.454580,新大洲电动车,福建省,无,新大洲
2019-09-09,,鲤城区,泉州市,118.587823,24.900959,新大洲电动车,福建省,无,新大洲
2019-09-09,河滨西路,安溪县,泉州市,118.171421,25.065834,新大洲电动车,福建省,15859550128,新大洲
2019-09-09,,惠安县,泉州市,118.832967,24.979140,新大洲电动车,福建省,无,新大洲
2019-09-09,金庄街,南安市,泉州市,118.427189,24.800996,新大洲电动车,福建省,无,新大洲
2019-09-09,解放路,南安市,泉州市,118.431708,24.710956,新大洲电动车,福建省,无,新大洲
2019-09-09,镇中路与香江路交叉口西50米,石狮市,泉州市,118.632093,24.745755,新大洲电动车锦昌专卖店,福建省,无,新大洲
2019-09-09,307省道西50米,安溪县,泉州市,118.122279,25.150352,新大洲电动车,福建省,无,新大洲
2019-09-09,339县道东50米,安溪县,泉州市,118.044763,25.223914,新大洲电动车专卖店,福建省,无,新大洲
2019-09-09,建设南街50号,惠安县,泉州市,118.801688,25.029838,新大洲电动车专卖店,福建省,0595-87365111,新大洲
2019-09-09,世纪大道与溪滨路交叉口西北100米,惠安县,泉州市,118.785080,25.017293,新大洲电动车,福建省,0595-87395788,新大洲
2019-09-09,大同路810、812号附近,安溪县,泉州市,118.201517,25.048317,世雄车行新大洲电动车,福建省,无,新大洲
2019-09-09,通北街道漳华路1号温馨大厦新大洲电动车,芗城区,漳州市,117.654683,24.524375,新大洲电动车,福建省,无,新大洲
2019-09-09,铜亭街142栋附近,东山县,漳州市,117.513619,23.731436,新大洲电动车,福建省,无,新大洲
2019-09-09,步文街道步文镇坂上村打埔社路口,龙文区,漳州市,117.695545,24.528356,新大洲电动车,福建省,无,新大洲
2019-09-09,金浦路19号东南50米,漳浦县,漳州市,117.609258,24.129190,新大洲电动车,福建省,无,新大洲
2019-09-09,,长泰县,漳州市,117.734023,24.633663,新大洲电动车,福建省,无,新大洲
2019-09-09,程溪镇改革路79,龙海市,漳州市,117.593657,24.390287,新大洲电动车,福建省,无,新大洲
2019-09-09,G319(厦成线),南靖县,漳州市,117.507492,24.576469,新大洲电动车,福建省,无,新大洲
2019-09-09,九龙大道东100米,龙海市,漳州市,117.665616,24.485760,龙海新大洲电动车,福建省,无,新大洲
2019-09-09,建设路23号附近,南靖县,漳州市,117.359346,24.518652,新大洲电动车,福建省,无,新大洲
2019-09-09,工农路与207省道交叉口北150米,龙文区,漳州市,117.743417,24.561809,新大洲电动车,福建省,无,新大洲
2019-09-09,石仓南路13号附近,龙文区,漳州市,117.702423,24.508860,新大洲电动车,福建省,无,新大洲
2019-09-09,龙湖路99附近,漳浦县,漳州市,117.598848,24.114243,新大洲电动车,福建省,无,新大洲
2019-09-09,元光北路9-7号店面,芗城区,漳州市,117.663810,24.515964,新大洲电动车,福建省,13806958933,新大洲
2019-09-09,胜利西路134-15号附近,芗城区,漳州市,117.641694,24.513900,新大洲电动车,福建省,无,新大洲
2019-09-09,水仙大街北150米,龙文区,漳州市,117.680356,24.503319,新大洲电动车(荣桂路),福建省,无,新大洲
2019-09-09,梧桥中路13号附近,龙文区,漳州市,117.727546,24.515857,新大洲电动车(龙祥北路),福建省,无,新大洲
2019-09-09,腾飞路金冠花园1幢11号店面,芗城区,漳州市,117.665286,24.518651,新大洲电动车,福建省,无,新大洲
2019-09-09,博爱西道60号,芗城区,漳州市,117.650293,24.504004,新大洲本田电动车(博爱西道),福建省,无,新大洲
2019-09-09,腾飞路437号,芗城区,漳州市,117.675190,24.519358,新大洲电动车,福建省,无,新大洲
2019-09-09,丹霞路128-37号附近,芗城区,漳州市,117.671945,24.512859,新大洲电动车,福建省,无,新大洲
2019-09-09,下西河与西大街交叉口西100米,建瓯市,南平市,118.320315,27.037814,新大洲本田电动车旗舰店,福建省,无,新大洲
2019-09-09,东环北路与福东路交叉口西南50米,连城县,龙岩市,116.765456,25.711752,新大洲电动车,福建省,无,新大洲
2019-09-09,,福鼎市,宁德市,120.252941,27.105727,新大洲电动车,福建省,无,新大洲
2019-09-09,鹤祥路68号,福安市,宁德市,119.640779,27.085645,何必新大洲电动车店,福建省,0593-6558308;13599801415,新大洲
2019-09-09,溪南镇下街34号溪南镇人民政府附近,霞浦县,宁德市,119.860015,26.717017,新大洲电动车,福建省,无,新大洲
2019-09-09,栖云路与鹤祥路交叉口东南50米,福安市,宁德市,119.640324,27.085791,新大洲本田电动车,福建省,0593-6699669,新大洲
2019-09-09,天安小区河沿路45号,霞浦县,宁德市,120.001575,26.886817,新大洲电动车(共青路),福建省,无,新大洲
2019-09-09,民丰路北50米,青山湖区,南昌市,115.951854,28.711426,新大洲电动车,江西省,无,新大洲
2019-09-09,振兴大道与澄湖西路交叉口南150米,南昌县,南昌市,115.923999,28.577986,新大洲电动车,江西省,无,新大洲
2019-09-09,天集商业广场,进贤县,南昌市,116.265057,28.359262,新大洲电动车,江西省,无,新大洲
2019-09-09,296乡道北50米,南昌县,南昌市,116.171473,28.645309,新大洲电动车,江西省,无,新大洲
2019-09-09,创新大道与艾溪湖一路交叉口南150米,南昌县,南昌市,116.012889,28.681153,新大洲电动车太子殿专卖,江西省,13699555351,新大洲
2019-09-09,洪都新溪桥北一路1号正东方向89米,青云谱区,南昌市,115.921583,28.638132,新大洲电动车,江西省,无,新大洲
2019-09-09,经港宾馆北50米(金港路西),青山湖区,南昌市,115.886586,28.768331,新大洲电动车,江西省,无,新大洲
2019-09-09,长征西路中国邮政西50米(馨居雅苑附近),新建区,南昌市,115.822093,28.680025,新大洲电动车,江西省,0791-83713089,新大洲
2019-09-09,流湖中学,新建区,南昌市,115.729031,28.472658,新大洲电动车店,江西省,无,新大洲
2019-09-09,抚河南路与抚河南路六零一弄交叉口东南50米,青云谱区,南昌市,115.900480,28.652931,新大洲电动车,江西省,13870801933,新大洲
2019-09-09,文港大道106号,进贤县,南昌市,116.123565,28.283168,新大洲电动车(文港专卖店),江西省,15970427387,新大洲
2019-09-09,中兴路与三里大道交叉口西南50米附近,进贤县,南昌市,116.383998,28.679126,新大洲电动车,江西省,15879188050,新大洲
2019-09-09,朱桥东路朱桥公寓43栋底商,青云谱区,南昌市,115.944401,28.607231,新大洲电动车,江西省,18170867500,新大洲
2019-09-09,昌北区庐山中大道凯丰商业街八栋,青山湖区,南昌市,115.851619,28.745351,新大洲电动车(下罗财院专卖店),江西省,13755788954,新大洲
2019-09-09,莲塘镇五一路五中正东方向194米,南昌县,南昌市,115.946433,28.538678,新大洲电动车(莲塘专卖),江西省,无,新大洲
2019-09-09,三经路113号-1栋,东湖区,南昌市,115.898065,28.693633,新大洲电动车,江西省,0791-87133620,新大洲
2019-09-09,解放东路145号,青山湖区,南昌市,115.991328,28.632508,新大洲本田电动车(罗家集专卖店),江西省,0791-88172272,新大洲
2019-09-09,金沙二路3320号附近,南昌县,南昌市,115.881656,28.592895,新大洲电动车,江西省,无,新大洲
2019-09-09,公园路60号附近,乐平市,景德镇市,117.135654,28.961232,新大洲电动车,江西省,无,新大洲
2019-09-09,205省道东50米,乐平市,景德镇市,117.299245,28.843030,新大洲电动车众埠旗舰店,江西省,无,新大洲
2019-09-09,113县道西50米,乐平市,景德镇市,117.340639,28.988535,新大洲电动车,江西省,无,新大洲
2019-09-09,乐平大道怡家超市西南50米附近,乐平市,景德镇市,117.144238,28.957236,新大洲电动车,江西省,无,新大洲
2019-09-09,092县道西50米,乐平市,景德镇市,117.037297,28.884449,新大洲电动车,江西省,无,新大洲
2019-09-09,珠海西路13-14号附近,乐平市,景德镇市,117.118477,28.968736,新大洲电动车,江西省,无,新大洲
2019-09-09,接渡镇大连医院附近,乐平市,景德镇市,117.166124,28.953579,新大洲电动车,江西省,无,新大洲
2019-09-09,福田镇村委会门口,上栗县,萍乡市,113.829963,27.702415,新大洲电动车,江西省,无,新大洲
2019-09-09,123县道北50米,上栗县,萍乡市,113.985973,27.724441,新大洲电动车,江西省,无,新大洲
2019-09-09,芦溪镇沙湾广场(武功山大道),芦溪县,萍乡市,114.031445,27.629585,新大洲电动车,江西省,无,新大洲
2019-09-09,上栗镇浏万东路87号,上栗县,萍乡市,113.807055,27.876070,新大洲电动车,江西省,无,新大洲
2019-09-09,码头镇江州西路,瑞昌市,九江市,115.579983,29.824253,新大洲电动车,江西省,13007268606,新大洲
2019-09-09,冰玉路与秀峰大道东路交叉口东150米,庐山市,九江市,116.049848,29.455754,新大洲电动车,江西省,无,新大洲
2019-09-09,S304(莫家路),瑞昌市,九江市,115.498301,29.555453,新大洲电动车,江西省,无,新大洲
2019-09-09,铜城大道与黄金大道交叉口东北150米,瑞昌市,九江市,115.684845,29.685449,新大洲电动车(五里社区卫生服务站东北),江西省,13767235763,新大洲
2019-09-09,渝东大道北50米,渝水区,新余市,115.025147,27.830948,新大洲电动车,江西省,无,新大洲
2019-09-09,劳动南路与解放西路交叉口东北100米,渝水区,新余市,114.934794,27.806005,新大洲电动车,江西省,无,新大洲
2019-09-09,环城东路35号摩托车市场,月湖区,鹰潭市,117.040936,28.234910,新大洲电动车,江西省,13870116779,新大洲
2019-09-09,525乡道汪氏土菜馆旁,贵溪市,鹰潭市,117.167304,28.214058,新大洲电动车,江西省,18970186919,新大洲
2019-09-09,金龙路与黄竹路交叉口西50米,于都县,赣州市,115.419838,25.965397,新大洲电动车,江西省,无,新大洲
2019-09-09,西北大道与长征大道交叉口北100米,于都县,赣州市,115.409984,25.956183,新大洲电动车(于都旗舰店),江西省,15770888180,新大洲
2019-09-09,光彩大市场5街中区55号,赣县区,赣州市,115.006527,25.865306,新大洲电动车,江西省,13870760953,新大洲
2019-09-09,区赣新大道75号,赣县区,赣州市,115.012036,25.863671,新大洲电动车(赣县旗舰店),江西省,无,新大洲
2019-09-09,吉埠新村吉埠大道2号同济医院附近,章贡区,赣州市,114.957952,25.807874,可人电动车,江西省,13970145529,新大洲
2019-09-09,坨圳上垅村,南康区,赣州市,114.805092,25.648787,新大洲电动车明花车行,江西省,无,新大洲
2019-09-09,S219(砂园线),章贡区,赣州市,114.940973,25.783605,新大洲电动车,江西省,无,新大洲
2019-09-09,田头镇乡政府对面,宁都县,赣州市,115.974615,26.325986,新大州电动车,江西省,18170727145,新大洲
2019-09-09,阳明中路118号,信丰县,赣州市,114.933206,25.380953,新大洲电动车,江西省,无,新大洲
2019-09-09,八一四大道33-19号附近,章贡区,赣州市,114.956002,25.835124,新大洲电动车(京九路),江西省,无,新大洲
2019-09-09,湘江大道76号,会昌县,赣州市,115.792978,25.596573,新大洲电动车(湘江大道店),江西省,13879790889,新大洲
2019-09-09,建康路3号,上犹县,赣州市,114.543169,25.794382,新大洲电动车(犹江北路店),江西省,无,新大洲
2019-09-09,泰康东大道与金水路交叉口北50米,南康区,赣州市,114.769659,25.677105,新大洲电动车,江西省,15879700542,新大洲
2019-09-09,泰康东大道与金水路交叉口北50米,南康区,赣州市,114.769622,25.677185,顺时达车行,江西省,15879700542,新大洲
2019-09-09,红星街道井福苑兰花路24号,井冈山市,吉安市,114.284090,26.739782,新大洲电动车瑞锦车行,江西省,无,新大洲
2019-09-09,新昌镇天宝南路8号,宜丰县,宜春市,114.798287,28.385324,新大洲电动车,江西省,无,新大洲
2019-09-09,药都北大道8号附近,樟树市,宜春市,115.553279,28.061967,新大洲电动车,江西省,0795-7329518,新大洲
2019-09-09,建设路57号,黎川县,抚州市,116.911123,27.289983,新大洲电动车,江西省,无,新大洲
2019-09-09,凤凰大道99号D1栋1-21号,信州区,上饶市,117.976497,28.459696,新大洲电动车,江西省,0793-8332878,新大洲
2019-09-09,卧龙二路与龙腾路交叉口西南50米,广丰区,上饶市,118.175540,28.425716,新大洲电动车(龙腾路),江西省,无,新大洲
2019-09-09,万昌南路50号,万年县,上饶市,117.070500,28.685633,新大洲电动车专卖店,江西省,无,新大洲
2019-09-09,山大南路17附近,历城区,济南市,117.067177,36.672074,新大洲电动车,山东省,无,新大洲
2019-09-09,天成路30-1号,天桥区,济南市,116.995149,36.675346,新大洲电动车,山东省,无,新大洲
2019-09-09,龙山路,历城区,济南市,117.023840,36.495937,新大洲电动车,山东省,无,新大洲
2019-09-09,坝王路东50米,历城区,济南市,117.153378,36.725478,新大洲电动车,山东省,无,新大洲
2019-09-09,兴济桥西路西50米,槐荫区,济南市,116.946192,36.667491,新大洲电动车,山东省,15965625544,新大洲
2019-09-09,汇鑫中路75号附近,济阳区,济南市,117.168548,36.970486,新大洲电动车,山东省,无,新大洲
2019-09-09,镇政府向东路北,章丘区,济南市,117.470888,36.634861,新大洲电动车,山东省,无,新大洲
2019-09-09,217省道西50米,胶州市,青岛市,119.967442,36.295557,新大洲电动车,山东省,无,新大洲
2019-09-09,信华街北50米,即墨区,青岛市,120.332609,36.382598,新大洲电动车,山东省,无,新大洲
2019-09-09,府前街38号甲附近,即墨区,青岛市,120.228191,36.483279,新大洲电动车,山东省,无,新大洲
2019-09-09,苏宁电器(琅琊店)东50米,城阳区,青岛市,120.406136,36.266579,新大洲电动车黄岛区总代理,山东省,0532-84111222,新大洲
2019-09-09,邦和路与219省道交叉口南100米附近,胶州市,青岛市,120.002713,36.353171,新大洲电动车专卖,山东省,无,新大洲
2019-09-09,建设街与603省道交叉口东50米,即墨区,青岛市,120.367066,36.538412,新大洲电动车,山东省,无,新大洲
2019-09-09,环秀街道办事处烟青路373号,即墨区,青岛市,120.447670,36.370182,新大洲电动车(长江一路店),山东省,无,新大洲
2019-09-09,灵海路3417号附近,黄岛区,青岛市,120.133547,35.930862,新大洲电动车(灵海路店),山东省,13573883464,新大洲
2019-09-09,龙海路与397省道交叉口东100米,胶州市,青岛市,120.015939,36.167754,新大洲电动车(九龙专卖店),山东省,无,新大洲
2019-09-09,,胶州市,青岛市,120.108035,36.300992,新大洲电动车(胶东南庄专卖店),山东省,无,新大洲
2019-09-09,泊里镇附近,黄岛区,青岛市,119.775927,35.657881,新大洲电动车,山东省,无,新大洲
2019-09-09,宝塔路与217省道交叉口东北150米,胶州市,青岛市,119.893125,36.190707,新大洲电动车,山东省,无,新大洲
2019-09-09,北京西路赵家小庄怡情苑东50米,胶州市,青岛市,119.982658,36.260907,新大洲电动车,山东省,无,新大洲
2019-09-09,海城路与盛城路交叉口东北50米,黄岛区,青岛市,119.865580,35.688340,新大洲电动车(黄岛专卖店),山东省,无,新大洲
2019-09-09,人和路137号附近,即墨区,青岛市,120.519500,36.387577,新大洲电动车,山东省,无,新大洲
2019-09-09,蓝村镇岙东北路雪达集团科研新苑南,即墨区,青岛市,120.276819,36.372443,新大洲电动车(雪达集团科研新苑南),山东省,无,新大洲
2019-09-09,肖家庄明安路373号,黄岛区,青岛市,119.964209,35.862812,新大洲电动车,山东省,无,新大洲
2019-09-09,通济办事处蓝鳌路1006号水上公园对面,即墨区,青岛市,120.424521,36.390950,新大洲电动车,山东省,无,新大洲
2019-09-09,太和东路68号北安街道办事处,即墨区,青岛市,120.462844,36.444204,新大洲电动车(富平旗舰店),山东省,无,新大洲
2019-09-09,217省道北50米,胶州市,青岛市,120.023104,36.385917,新大洲电动车(马店专卖),山东省,13864826931,新大洲
2019-09-09,张北路1970号,桓台县,淄博市,118.102002,36.951634,新大洲电动车,山东省,无,新大洲
2019-09-09,历山路与商业街交叉口东150米,沂源县,淄博市,118.163016,36.183516,新大洲电动车(商业街),山东省,无,新大洲
2019-09-09,平行中路馍馍庄小区路口北60米路东,滕州市,枣庄市,117.150325,35.085017,新大洲电动车(总店),山东省,13371139998,新大洲
2019-09-09,,滕州市,枣庄市,117.170702,35.174417,新大洲电动车,山东省,无,新大洲
2019-09-09,韩休路附近,滕州市,枣庄市,117.020954,35.145195,新大洲电动车,山东省,无,新大洲
2019-09-09,张山子村张山子供电所西90米附近(301县附近),台儿庄区,枣庄市,117.440210,34.547181,新大洲电动车,山东省,无,新大洲
2019-09-09,玄武路与运河路交叉口西北100米,山亭区,枣庄市,117.457350,35.086770,新大洲电动车,山东省,15562261252,新大洲
2019-09-09,府前路与汇丰路交叉口西150米,山亭区,枣庄市,117.447174,35.099168,新大洲电动车,山东省,0632-5181618,新大洲
2019-09-09,大坞镇韩休路,滕州市,枣庄市,117.020813,35.145337,峄庄蓝翔车辆超市,山东省,0632-2980285,新大洲
2019-09-09,成龙线南50米,牟平区,烟台市,121.663071,37.395111,新大洲电动车,山东省,无,新大洲
2019-09-09,小十字口街与府前街交叉口北50米,莱州市,烟台市,119.943965,37.176997,新大洲电动车,山东省,无,新大洲
2019-09-09,芝罘屯路与西炮台东路交叉口西50米,芝罘区,烟台市,121.359926,37.557701,新大洲电动车(芝罘屯路),山东省,无,新大洲
2019-09-09,东关路456号17号,牟平区,烟台市,121.612204,37.389505,峰立新大洲电动车,山东省,无,新大洲
2019-09-09,朝阳街道开发区王家响疃,高密市,潍坊市,119.810263,36.371305,新大洲电动车,山东省,无,新大洲
2019-09-09,四平路与大舜街交叉口东北150米,诸城市,潍坊市,119.391151,36.025827,新大洲电动车,山东省,无,新大洲
2019-09-09,北海路25号附近,昌邑市,潍坊市,119.394648,36.868915,新大洲电动车,山东省,无,新大洲
2019-09-09,利民街90号,昌邑市,潍坊市,119.414357,36.852618,新大洲电动车,山东省,无,新大洲
2019-09-09,G206(烟汕线),昌邑市,潍坊市,119.469755,36.848514,新大洲电动车,山东省,0536-7878530,新大洲
2019-09-09,尼山镇南辛村,曲阜市,济宁市,117.129298,35.523820,新大洲电动车,山东省,无,新大洲
2019-09-09,兖兰西路7号附近,嘉祥县,济宁市,116.337407,35.395615,新大洲电动车,山东省,无,新大洲
2019-09-09,尚书路中段路南(二院对过),汶上县,济宁市,116.492939,35.727973,新大洲电动车,山东省,无,新大洲
2019-09-09,北关路54号附近,宁阳县,泰安市,116.802458,35.783573,新大洲本田摩托(孔融街),山东省,无,新大洲
2019-09-09,浙江路与202省道交叉口西100米,环翠区,威海市,122.122897,37.326104,新大洲电动车,山东省,无,新大洲
2019-09-09,棋山路与303省道交叉口西50米,环翠区,威海市,122.113610,37.309490,新大洲电动车,山东省,无,新大洲
2019-09-09,334省道南200米,五莲县,日照市,119.318325,35.737686,新大洲电动车,山东省,无,新大洲
2019-09-09,解放路148号(第一加油站对过),五莲县,日照市,119.200857,35.762494,新大洲电动车,山东省,13863372634,新大洲
2019-09-09,,郯城县,临沂市,118.411851,34.880255,新大洲电动车,山东省,无,新大洲
2019-09-09,文昌路南50米,沂水县,临沂市,118.630391,35.784291,新大洲电动车,山东省,无,新大洲
2019-09-09,莲花山路与通圣路交叉口东50米,平邑县,临沂市,117.627191,35.515135,新大洲电动车,山东省,无,新大洲
2019-09-09,古城路1-11号附近,蒙阴县,临沂市,117.935954,35.709052,新大洲电动车,山东省,无,新大洲
2019-09-09,晏城镇向阳路南首320号,齐河县,德州市,116.752186,36.788431,新大洲电动车(向阳路店),山东省,无,新大洲
2019-09-09,双力路与昌润路交叉口东150米,东昌府区,聊城市,115.957135,36.476773,新大洲电动车,山东省,无,新大洲
2019-09-09,黄山五路131附近,邹平市,滨州市,117.732759,36.895208,新大洲电动车,山东省,无,新大洲
2019-09-09,复兴路与033县道交叉口西南50米,邹平市,滨州市,117.865237,36.885359,新大洲电动车,山东省,无,新大洲
2019-09-09,220国道附近,牡丹区,菏泽市,115.622202,35.365669,新大洲电动车,山东省,无,新大洲
2019-09-09,G327(连菏线),巨野县,菏泽市,116.132451,35.400026,新大洲电动车,山东省,无,新大洲
2019-09-09,兴龙街北50米,巨野县,菏泽市,115.896323,35.290155,新大洲电动车,山东省,无,新大洲
2019-09-09,,管城回族区,郑州市,113.696597,34.720602,新大洲电动车,河南省,无,新大洲
2019-09-09,,荥阳市,郑州市,113.385037,34.793093,新大洲电动车,河南省,无,新大洲
2019-09-09,京广中路,二七区,郑州市,113.657717,34.735698,新大洲电动车,河南省,无,新大洲
2019-09-09,航海路城东路向东300路南新大洲,管城回族区,郑州市,113.693817,34.720436,新大洲电动车极速酷车,河南省,4000005371,新大洲
2019-09-09,玉带路684号附近,登封市,郑州市,113.086370,34.457106,新大洲电动车,河南省,无,新大洲
2019-09-09,207国道东150米,登封市,郑州市,112.977288,34.374305,新大洲电动车(苏琪尔电动车),河南省,无,新大洲
2019-09-09,建安路与建设北路交叉口西南150米,中牟县,郑州市,114.018726,34.733136,新大洲电动车(建设北路),河南省,无,新大洲
2019-09-09,少室路与少林路交叉口东100米,登封市,郑州市,113.028395,34.454938,新大洲电动车(少林大道店),河南省,无,新大洲
2019-09-09,凯旋路与白梁线交叉口西50米,伊川县,洛阳市,112.375385,34.311686,新大洲电动车专卖店,河南省,无,新大洲
2019-09-09,董周乡政府南100米路西,鲁山县,平顶山市,112.820642,33.754602,新大洲电动车直营店(红星车行),河南省,17073898578,新大洲
2019-09-09,电商园电动车市场第一大街西段,汝州市,平顶山市,112.867821,34.149113,新大洲电动车专卖店,河南省,无,新大洲
2019-09-09,花园路48号附近,鲁山县,平顶山市,112.918122,33.742556,新大洲电动车(花园路店),河南省,无,新大洲
2019-09-09,朱兰大道184号附近,舞钢市,平顶山市,113.536170,33.324918,新大洲电动车,河南省,无,新大洲
2019-09-09,南关大街与步行街交叉口东北50米,宝丰县,平顶山市,113.067816,33.871530,新大洲电动车(南关大街店),河南省,无,新大洲
2019-09-09,临淇镇李家寨村邮政大楼附近,林州市,安阳市,113.820399,35.779224,新大洲电动车,河南省,无,新大洲
2019-09-09,三官庙大街与平原路交叉口西北50米,北关区,安阳市,114.378411,36.110788,新大洲电动车,河南省,无,新大洲
2019-09-09,中心街与粮贸街交叉口西南200米,林州市,安阳市,113.812131,36.173974,新大洲电动车,河南省,无,新大洲
2019-09-09,阜民街与龙安中路交叉口北150米,林州市,安阳市,113.835791,36.072431,新大洲电动车,河南省,无,新大洲
2019-09-09,人民路西50米,安阳县,安阳市,114.128489,36.127342,新大洲电动车水冶镇专卖店,河南省,无,新大洲
2019-09-09,长安中路西100米,林州市,安阳市,113.813130,36.080390,新大洲电动车销售及维修,河南省,15937101927,新大洲
2019-09-09,王相路东50米,林州市,安阳市,113.799925,36.055613,新大洲电动车林州办事处,河南省,无,新大洲
2019-09-09,228省道与302省道交叉口西南100米附近,林州市,安阳市,113.737521,35.963192,新大洲电动车合涧旗舰店,河南省,无,新大洲
2019-09-09,兴林街北50米,林州市,安阳市,113.883031,35.774946,新大洲电动车临淇旗舰店,河南省,无,新大洲
2019-09-09,行政路与鲁班街交叉口东200米,林州市,安阳市,113.908993,35.995178,新大洲电动车,河南省,无,新大洲
2019-09-09,林州市政府路与302省道交叉口西150米,林州市,安阳市,113.821633,35.926056,新大洲电动车旗舰店,河南省,无,新大洲
2019-09-09,红旗渠路西50米,林州市,安阳市,113.813231,36.280362,新大洲,河南省,无,新大洲
2019-09-09,东姚路24号附近,林州市,安阳市,113.957955,35.917918,新大洲(小刀电动车),河南省,无,新大洲
2019-09-09,301省道北50米,安阳县,安阳市,114.582192,36.089953,新大洲电动车,河南省,无,新大洲
2019-09-09,302省道,林州市,安阳市,113.845286,35.920437,新大洲电动车专卖,河南省,无,新大洲
2019-09-09,城关镇卫校东边50米,滑县,安阳市,114.551510,35.569807,新大洲电动车,河南省,无,新大洲
2019-09-09,016乡道东50米,安阳县,安阳市,114.215221,36.114255,新大洲电动车,河南省,无,新大洲
2019-09-09,平原路北段220号,文峰区,安阳市,114.377853,36.105371,新大洲电动车(平原路店),河南省,无,新大洲
2019-09-09,老西环路与龙山街交叉口东北50米,林州市,安阳市,113.818172,36.060719,新大洲电动车,河南省,无,新大洲
2019-09-09,太行路466号,淇滨区,鹤壁市,114.281385,35.754049,新大洲科迅锂电车,河南省,无,新大洲
2019-09-09,建设街7附近,山城区,鹤壁市,114.187378,35.887713,新大洲电动车(长风路),河南省,无,新大洲
2019-09-09,太行路446号,淇滨区,鹤壁市,114.281532,35.754051,新大洲,河南省,无,新大洲
2019-09-09,冀中路与冀源路交叉口西150米,新乡县,新乡市,113.788758,35.191157,新大洲本田电动车(冀源路店),河南省,无,新大洲
2019-09-09,人民大街与309省道交叉口东南150米,温县,焦作市,113.078900,34.953860,新大洲电动车,河南省,无,新大洲
2019-09-09,011县道,修武县,焦作市,113.432308,35.181346,新大洲电动车,河南省,15938182687,新大洲
2019-09-09,马村街道文昌路新天地购物广场北50米,马村区,焦作市,113.325208,35.261081,新大洲电动车,河南省,13939182674,新大洲
2019-09-09,光明路与兴华商贸步行街交叉口西北50米,南乐县,濮阳市,115.204210,36.073475,新大洲电动车,河南省,无,新大洲
2019-09-09,,襄城县,许昌市,113.683639,33.843365,新大洲电动车,河南省,无,新大洲
2019-09-09,张潘镇保民医院东,建安区,许昌市,113.990927,33.995084,新大洲电动车,河南省,无,新大洲
2019-09-09,瑞祥路116号,魏都区,许昌市,113.815755,34.000136,新大洲电动车专卖店,河南省,15237490301,新大洲
2019-09-09,南大街小天使幼儿园旁,舞阳县,漯河市,113.599298,33.428887,新大洲电动车,河南省,13633956291,新大洲
2019-09-09,007县道与044乡道交叉口西北200米附近,召陵区,漯河市,114.199866,33.503268,新大洲电动车,河南省,无,新大洲
2019-09-09,006乡道南50米,郾城区,漯河市,113.973149,33.708968,新大洲电动车,河南省,13507650120,新大洲
2019-09-09,湘江东路130号附近,召陵区,漯河市,114.051458,33.559854,新大洲电动车,河南省,无,新大洲
2019-09-09,人民路177号附近,召陵区,漯河市,114.047346,33.568575,新大洲电动车,河南省,无,新大洲
2019-09-09,建设路101号附近,湖滨区,三门峡市,111.211746,34.777962,七星豹新大洲本田电动车,河南省,13193990500,新大洲
2019-09-09,新华中路196号附近,卧龙区,南阳市,112.530561,32.997182,新大洲电动车,河南省,无,新大洲
2019-09-09,四里店镇神林西街二小路口神林新大洲电动车专营店,方城县,南阳市,112.928496,33.567125,新大洲电动车(神林店),河南省,无,新大洲
2019-09-09,030县道东50米,镇平县,南阳市,112.224116,32.897222,新大洲电动车专卖店,河南省,无,新大洲
2019-09-09,常春西街与333省道交叉口西南50米,南召县,南阳市,112.628434,33.250588,新大洲电动车,河南省,无,新大洲
2019-09-09,丹江大道北50米,淅川县,南阳市,111.489819,33.131308,新大洲电动车,河南省,无,新大洲
2019-09-09,书院路与淯翔路交叉口东北100米,新野县,南阳市,112.356730,32.529071,新大洲电动车,河南省,无,新大洲
2019-09-09,人民路北50米,淅川县,南阳市,111.482615,33.137596,电动车专卖,河南省,无,新大洲
2019-09-09,麒麟路七局医院向西,卧龙区,南阳市,112.505044,33.004472,新大洲本田电动车(麒麟路店),河南省,13838753622,新大洲
2019-09-09,312国道南50米,卧龙区,南阳市,112.417070,33.014821,新大洲电动车,河南省,15236001197,新大洲
2019-09-09,申桥乡附近,柘城县,商丘市,115.175009,34.084676,新大洲电动车,河南省,无,新大洲
2019-09-09,文化路,柘城县,商丘市,115.147403,34.148311,新大洲电动车,河南省,无,新大洲
2019-09-09,文明街与迎春路交叉口西100米,永城市,商丘市,116.435799,33.928815,新大洲电动车(永城专卖店),河南省,无,新大洲
2019-09-09,城关镇县府路与滨湖路交叉口北300米路东,夏邑县,商丘市,116.129237,34.239388,新大洲本田电动车,河南省,无,新大洲
2019-09-09,春水路69附近,柘城县,商丘市,115.314171,34.078162,新大洲电动车,河南省,无,新大洲
2019-09-09,东大街与淮河路南段交叉口北150米,息县,信阳市,114.743527,32.341275,新大洲电动车,河南省,15237603862,新大洲
2019-09-09,中国银行东南50米(弦山南路西),光山县,信阳市,114.900672,32.004018,新大洲电动车(九龙路),河南省,无,新大洲
2019-09-09,和谐路东100米,平桥区,信阳市,114.079049,32.138392,新大洲电动车(和谐路),河南省,无,新大洲
2019-09-09,中山大街1号附近,固始县,信阳市,115.682371,32.179647,新大洲电动车,河南省,无,新大洲
2019-09-09,乌龙大道西50米,淮滨县,信阳市,115.416108,32.445081,新大洲电动车(乔丽专卖店),河南省,13569771162,新大洲
2019-09-09,爱国路与迎宾路交叉口北150米,潢川县,信阳市,115.056391,32.124160,新大洲电动车,河南省,13937671176,新大洲
2019-09-09,羊山五街好孩子幼儿园对面,浉河区,信阳市,114.065290,32.135247,电动车专卖店,河南省,无,新大洲
2019-09-09,217省道南50米,沈丘县,周口市,115.140788,33.159544,新大洲电动车,河南省,无,新大洲
2019-09-09,建设路与030县道交叉口东100米,泌阳县,驻马店市,113.481290,32.672649,新大洲电动车,河南省,15939692636,新大洲
2019-09-09,花园街道懿丰小区6号门东,泌阳县,驻马店市,113.338328,32.733213,新大洲,河南省,13816989062,新大洲
2019-09-09,发展大道25号附近,硚口区,武汉市,114.235190,30.606553,新大洲电动车,湖北省,无,新大洲
2019-09-09,书城路401附24号,洪山区,武汉市,114.332448,30.481822,新大洲电动车专卖店,湖北省,无,新大洲
2019-09-09,塔西路南50米,东西湖区,武汉市,114.166106,30.678535,新大洲电动车,湖北省,无,新大洲
2019-09-09,中山路709附近,武昌区,武汉市,114.307531,30.520488,新大洲电动车,湖北省,无,新大洲
2019-09-09,琴断口街街道墨水湖北路金色世家455号,汉阳区,武汉市,114.220873,30.555315,新大洲电动车,湖北省,无,新大洲
2019-09-09,创业巷与纱帽正街交叉口北200米,汉南区,武汉市,114.086100,30.309883,新大洲电动车,湖北省,15927055711,新大洲
2019-09-09,解放大道312附7号附近,硚口区,武汉市,114.239810,30.575410,新大洲电动车,湖北省,无,新大洲
2019-09-09,板桥大道与石阳街交叉口西南50米,黄陂区,武汉市,114.370339,30.869584,新大洲电动车(黄陂店),湖北省,无,新大洲
2019-09-09,滨江路62号附近,汉南区,武汉市,114.080448,30.303003,新大洲电动车,湖北省,无,新大洲
2019-09-09,三角湖路12附65号附近,蔡甸区,武汉市,114.148451,30.505018,新大洲电动车(碧湖店),湖北省,无,新大洲
2019-09-09,珞喻路288附2号附近,洪山区,武汉市,114.366532,30.520509,新大洲电动车(珞喻路),湖北省,无,新大洲
2019-09-09,雄楚大道1021附8号,洪山区,武汉市,114.408777,30.497679,新大洲电动车(雄楚大道店),湖北省,无,新大洲
2019-09-09,徐古大道325号附近,新洲区,武汉市,114.978322,30.944888,新大洲电动车,湖北省,无,新大洲
2019-09-09,常青街办事处发展大道119号(复兴二村特警队旁),江汉区,武汉市,114.245353,30.610273,新大洲电动车(发展大道旗舰店),湖北省,13419575338;18627978309,新大洲
2019-09-09,明清街东50米,黄陂区,武汉市,114.349764,31.093413,新大洲电动车,湖北省,无,新大洲
2019-09-09,熊廷弼街201附12号,江夏区,武汉市,114.308548,30.350980,新大洲电动车(江夏专卖店),湖北省,无,新大洲
2019-09-09,二曜小路与胜利街交叉口北50米,江岸区,武汉市,114.305153,30.596292,新大洲电动车,湖北省,无,新大洲
2019-09-09,新李路与040县道交叉口西南50米,新洲区,武汉市,114.677788,30.872663,新大洲电动车,湖北省,无,新大洲
2019-09-09,S314(樊湖大道),大冶市,黄石市,114.737248,30.173895,新大洲电动车,湖北省,无,新大洲
2019-09-09,坡山村上羊组杨家垄枫林大道76号附近,阳新县,黄石市,115.395764,29.762396,新大洲电动车,湖北省,无,新大洲
2019-09-09,大王大道84号附近,阳新县,黄石市,115.120748,30.038259,新大洲电动车武汉新欣(大王店),湖北省,无,新大洲
2019-09-09,丹赵路7东60米,丹江口市,十堰市,111.524440,32.543435,新大洲电动车,湖北省,无,新大洲
2019-09-09,夜明珠路与黄河路交叉口东南50米,西陵区,宜昌市,111.310363,30.731407,新大洲电动车专卖(水院摩配),湖北省,无,新大洲
2019-09-09,水厂路南50米,樊城区,襄阳市,111.815715,32.130470,新大洲电动车,湖北省,无,新大洲
2019-09-09,,樊城区,襄阳市,112.026292,32.082925,新大洲电动车竹条专卖,湖北省,无,新大洲
2019-09-09,南大街与316国道交叉口南150米,谷城县,襄阳市,111.596699,32.360092,新大洲电动车,湖北省,无,新大洲
2019-09-09,襄沙大道27号鲤鱼桥水库亭,宜城市,襄阳市,112.263282,31.700738,新大洲电动车,湖北省,无,新大洲
2019-09-09,航空路86-4号,襄州区,襄阳市,112.191703,32.083612,新大洲电动车(张湾服务站),湖北省,无,新大洲
2019-09-09,新华路100号-1、2号,枣阳市,襄阳市,112.758465,32.117856,新大洲电动车(砖瓦路店),湖北省,15871027218,新大洲
2019-09-09,汉江大道76-5号附近,老河口市,襄阳市,111.678008,32.379297,新大洲电动车(汉江大道),湖北省,无,新大洲
2019-09-09,南新巷与新华路交叉口东150米,枣阳市,襄阳市,112.757582,32.126419,新大洲电动车,湖北省,无,新大洲
2019-09-09,书院街91号附近,枣阳市,襄阳市,112.777668,32.131195,新大洲电动车,湖北省,无,新大洲
2019-09-09,汀祖镇迎宾大道53-2号,鄂城区,鄂州市,114.940170,30.269432,新大洲电动车,湖北省,无,新大洲
2019-09-09,杨叶大道215附近,鄂城区,鄂州市,115.069236,30.298362,新大洲电动车,湖北省,无,新大洲
2019-09-09,太和大道67号附近,梁子湖区,鄂州市,114.679585,30.087190,新大洲电动车,湖北省,13476481982,新大洲
2019-09-09,S112(燕矶大道),鄂城区,鄂州市,115.011387,30.390264,新大洲电动车,湖北省,无,新大洲
2019-09-09,葛店镇葛洪大道310号,华容区,鄂州市,114.644319,30.533071,新大洲电动车(葛店店),湖北省,无,新大洲
2019-09-09,经济开发区樊川大道6号,鄂城区,鄂州市,114.823158,30.411194,新大洲电动车专卖店,湖北省,无,新大洲
2019-09-09,国道街61号附近,沙洋县,荆门市,112.208077,30.738622,雅迪电动车新大洲本田,湖北省,无,新大洲
2019-09-09,建设西路,云梦县,孝感市,113.734444,31.023609,新大洲电动车,湖北省,13693091797,新大洲
2019-09-09,三汊镇京珠小区,孝南区,孝感市,114.057964,30.931502,新大洲电动车,湖北省,无,新大洲
2019-09-09,孝花线东50米,孝南区,孝感市,113.938611,31.070382,新大洲电动车,湖北省,无,新大洲
2019-09-09,宣化镇小南(三华线南),大悟县,孝感市,114.500881,31.689474,新大洲电动车,湖北省,无,新大洲
2019-09-09,利民路西150米,孝南区,孝感市,113.967960,30.930353,新大洲电动车,湖北省,无,新大洲
2019-09-09,城站路167-7号附近,孝南区,孝感市,113.926537,30.938825,新大洲电动车,湖北省,无,新大洲
2019-09-09,书院街办事处槐荫大道466号,孝南区,孝感市,113.916607,30.918461,新大洲电动车(槐荫大道店),湖北省,13135647632,新大洲
2019-09-09,向阳大道,监利县,荆州市,112.960196,30.129079,新大洲电动车,湖北省,无,新大洲
2019-09-09,菱湖路与235县道交叉口东150米,荆州区,荆州市,111.962845,30.464694,新大洲电动车菱湖专卖,湖北省,无,新大洲
2019-09-09,宏伟南路8号,洪湖市,荆州市,113.461158,29.818117,新大洲电动车,湖北省,无,新大洲
2019-09-09,交通路与玉皇台路交叉口西北100米,监利县,荆州市,112.898423,29.823943,新大洲电动车,湖北省,无,新大洲
2019-09-09,温泉镇莲花小区百涧河桥头,英山县,黄冈市,115.689877,30.729210,新大洲电动车,湖北省,无,新大洲
2019-09-09,中兴路与武山大道交叉口北50米,武穴市,黄冈市,115.627997,29.945562,新大洲电动车,湖北省,无,新大洲
2019-09-09,中驿镇神龙市场,麻城市,黄冈市,114.892663,31.122084,新大洲电动车专卖店,湖北省,无,新大洲
2019-09-09,沿河路146号,红安县,黄冈市,114.608005,31.275560,新大洲电动车,湖北省,无,新大洲
2019-09-09,闻一多大道393号附近,浠水县,黄冈市,115.279517,30.447256,新大洲电动车(浠水店),湖北省,无,新大洲
2019-09-09,城关镇红安县实验小学对面,红安县,黄冈市,114.619519,31.288767,新大洲电动车长兴车行,湖北省,无,新大洲
2019-09-09,桂花街96号,咸安区,咸宁市,114.333112,29.832229,新大洲电动车,湖北省,无,新大洲
2019-09-09,长安大道37-3号,咸安区,咸宁市,114.291250,29.862219,新大洲电动车咸宁办事处,湖北省,13797794897,新大洲
2019-09-09,三环道355号附近,广水市,随州市,113.834607,31.620069,新大洲电动车广水总代理,湖北省,无,新大洲
2019-09-09,北门沟与环城路交叉路口,咸丰县,恩施土家族苗族自治州,109.148072,29.685630,新大洲电动车咸丰专卖店,湖北省,无,新大洲
2019-09-09,舞阳大道姐妹干洗北50米,恩施市,恩施土家族苗族自治州,109.493344,30.278378,新大洲电动车,湖北省,无,新大洲
2019-09-09,章华南路338附近,潜江市,潜江市,112.904465,30.363344,新大洲电动车(杨市专卖店),湖北省,无,新大洲
2019-09-09,章华北路376号附近(泽口小学北),潜江市,潜江市,112.877288,30.480459,新大洲电动车(新裕小区东北),湖北省,无,新大洲
2019-09-09,城市花园,天门市,天门市,113.157624,30.644622,新大洲电动车(同心车行友好店),湖北省,无,新大洲
2019-09-09,,芙蓉区,长沙市,113.035538,28.191984,新大洲电动车,湖南省,无,新大洲
2019-09-09,朝晖路236号南60米,雨花区,长沙市,113.022754,28.175965,新大洲电动车,湖南省,无,新大洲
2019-09-09,420乡道西150米,望城区,长沙市,112.781169,28.455790,新大洲电动车,湖南省,无,新大洲
2019-09-09,上西塘街与高裕北路交叉口北100米,望城区,长沙市,112.812116,28.365832,新大洲电动车,湖南省,13687399966,新大洲
2019-09-09,立三路148号,醴陵市,株洲市,113.515977,27.648356,新大洲电动车,湖南省,15367180093,新大洲
2019-09-09,合泰路83号附近,荷塘区,株洲市,113.168915,27.839938,新大洲电动车(合泰路),湖南省,无,新大洲
2019-09-09,新华东路与金钩山支路交叉口东50米,荷塘区,株洲市,113.179638,27.861180,新大洲电动车(金钩山支路),湖南省,无,新大洲
2019-09-09,320国道北50米,雨湖区,湘潭市,112.770583,27.851082,新大洲本田摩托五星钻豹电动车专卖,湖南省,无,新大洲
2019-09-09,湘江南路46-6号附近,雁峰区,衡阳市,112.616943,26.886280,新大洲电动车,湖南省,无,新大洲
2019-09-09,泉峰西路81号,常宁市,衡阳市,112.398229,26.401414,新大洲电动车,湖南省,15575460587,新大洲
2019-09-09,酿溪镇大新街138号长滩社区,新邵县,邵阳市,111.453438,27.320150,新大洲电动车,湖南省,无,新大洲
2019-09-09,陶侃路65号(武冈市技工学校东北),武冈市,邵阳市,110.634580,26.734587,新大洲电动车(武冈专卖店),湖南省,无,新大洲
2019-09-09,宝庆东路与建设南路交叉口北150米,双清区,邵阳市,111.486152,27.234004,新大洲电动车(邵阳专卖店),湖南省,15207399985,新大洲
2019-09-09,劳动南路86附近,汨罗市,岳阳市,113.077474,28.799377,新大洲本田摩托,湖南省,13874084548,新大洲
2019-09-09,华太小区北50米(人民路北),桃源县,常德市,111.548873,29.047032,新大洲电动车行,湖南省,无,新大洲
2019-09-09,民俗街与永兴大道交叉口西100米,石门县,常德市,111.429528,29.594009,新大洲电动车,湖南省,无,新大洲
2019-09-09,武陵镇汽车南站(摩配市场)财富路78号(财富广场B6-08),鼎城区,常德市,111.686270,29.000380,新大洲电动车,湖南省,18182157222,新大洲
2019-09-09,子午路608号,永定区,张家界市,110.473492,29.133884,新大洲电动车,湖南省,无,新大洲
2019-09-09,长春西路178号附近,资阳区,益阳市,112.331283,28.596299,新大洲电动车,湖南省,无,新大洲
2019-09-09,迎宾路8号1-3,桂阳县,郴州市,112.747097,25.735838,电动车超市,湖南省,15377356888,新大洲
2019-09-09,088乡道南150米,东安县,永州市,111.477988,26.741480,新大洲电动车,湖南省,无,新大洲
2019-09-09,怀西路667号,鹤城区,怀化市,109.948612,27.549455,新大洲电动车,湖南省,无,新大洲
2019-09-09,新雅街道雅瑶市场,花都区,广州市,113.216116,23.364819,新大洲电动车,广东省,无,新大洲
2019-09-09,绿茵东街与长江路交叉口西北50米,龙湖区,汕头市,116.732457,23.380106,新大洲电动车,广东省,无,新大洲
2019-09-09,永青路与环镇北路交叉口西北100米,南海区,佛山市,113.181707,23.088137,新大洲电动车,广东省,无,新大洲
2019-09-09,伦常中路与体育路交叉口西南50米,顺德区,佛山市,113.210136,22.879731,新大洲电动车,广东省,无,新大洲
2019-09-09,旺岗路与沙洲大道交叉口北50米,顺德区,佛山市,113.045803,22.845208,新大洲,广东省,0757-22100831;13420822431,新大洲
2019-09-09,南湖二路与府前路交叉口北50米,南海区,佛山市,113.057471,23.057987,新大洲电动车罗村专卖店,广东省,18676558150,新大洲
2019-09-09,桥湖路123号附近,台山市,江门市,112.786301,22.264080,新大洲电动车,广东省,无,新大洲
2019-09-09,中山五路与沙岭路交叉口北100米,廉江市,湛江市,110.289738,21.614401,新大洲电动车(沙岭路),广东省,0759-6610999,新大洲
2019-09-09,幸福二路与解放南路交叉口西100米,怀集县,肇庆市,112.184780,23.902051,新大洲电动车怀集总代理,广东省,无,新大洲
2019-09-09,汤坑路与石碑街交叉口东南50米,丰顺县,梅州市,116.178688,23.761401,新大洲本田电动车,广东省,无,新大洲
2019-09-09,侨港街与兴江街交叉口南100米,兴宁市,梅州市,115.724967,24.145282,新大洲本田豪江摩托车新平爱玛电动车,广东省,无,新大洲
2019-09-09,河源大道南15号乐华宾馆一楼,源城区,河源市,114.689647,23.737987,新大洲电动车行,广东省,无,新大洲
2019-09-09,东门路32号,江城区,阳江市,111.967360,21.848246,上海新大洲电动车,广东省,无,新大洲
2019-09-09,清和大道153号,清新区,清远市,113.010992,23.733063,新大洲电动车,广东省,18318383878,新大洲
2019-09-09,半环北路18号东南80米,清城区,清远市,113.058269,23.672542,新大洲电动车,广东省,无,新大洲
2019-09-09,建设路与368县道交叉口北50米,清新区,清远市,112.812427,24.065715,新大洲电动车,广东省,无,新大洲
2019-09-09,申明亭大街与隆圩大街交叉口南100米,中山市,中山市,113.315996,22.513405,新大洲电动车(中山沙溪店),广东省,13692589808,新大洲
2019-09-09,丽春街与永春北路交叉口西南50米,湘桥区,潮州市,116.630808,23.675078,新大洲电动车,广东省,无,新大洲
2019-09-09,曲溪金溪大道矿山厂区北侧A幢111,揭东区,揭阳市,116.418723,23.568077,顺意车行雅迪电动车新大洲本田,广东省,18938348777,新大洲
2019-09-09,屏山大道294号7栋附近,鱼峰区,柳州市,109.433285,24.302319,新大洲电动车,广西壮族自治区,13407895897,新大洲
2019-09-09,联达商业广场聚龙湾西(上海南路),象山区,桂林市,110.289012,25.255486,新大洲电动车服务站,广西壮族自治区,无,新大洲
2019-09-09,中山南路27号桂青园,象山区,桂林市,110.284217,25.251240,新大洲电动车(中山南路店),广西壮族自治区,无,新大洲
2019-09-09,文澜路1号楼附近,万秀区,梧州市,111.308193,23.481037,新大洲电动车,广西壮族自治区,无,新大洲
2019-09-09,上海路与北部湾东路交叉口北100米,海城区,北海市,109.143015,21.490014,新大洲电动车风行车行,广西壮族自治区,无,新大洲
2019-09-09,新靖镇排沙路20米处南安摩托车电动车市场,靖西市,百色市,106.423268,23.113681,新大洲本田专卖店,广西壮族自治区,无,新大洲
2019-09-09,314省道北50米,大化瑶族自治县,河池市,107.654010,23.976876,新大洲电动车,广西壮族自治区,无,新大洲
2019-09-09,富康街与银兴街交叉口北50米,凭祥市,崇左市,106.757862,22.111273,新大洲本田摩托车电动车专卖店(万灵一分店),广西壮族自治区,0771-8533656,新大洲
2019-09-09,业里村,秀英区,海口市,110.274579,19.984514,新大洲电动车,海南省,无,新大洲
2019-09-09,山高路东50米,龙华区,海口市,110.338210,19.982472,新大洲电动车,海南省,无,新大洲
2019-09-09,府城镇,龙华区,海口市,110.349425,19.984459,新大洲电动车,海南省,无,新大洲
2019-09-09,龙泉镇南街97号,龙华区,海口市,110.364074,19.855544,新大洲电动车,海南省,无,新大洲
2019-09-09,东湖路2号,龙华区,海口市,110.345876,20.036569,新大洲电动车(东湖路),海南省,无,新大洲
2019-09-09,海垦东路48附近,龙华区,海口市,110.309512,20.015484,新大洲电动车(海垦路),海南省,无,新大洲
2019-09-09,世贸南路527号附近,龙华区,海口市,110.306392,20.017674,新大洲电动车,海南省,无,新大洲
2019-09-09,府城街道海南海口琼州大道明珠大厦一楼,琼山区,海口市,110.358797,20.005499,新大洲电动车,海南省,无,新大洲
2019-09-09,府城街道府城高登东街60号,琼山区,海口市,110.359566,19.998246,新大洲电动车,海南省,无,新大洲
2019-09-09,天涯区解放路963号,天涯区,三亚市,109.497296,18.265400,新大洲电动车,海南省,无,新大洲
2019-09-09,天涯镇胜利路望海花园291号,天涯区,三亚市,109.504225,18.243089,新大洲电动车,海南省,无,新大洲
2019-09-09,那大镇大通路106号,儋州市,儋州市,109.575280,19.506580,新大洲电动车,海南省,无,新大洲
2019-09-09,223国道与426县道交叉口南100米,万宁市,万宁市,110.396053,18.845806,新大洲电动车,海南省,无,新大洲
2019-09-09,东海路94附近,东方市,东方市,108.654990,19.101161,新大洲电动车,海南省,无,新大洲
2019-09-09,人民南路与见龙大道交叉口西南100米,定安县,定安县,110.324321,19.695981,新大洲电动车,海南省,无,新大洲
2019-09-09,人民西路27号,澄迈县,澄迈县,110.004880,19.732190,新大洲电动车专卖店,海南省,0898-67629688,新大洲
2019-09-09,人民北路东50米,昌江黎族自治县,昌江黎族自治县,109.056055,19.282324,新大洲,海南省,无,新大洲
2019-09-09,西门路157附近,江津区,重庆市,106.253640,29.281006,新大洲电动车,重庆市,无,新大洲
2019-09-09,金丰高架桥,金牛区,成都市,104.045386,30.739940,新大洲电动车,四川省,无,新大洲
2019-09-09,来牟镇平安西路239号,荣县,自贡市,104.180002,29.515345,新大洲本田豪爵铃木台铃电动车,四川省,无,新大洲
2019-09-09,灵泉路120号,船山区,遂宁市,105.615313,30.512039,新大洲电动车,四川省,无,新大洲
2019-09-09,新华街335附近,隆昌市,内江市,105.290908,29.334588,新大洲电动车,四川省,无,新大洲
2019-09-09,003乡道与213国道交叉口西100米,五通桥区,乐山市,103.901196,29.443156,新大洲本田(金山卫生院南),四川省,无,新大洲
2019-09-09,新政镇嘉陵西路135号,仪陇县,南充市,106.294081,31.271130,新大洲电动车,四川省,无,新大洲
2019-09-09,相如镇嘉陵中路183号原雅马哈店,蓬安县,南充市,106.416186,31.032143,新大洲本田(政府街),四川省,0817-8602998,新大洲
2019-09-09,岷江大道西50米,叙州区,宜宾市,104.549963,28.710236,新大洲电动车,四川省,18011220089,新大洲
2019-09-09,川鄂西路232号附近,乐至县,资阳市,105.021039,30.287039,新大洲本田(倍特电动车乐至店),四川省,无,新大洲
2019-09-09,世纪城社区服务中心世纪城社区服务中心北京西路421号,观山湖区,贵阳市,106.634414,26.596442,新大洲电动车,贵州省,无,新大洲
2019-09-09,G210(东联络线),汇川区,遵义市,106.952418,27.709745,新大洲电动车,贵州省,无,新大洲
2019-09-09,东联络线西50米,汇川区,遵义市,106.953081,27.712480,新大洲本田(湘隆公司一分店),贵州省,无,新大洲
2019-09-09,紫云路与马鞍山路交叉口西北100米,西秀区,安顺市,105.940900,26.227108,新大洲电动车,贵州省,无,新大洲
2019-09-09,清毕路201号附近,黔西县,毕节市,106.030363,27.016252,黔西县新大洲电动车专卖店,贵州省,13518508184,新大洲
2019-09-09,中心城步行街与中心城西街交叉口西北100米,福泉市,黔南布依族苗族自治州,107.513744,26.695709,新大洲电动车,贵州省,18198696800,新大洲
2019-09-09,雨龙路846-848号附近,官渡区,昆明市,102.756879,25.005277,新大洲电动车,云南省,无,新大洲
2019-09-09,民航路248号附近,官渡区,昆明市,102.737038,25.021976,新大洲电动车,云南省,无,新大洲
2019-09-09,幸福路2号,新平彝族傣族自治县,玉溪市,101.985190,24.067875,新大洲本田电动车,云南省,无,新大洲
2019-09-09,长虹路10-4号,通海县,玉溪市,102.754968,24.113611,新大洲电动车,云南省,无,新大洲
2019-09-09,朝阳路与甸阳西路交叉口西北50米,施甸县,保山市,99.180236,24.727639,新大洲电动车,云南省,15974976835,新大洲
2019-09-09,政通路与爱民路十字路口爱民路76号,昭阳区,昭通市,103.710900,27.337714,新大洲电动车,云南省,无,新大洲
2019-09-09,珠泉路202号,昭阳区,昭通市,103.704241,27.345534,新大洲电动,云南省,无,新大洲
2019-09-09,东朗路与309省道交叉口北100米,澜沧拉祜族自治县,普洱市,99.935205,22.549073,新大洲电动车,云南省,无,新大洲
2019-09-09,苍岭镇饱满街新大街,楚雄市,楚雄彝族自治州,101.680253,25.046385,金彭电动三轮车工场直销店,云南省,13638751371,新大洲
2019-09-09,阜安路与074乡道交叉口西北150米,建水县,红河哈尼族彝族自治州,102.832609,23.608854,新大洲本田电动车(建水专卖店),云南省,0873-3180003;15025217527,新大洲
2019-09-09,马白镇骏城路336号,马关县,文山壮族苗族自治州,104.391806,23.025430,新大洲本田电动车,云南省,无,新大洲
2019-09-09,供销街与宣慰大道交叉口西北50米,景洪市,西双版纳傣族自治州,100.794702,22.006585,新大洲电动车,云南省,无,新大洲
2019-09-09,博南镇博盛路山水美居一楼铺面,永平县,大理白族自治州,99.528678,25.453141,新大洲PALLA电动车,云南省,15752850165,新大洲
2019-09-09,016乡道与221省道交叉口西南200米,鹤庆县,大理白族自治州,100.177031,26.549060,新大洲本田电动车,云南省,无,新大洲
2019-09-09,三象北路162号附近,陇川县,德宏傣族景颇族自治州,97.798660,24.194518,新大洲电动车(三象北路店),云南省,无,新大洲
2019-09-09,G210(包南线),高陵区,西安市,109.101652,34.437601,新大洲电动车,陕西省,无,新大洲
2019-09-09,大麦市街74号,莲湖区,西安市,108.932463,34.261936,新大洲,陕西省,13468628833,新大洲
2019-09-09,阿房二路15号附近,未央区,西安市,108.853073,34.273066,新大洲电动车(阿房二路店),陕西省,无,新大洲
2019-09-09,长虹南路东50米,耀州区,铜川市,108.956563,34.887482,新大洲电动车(长虹南路),陕西省,无,新大洲
2019-09-09,G310(渭滨大道),渭滨区,宝鸡市,107.280263,34.337652,新大洲电动车,陕西省,15399222179,新大洲
2019-09-09,X326(渭惠路),武功县,咸阳市,108.213647,34.256357,新大洲电动车,陕西省,无,新大洲
2019-09-09,乾姜路西50米,乾县,咸阳市,108.265494,34.519871,新大洲电动车,陕西省,无,新大洲
2019-09-09,G312(沪霍线),永寿县,咸阳市,108.146167,34.686166,新大洲电动车专卖,陕西省,无,新大洲
2019-09-09,黄河大街183号附近,韩城市,渭南市,110.448265,35.478673,新大洲电动车,陕西省,无,新大洲
2019-09-09,中心大街靠近东关小学,洛川县,延安市,109.438513,35.757355,新大洲电动车,陕西省,无,新大洲
2019-09-09,泾洋街道泾洋镇彩虹桥面皮对面,镇巴县,汉中市,107.900322,32.525368,新大洲本田电动车,陕西省,无,新大洲
2019-09-09,人民路与贾旗路交叉口南100米,勉县,汉中市,106.685493,33.157208,新大洲电动车,陕西省,无,新大洲
2019-09-09,光明路与前进路交叉口北150米,汉台区,汉中市,107.059808,33.085842,新大洲电动车,陕西省,无,新大洲
2019-09-09,惠泉路中段,神木市,榆林市,110.496933,38.827885,刘小荣车行新大洲电动车,陕西省,13488035067,新大洲
2019-09-09,文化南路296号附近,榆阳区,榆林市,109.732726,38.279814,新大洲电动车,陕西省,18165120919;18391225680,新大洲
2019-09-09,富强东街与汉白公路交叉口东南50米,汉阴县,安康市,108.515717,32.886570,新大洲电动车,陕西省,无,新大洲
2019-09-09,兴家仓巷与安悦街交叉口南50米,汉滨区,安康市,109.025929,32.696518,新大洲电动车,陕西省,无,新大洲
2019-09-09,鱼池口小商品市场电动车一条街175号,城关区,兰州市,103.889626,36.041504,新大洲电动车(鱼池口店),甘肃省,无,新大洲
2019-09-09,段家滩路20号,城关区,兰州市,103.895159,36.044567,新大洲电动车,甘肃省,无,新大洲
2019-09-09,金川路25-4号附近,金川区,金昌市,102.199414,38.514648,新大洲电动车,甘肃省,无,新大洲
2019-09-09,公园路3-5号附近,金川区,金昌市,102.192415,38.517369,新大洲电动车(公园路),甘肃省,无,新大洲
