add_time,address,area,city,lat,lng,name,province,tel,topic
2019-09-09,南陈路与顺沙路交叉口东北100米,顺义区,北京市,116.617717,40.141097,新蕾电动车,北京市,无,新蕾
2019-09-09,五所南路与玉桥西路南延交叉口东南50米,通州区,北京市,116.672655,39.878700,新蕾电动,北京市,无,新蕾
2019-09-09,双桥路康惠园5号院2号楼底商109号,朝阳区,北京市,116.578155,39.903856,新蕾电动,北京市,15201597420,新蕾
2019-09-09,化工路与垡头路交叉口西南100米,朝阳区,北京市,116.513417,39.860220,新蕾电动车店,北京市,13901243873,新蕾
2019-09-09,宋梁路16号附近,通州区,北京市,116.732133,39.941968,新蕾电动车,北京市,无,新蕾
2019-09-09,西北旺傅家窑南区35号平房区,海淀区,北京市,116.257148,40.042561,新蕾电动车,北京市,无,新蕾
2019-09-09,十八里店十里河村314号,朝阳区,北京市,116.462658,39.860970,新蕾电动(十里河店),北京市,13311116009,新蕾
2019-09-09,宏盛路330号,大兴区,北京市,116.331496,39.794221,美强电动车行(西红门店),北京市,010-60245392;18911667212,新蕾
2019-09-09,马驹桥镇莲水怡园220号,通州区,北京市,116.547208,39.762936,特莱维狮电动车(北五村小区外环路店),北京市,无,新蕾
2019-09-09,良乡拱辰南大街42号a座,房山区,北京市,116.143454,39.726693,新蕾电动车(南关东路),北京市,无,新蕾
2019-09-09,城关街道农林路祺兴缘家园1号楼底商,房山区,北京市,115.984618,39.688257,新蕾电动车(祺兴缘家园北),北京市,无,新蕾
2019-09-09,北小营镇光明一街与顺密路交叉口北100米,顺义区,北京市,116.726461,40.199064,新蕾电动车,北京市,15116919416,新蕾
2019-09-09,北苑旅游新村39号,通州区,北京市,116.642581,39.901935,新蕾电动,北京市,15011518100,新蕾
2019-09-09,河湾路附近,朝阳区,北京市,116.575762,40.007808,小鸟新蕾电动车,北京市,无,新蕾
2019-09-09,梁台路与静霸公路交叉口西北50米,静海区,天津市,116.791667,39.021948,新蕾电动车,天津市,无,新蕾
2019-09-09,蓟州区蓟州区蓟州区安裕新村(四正街),蓟州区,天津市,117.413196,40.037732,新蕾电动车(蓟县连锁店),天津市,无,新蕾
2019-09-09,双口二村工业园区津永公路南6110号,北辰区,天津市,117.037420,39.233270,新蕾电动车(交界路),天津市,无,新蕾
2019-09-09,沙庄路与陈庄新村路交叉口东150米,武清区,天津市,116.958103,39.618761,新蕾电动车河西务厂家直营店,天津市,无,新蕾
2019-09-09,联盟路与高中街交叉口东南50米,新华区,石家庄市,114.470797,38.078819,新蕾电动,河北省,无,新蕾
2019-09-09,槐安西路262西北90米,桥西区,石家庄市,114.431908,38.024721,新蕾电动,河北省,无,新蕾
2019-09-09,西三庄街145号,新华区,石家庄市,114.448116,38.083446,新蕾电动车,河北省,无,新蕾
2019-09-09,和平西路135之7-8,新华区,石家庄市,114.487648,38.056001,新蕾电动车(石家庄旗舰店),河北省,无,新蕾
2019-09-09,和平西路与车辆厂前街交叉口东北50米,新华区,石家庄市,114.491280,38.055125,新蕾电动车(和平路店),河北省,无,新蕾
2019-09-09,迁安镇吉兰庄老大坝,迁安市,唐山市,118.688722,40.041996,新蕾电动车,河北省,无,新蕾
2019-09-09,彭李线西50米,遵化市,唐山市,117.940976,39.936758,新蕾电动车(地北头形象店),河北省,无,新蕾
2019-09-09,彭李线东50米,迁安市,唐山市,118.576740,40.010105,新蕾电动车(杨店子店),河北省,无,新蕾
2019-09-09,大庆道南50米,路北区,唐山市,118.198412,39.695599,新蕾电动车,河北省,15128802375,新蕾
2019-09-09,河北大街与红旗路交叉口夏都宾馆南三百米,海港区,秦皇岛市,119.588744,39.931675,新蕾电动,河北省,无,新蕾
2019-09-09,151县道附近,曲周县,邯郸市,115.168606,36.624657,新蕾电动车,河北省,无,新蕾
2019-09-09,106县道南50米,曲周县,邯郸市,115.080289,36.698507,新蕾电动车,河北省,无,新蕾
2019-09-09,陵西大街55号西70米,丛台区,邯郸市,114.481904,36.606163,新蕾电动车,河北省,无,新蕾
2019-09-09,212省道东50米,临漳县,邯郸市,114.610120,36.225638,新蕾电动车(张村店),河北省,13473045152,新蕾
2019-09-09,中山西路100-2号,磁县,邯郸市,114.380486,36.360095,新蕾电动车(磁县二店),河北省,15226986036,新蕾
2019-09-09,王禅东路与芳林巷交叉口西150米,临漳县,邯郸市,114.614709,36.331548,新蕾电动车(临漳店),河北省,无,新蕾
2019-09-09,107国道西50米,邯山区,邯郸市,114.355430,36.420206,新蕾电动车,河北省,无,新蕾
2019-09-09,326省道与608乡道交叉口西100米,平乡县,邢台市,114.927166,36.975004,新蕾电动,河北省,无,新蕾
2019-09-09,253县道北50米,任县,邢台市,114.886539,37.135231,新蕾电动车(任县旗舰店),河北省,无,新蕾
2019-09-09,006乡道北50米,沙河市,邢台市,114.536028,36.954611,新蕾电动车,河北省,无,新蕾
2019-09-09,秦泽西路与魏徵南街交叉口东100米,巨鹿县,邢台市,115.034611,37.212370,新蕾电动车(巨鹿店),河北省,无,新蕾
2019-09-09,241省道与G1812保阜高速交叉口南150米,曲阳县,保定市,114.631746,38.850484,新蕾电动车仁景树专卖店,河北省,15175766006,新蕾
2019-09-09,定无路西50米,定州市,保定市,114.989748,38.482132,新蕾电动车,河北省,无,新蕾
2019-09-09,兴华中路27附近,定州市,保定市,114.991067,38.521099,新蕾电动车,河北省,无,新蕾
2019-09-09,G112(京环线),涿州市,保定市,115.794497,39.377941,新蕾电动车,河北省,无,新蕾
2019-09-09,阳元南大街80号,易县,保定市,115.491899,39.345586,新蕾电动车(易县店),河北省,无,新蕾
2019-09-09,新华街与新华后街交叉路口西150米附近,桥西区,张家口市,114.880184,40.823656,新蕾电动车,河北省,无,新蕾
2019-09-09,苔山路204号附近,隆化县,承德市,117.739093,41.316936,金彭电动三轮车(隆化专卖店),河北省,无,新蕾
2019-09-09,宽城镇新兴街天宝购物中心东北250米,宽城满族自治县,承德市,118.491114,40.611517,新蕾电动车,河北省,无,新蕾
2019-09-09,市场北路前卫林场底商,平泉市,承德市,118.694417,41.011002,新蕾电动车(平泉旗舰店),河北省,无,新蕾
2019-09-09,G307(歧银线),献县,沧州市,116.370321,38.231880,新蕾电动车,河北省,无,新蕾
2019-09-09,高楼大街82号附近,三河市,廊坊市,116.863276,40.002148,新蕾电动车(高楼形象店),河北省,13131609763,新蕾
2019-09-09,蒋渠线与通唐公路交叉口西50米,香河县,廊坊市,117.135278,39.765543,新蕾电动车,河北省,无,新蕾
2019-09-09,香武线五百户镇六百户村村民委员会西,香河县,廊坊市,117.016361,39.681720,新蕾电动车,河北省,无,新蕾
2019-09-09,玉井路330号,固安县,廊坊市,116.305394,39.432494,新蕾电动车(固安总店),河北省,13691563178,新蕾
2019-09-09,解放北路336号附近,杏花岭区,太原市,112.562265,37.883292,新蕾电动车太原2-0生活馆,山西省,无,新蕾
2019-09-09,解放路170号附近,杏花岭区,太原市,112.562266,37.883379,新蕾电动车(杏岭店),山西省,0351-3196236,新蕾
2019-09-09,新建东街北50米,广灵县,大同市,114.292480,39.768133,新蕾电动车(广灵专卖店),山西省,无,新蕾
2019-09-09,和顺南路与永安西街交叉口西100米,浑源县,大同市,113.687375,39.697165,新蕾电动车,山西省,无,新蕾
2019-09-09,大北街39号,平城区,大同市,113.302007,40.095231,新蕾电动车(大同店),山西省,无,新蕾
2019-09-09,建设北路153附近,高平市,晋城市,112.931138,35.796830,新蕾电动车,山西省,无,新蕾
2019-09-09,雁门街7号附近,朔城区,朔州市,112.440637,39.309583,新蕾电动车(朔州店),山西省,无,新蕾
2019-09-09,北河沿街与宏顺路交叉口东南150米,介休市,晋中市,111.913355,37.032724,新蕾电动车,山西省,无,新蕾
2019-09-09,海泉酒店南门往东一百米,新绛县,运城市,111.215100,35.626519,新蕾电动车,山西省,15735943022,新蕾
2019-09-09,232省道西50米,闻喜县,运城市,111.191966,35.325844,新蕾电动车西宋村专卖店,山西省,无,新蕾
2019-09-09,827县道北50米,盐湖区,运城市,111.067921,35.130528,新蕾电动车(陶村店),山西省,无,新蕾
2019-09-09,凤凰路与院背后巷交叉口西50米,盐湖区,运城市,110.996114,35.015603,新蕾电动车(山西运城店),山西省,无,新蕾
2019-09-09,光明东街与光明街北巷交叉口东北100米,忻府区,忻州市,112.740534,38.403465,新蕾电动,山西省,无,新蕾
2019-09-09,砚城镇迎宾西街48号,五寨县,忻州市,111.837916,38.916939,新蕾电动车,山西省,无,新蕾
2019-09-09,忻中北巷忻州师范学院专科部西北50米,忻府区,忻州市,112.736297,38.414340,新蕾电动车(忻州店),山西省,15513223641,新蕾
2019-09-09,潞公中街与绛源南路交叉口北150米,翼城县,临汾市,111.710338,35.731606,新蕾电动车(祥和小区西南),山西省,13835791732,新蕾
2019-09-09,运管所对面,岚县,吕梁市,111.676380,38.273577,新蕾电动车(岚县连锁店),山西省,无,新蕾
2019-09-09,455县道北50米,孝义市,吕梁市,111.846776,37.152161,新蕾电动车,山西省,无,新蕾
2019-09-09,幸福南路116号附近,青山区,包头市,109.868926,40.646829,新蕾车行,内蒙古自治区,0472-5128942,新蕾
2019-09-09,滨海街道滨海B区,乌达区,乌海市,106.732760,39.515250,新蕾电动车专卖,内蒙古自治区,18204738660,新蕾
2019-09-09,和平路与西市路交叉口东100米,阿鲁科尔沁旗,赤峰市,120.088889,43.879946,新蕾电动车(天山旗舰店),内蒙古自治区,无,新蕾
2019-09-09,大板街南50米,巴林右旗,赤峰市,118.686900,43.527312,新蕾电动车(大板店),内蒙古自治区,无,新蕾
2019-09-09,振兴大街47-7号,松山区,赤峰市,118.938912,42.274854,新蕾电动车(赤峰连锁店),内蒙古自治区,13404863897,新蕾
2019-09-09,184乡道与303国道交叉口北200米,开鲁县,通辽市,121.726506,43.651657,新蕾电动车道德形象店,内蒙古自治区,无,新蕾
2019-09-09,036乡道与303国道交叉口东100米,科尔沁区,通辽市,122.690754,43.755075,新蕾电动车(角干专卖店),内蒙古自治区,无,新蕾
2019-09-09,奈曼大街与黄花塔拉路交叉口东50米奈曼新天地购物中心,奈曼旗,通辽市,120.655018,42.846207,新蕾电动车(奈曼旗店),内蒙古自治区,无,新蕾
2019-09-09,451县道木里图学校,科尔沁区,通辽市,122.213242,43.469529,新蕾电动车(木里图专卖店),内蒙古自治区,无,新蕾
2019-09-09,中心东大街与中心大街交叉口西北50米,科尔沁区,通辽市,122.813652,43.725104,新蕾电动车(大林镇专卖店),内蒙古自治区,15148258668,新蕾
2019-09-09,建设大街与文化路交叉口东100米,科尔沁左翼中旗,通辽市,123.315229,44.129649,新蕾电动车(保康专卖),内蒙古自治区,0475-3229599,新蕾
2019-09-09,交通路606号,科尔沁区,通辽市,122.258111,43.608709,新蕾电动车(通辽旗舰店),内蒙古自治区,无,新蕾
2019-09-09,鄂托克东街,东胜区,鄂尔多斯市,110.002242,39.822779,新蕾电动车,内蒙古自治区,无,新蕾
2019-09-09,新华南路与邮政街交叉口西150米,扎赉诺尔区,呼伦贝尔市,117.716046,49.455269,新蕾电动车,内蒙古自治区,无,新蕾
2019-09-09,解放大街118号附近,集宁区,乌兰察布市,113.104539,41.032821,新蕾电动车(集宁店),内蒙古自治区,无,新蕾
2019-09-09,复兴西大街五组7号包商银行路北,乌兰浩特市,兴安盟,122.076588,46.071972,新蕾电动车(乌市专卖店),内蒙古自治区,无,新蕾
2019-09-09,辽中区商业街68附近,辽中区,沈阳市,122.735188,41.514126,新蕾电动车,辽宁省,无,新蕾
2019-09-09,丰乐二街5号6门,沈河区,沈阳市,123.485974,41.766497,新蕾电动沈阳旗舰店,辽宁省,15142558168,新蕾
2019-09-09,云龙湖街与沈辽路交叉口西南100米,于洪区,沈阳市,123.305580,41.762340,新蕾电动,辽宁省,无,新蕾
2019-09-09,丰乐三街与长青路交叉口西南50米,沈河区,沈阳市,123.487822,41.765343,新蕾电动,辽宁省,无,新蕾
2019-09-09,建工路南12号附近,康平县,沈阳市,123.350884,42.742828,新蕾电动车(康平店),辽宁省,无,新蕾
2019-09-09,迎春街137号,苏家屯区,沈阳市,123.342888,41.658881,新蕾巨阳电动车(迎春街店),辽宁省,无,新蕾
2019-09-09,南七中路19号,铁西区,沈阳市,123.365385,41.791413,新蕾电动车(南七中路),辽宁省,无,新蕾
2019-09-09,柳江街与莲花山路交叉口南50米,皇姑区,沈阳市,123.424217,41.872743,新蕾电动,辽宁省,无,新蕾
2019-09-09,将复线东50米,瓦房店市,大连市,121.714795,39.735872,新蕾电动车(复州旗舰店),辽宁省,0411-85103211,新蕾
2019-09-09,延安路131号,庄河市,大连市,122.976893,39.702492,新蕾电动车(庄河店),辽宁省,无,新蕾
2019-09-09,申复线与车炮线交叉口东北50米,金州区,大连市,121.757556,39.477072,新蕾电动车,辽宁省,无,新蕾
2019-09-09,海皮公路与老店街交叉口西南50米,普兰店区,大连市,121.975217,39.412416,新蕾电动车(普兰店旗舰店),辽宁省,无,新蕾
2019-09-09,大宁街道移动公司斜对过,岫岩满族自治县,鞍山市,123.292585,40.283220,新蕾(盼盼电动车岫岩专卖店),辽宁省,0412-7839198;13941262241,新蕾
2019-09-09,中街路13号,海城市,鞍山市,122.751707,40.847672,新蕾电动车(海城店),辽宁省,无,新蕾
2019-09-09,铁东二道街124号,铁东区,鞍山市,122.994187,41.118462,新蕾鞍山连锁店,辽宁省,无,新蕾
2019-09-09,102国道西50米,北镇市,锦州市,121.776462,41.479554,新蕾电动车,辽宁省,无,新蕾
2019-09-09,武夷山路与湘江街交叉口西50米,太和区,锦州市,121.057482,40.845505,新蕾电动笔架山直营连锁店,辽宁省,无,新蕾
2019-09-09,经济技术开发区恋海家园4-79,太和区,锦州市,121.054188,40.850902,新蕾电动车(锦州港专卖店),辽宁省,无,新蕾
2019-09-09,军民路北50米,北镇市,锦州市,122.064470,41.547120,新蕾电动车(高山子分店),辽宁省,无,新蕾
2019-09-09,102国道(世康医院南),北镇市,锦州市,121.792084,41.590110,新蕾电动车(北镇专卖店),辽宁省,13500467135,新蕾
2019-09-09,204省道西50米,义县,锦州市,121.260785,41.337361,新蕾电动车(七里河专卖),辽宁省,无,新蕾
2019-09-09,204省道西50米,太和区,锦州市,121.250050,41.280633,新蕾电动车(电厂专卖店),辽宁省,无,新蕾
2019-09-09,,太和区,锦州市,121.149961,41.028167,新蕾电动车,辽宁省,无,新蕾
2019-09-09,209省道西50米,太和区,锦州市,121.158991,40.934798,新蕾电动车(崔屯专卖店),辽宁省,0416-3765211,新蕾
2019-09-09,209省道西50米,太和区,锦州市,121.225366,41.002804,新蕾电动车(娘娘宫专卖店),辽宁省,无,新蕾
2019-09-09,双何线与308省道交叉口西南100米附近,凌海市,锦州市,121.276116,41.115971,新蕾电动车(双羊专卖店),辽宁省,无,新蕾
2019-09-09,北镇街道交通巷路东,北镇市,锦州市,121.773250,41.367032,新蕾电动车(恒信小区北),辽宁省,0416-6657718,新蕾
2019-09-09,东街7号(东北街社区第二卫生室西南),义县,锦州市,121.247582,41.543354,新蕾电动车(义县旗舰店),辽宁省,无,新蕾
2019-09-09,解放路二段74-55号,古塔区,锦州市,121.126729,41.116180,新蕾电动车(锦州旗舰店),辽宁省,0416-2344377,新蕾
2019-09-09,解放西路94号,太和区,锦州市,121.079132,41.086136,新蕾电动三轮车(一五五专卖店),辽宁省,无,新蕾
2019-09-09,旗感线与101省道交叉口东北150米,大石桥市,营口市,122.426654,40.854066,新蕾电动车,辽宁省,0417-5045215,新蕾
2019-09-09,丁屯路与滨海街交叉口西北100米,鲅鱼圈区,营口市,122.131005,40.272269,新蕾电动车(鲅鱼圈旗舰店),辽宁省,无,新蕾
2019-09-09,东新路与辽河大街交叉口东100米,站前区,营口市,122.257010,40.679732,新蕾电动车(营口店),辽宁省,0417-2172369,新蕾
2019-09-09,繁荣大街柏林斋跆拳道南100米,大石桥市,营口市,122.502744,40.635813,新蕾电动车(大石桥店),辽宁省,无,新蕾
2019-09-09,新华路287号,白塔区,辽阳市,123.185960,41.268810,新蕾车业,辽宁省,无,新蕾
2019-09-09,兴盛路与商业街交叉口东100米,大洼区,盘锦市,122.069986,40.996796,新蕾电动车(盘锦旗舰店),辽宁省,无,新蕾
2019-09-09,嘉陵江路与泰山路交叉口东100米,铁岭县,铁岭市,123.735235,42.237845,新蕾电动车,辽宁省,无,新蕾
2019-09-09,文化街33附近,银州区,铁岭市,123.849982,42.287281,新蕾电动车(铁岭旗舰店),辽宁省,024-74180517,新蕾
2019-09-09,朝大线北50米,朝阳县,朝阳市,120.161613,41.404186,新蕾电动车(台子专卖店),辽宁省,无,新蕾
2019-09-09,南大街与希望路交叉口西南100米,凌源市,朝阳市,119.404405,41.236887,新蕾电动车(凌源连锁店),辽宁省,无,新蕾
2019-09-09,三狮线与206省道交叉口西南100米,朝阳县,朝阳市,120.253251,40.992387,新蕾电动车(三狮线),辽宁省,无,新蕾
2019-09-09,兴工路16-13号,建平县,朝阳市,119.638951,41.403955,新蕾电动车(建平旗舰店),辽宁省,无,新蕾
2019-09-09,101国道北50米,凌源市,朝阳市,119.360285,41.232825,新蕾电动车(凌源八里堡分店),辽宁省,无,新蕾
2019-09-09,建设路18-15号,双塔区,朝阳市,120.445196,41.577224,新蕾电动车(朝阳旗舰店),辽宁省,无,新蕾
2019-09-09,新华大街西50米,龙港区,葫芦岛市,120.799159,40.707311,新蕾电动(双树店),辽宁省,无,新蕾
2019-09-09,G102(京哈线),南票区,葫芦岛市,120.998765,40.898827,新蕾电动车,辽宁省,无,新蕾
2019-09-09,红旗街264号附近,建昌县,葫芦岛市,119.800877,40.816149,新蕾电动车(建昌店),辽宁省,0429-7129979,新蕾
2019-09-09,正阳街与030县道交叉口西南200米,连山区,葫芦岛市,120.618503,40.922055,新蕾电动车,辽宁省,0429-4131429,新蕾
2019-09-09,石桥街60号附近,建昌县,葫芦岛市,120.153018,40.791717,新蕾电动车专卖(石桥街),辽宁省,15142918918,新蕾
2019-09-09,新华大街24-8号,连山区,葫芦岛市,120.846109,40.748918,新蕾电动车(新华大街),辽宁省,无,新蕾
2019-09-09,纪家街道纪家镇政府西南,九台区,长春市,125.638478,44.261986,新蕾电动车,吉林省,无,新蕾
2019-09-09,龙双线齐家镇广生小学西150米,双阳区,长春市,125.707984,43.637231,新蕾电动车(广生镇专卖店),吉林省,无,新蕾
2019-09-09,红旗街与饮马河大路交叉口北50米,九台区,长春市,125.741557,44.109043,新蕾电动车,吉林省,无,新蕾
2019-09-09,菜园子街与0025县道交叉口东南150米,德惠市,长春市,125.836249,44.745421,新蕾电动车(菜园子仁平专卖店),吉林省,无,新蕾
2019-09-09,西营城街道宝邑大街九台六中南350米,九台区,长春市,125.806984,44.028942,新蕾电动车(西营城店),吉林省,无,新蕾
2019-09-09,农安镇文化街,农安县,长春市,125.179776,44.435719,新蕾电动车(农安专卖店),吉林省,无,新蕾
2019-09-09,城壕路与榆树大街交叉口南150米,榆树市,长春市,126.563898,44.831740,新蕾电动车(榆树旗舰店),吉林省,无,新蕾
2019-09-09,站前路78号,九台区,长春市,125.834359,44.153304,新蕾电动车(九台专卖店),吉林省,无,新蕾
2019-09-09,东双阳大街165号附近,双阳区,长春市,125.674132,43.526720,新蕾电动车(双阳店),吉林省,无,新蕾
2019-09-09,三道街与河南路交叉口西南50米,舒兰市,吉林市,126.951067,44.406282,新蕾电动车(舒兰二店),吉林省,无,新蕾
2019-09-09,大兴街568号附近,桦甸市,吉林市,126.733954,42.967181,新蕾电动车(桦甸店二部),吉林省,无,新蕾
2019-09-09,东风路与新东环路交叉口西北50米,东丰县,辽源市,125.541683,42.675199,新蕾电动车(东丰店),吉林省,无,新蕾
2019-09-09,建设大街2589号,东昌区,通化市,125.968658,41.740419,新蕾电动车(通化旗舰),吉林省,0435-3633626,新蕾
2019-09-09,昆仑街与松江大路交叉口西150米,乾安县,松原市,124.267111,45.031281,新蕾电动车,吉林省,无,新蕾
2019-09-09,农前线附近,前郭尔罗斯蒙古族自治县,松原市,124.727575,44.994135,新蕾电动车(红光专卖店),吉林省,无,新蕾
2019-09-09,005县道东50米,长岭县,松原市,124.476964,44.461250,新蕾电动车(巨宝专卖店),吉林省,0438-7665118,新蕾
2019-09-09,028乡道与144县道交叉口东50米,扶余市,松原市,125.477396,44.974778,新蕾电动车(新站专卖店),吉林省,无,新蕾
2019-09-09,001乡道与002乡道交叉口西南50米,扶余市,松原市,125.212647,45.335458,新蕾电动车(三骏专卖店),吉林省,13894923570,新蕾
2019-09-09,和平路1058号,宁江区,松原市,124.826600,45.180864,新蕾电动车(松原旗舰店),吉林省,15203344944,新蕾
2019-09-09,海明西路49-2号附近,洮北区,白城市,122.830454,45.613209,新蕾电动车,吉林省,0436-3333400,新蕾
2019-09-09,兴华南街568号附近,通榆县,白城市,123.082659,44.804593,新蕾电动车(通榆形象店),吉林省,无,新蕾
2019-09-09,建设路532号,泰来县,齐齐哈尔市,123.420666,46.397740,新蕾电动车(泰来店),黑龙江省,无,新蕾
2019-09-09,肇源镇九龙宫楼下,肇源县,大庆市,125.084097,45.528716,新蕾电动车(中央大街),黑龙江省,无,新蕾
2019-09-09,交通局西(汤原县汤原镇政府东),汤原县,佳木斯市,129.908657,46.734276,新蕾电动车(汤原店),黑龙江省,无,新蕾
2019-09-09,东升路与团结路交叉口西150米,东宁市,牡丹江市,131.128644,44.062613,新蕾电动车(东宁连锁店),黑龙江省,无,新蕾
2019-09-09,东城路47-1号,绥棱县,绥化市,127.124215,47.241067,新蕾电动车,黑龙江省,无,新蕾
2019-09-09,中直北路124号,北林区,绥化市,126.988356,46.641170,新蕾电动车(绥化旗舰店),黑龙江省,0455-8561800;18945366688,新蕾
2019-09-09,仓汇路663号,松江区,上海市,121.202250,31.014980,新蕾电动车(仓汇路店),上海市,13524568536,新蕾
2019-09-09,亭朱公路112附近,金山区,上海市,121.337476,30.846822,新蕾电动车朱行旗舰店,上海市,18901899887,新蕾
2019-09-09,西藏北路1371号,静安区,上海市,121.464600,31.264960,新蕾电动车,上海市,无,新蕾
2019-09-09,凤星路1175-1179号附近,青浦区,上海市,121.231886,31.204198,新蕾电动车(凤溪镇店),上海市,无,新蕾
2019-09-09,南桥立新路与新建中路交叉口西北50米,奉贤区,上海市,121.458831,30.917242,新蕾电动车,上海市,18930987728,新蕾
2019-09-09,三林镇永泰路1486号,浦东新区,上海市,121.532403,31.144251,新蕾电动车,上海市,无,新蕾
2019-09-09,凤中路504号临附近,青浦区,上海市,121.222312,31.201275,新蕾电动车(凤溪专营店),上海市,无,新蕾
2019-09-09,香花桥中路40号北50米,青浦区,上海市,121.134655,31.185987,新蕾电动车(香花桥店),上海市,无,新蕾
2019-09-09,新桥镇茜浦路704号,松江区,上海市,121.312174,31.046605,新蕾电动车(新桥旗舰店),上海市,13524440485,新蕾
2019-09-09,高桥镇大同路1002-1004号,浦东新区,上海市,121.572257,31.335098,新蕾电动车(大同路专卖店),上海市,无,新蕾
2019-09-09,重固镇赵重公路3024号,青浦区,上海市,121.185204,31.200988,新蕾电动车,上海市,无,新蕾
2019-09-09,人民北路175号人乐小区东大门,松江区,上海市,121.226862,31.011758,新蕾电动车(人民北路店),上海市,021-57710009,新蕾
2019-09-09,南团公路1840号附近,浦东新区,上海市,121.758468,30.989439,新蕾电动车,上海市,18321011059,新蕾
2019-09-09,华徐公路4453号-临附近,青浦区,上海市,121.241402,31.232942,新蕾电动车(华新店),上海市,无,新蕾
2019-09-09,川沙路1340-1342号附近,浦东新区,上海市,121.679392,31.259600,新蕾电动车(龚路店),上海市,无,新蕾
2019-09-09,祝城路57号,浦东新区,上海市,121.761150,31.108382,新蕾电动车(祝桥连锁店),上海市,无,新蕾
2019-09-09,金山卫镇城河路65号,金山区,上海市,121.328118,30.727653,新蕾电动车(城河路店),上海市,13032146998,新蕾
2019-09-09,灵山路960-964号,浦东新区,上海市,121.554514,31.233314,林美车行,上海市,15121111136;15026971963,新蕾
2019-09-09,中山二路588号附近,松江区,上海市,121.223015,31.009937,金彭新蕾电动车,上海市,021-57710009,新蕾
2019-09-09,乾清路与希望路交叉口东南100米,江宁区,南京市,118.815072,31.792337,新蕾电动,江苏省,无,新蕾
2019-09-09,殷巷铺岗街259-2号,江宁区,南京市,118.836273,31.917147,新蕾电动,江苏省,无,新蕾
2019-09-09,X306(铜岭路),江宁区,南京市,118.875315,31.685223,新蕾电动,江苏省,无,新蕾
2019-09-09,信陵路与正阳路交叉口东100米,江宁区,南京市,118.861014,31.770687,新蕾电动,江苏省,无,新蕾
2019-09-09,宁芜公路101-22号附近,雨花台区,南京市,118.719052,31.959940,新蕾电动车,江苏省,无,新蕾
2019-09-09,东月桥路270号附近,江宁区,南京市,118.938688,31.933598,新蕾电动车(淳化店),江苏省,无,新蕾
2019-09-09,平泰街33号附近,江宁区,南京市,118.804085,31.938605,新蕾电动,江苏省,无,新蕾
2019-09-09,宋墅路玉兰园小区89幢,江宁区,南京市,118.901377,31.924880,新蕾电动车,江苏省,无,新蕾
2019-09-09,大桥北路24号金盛百货大桥北路店1层,浦口区,南京市,118.730306,32.130446,新蕾电动车,江苏省,无,新蕾
2019-09-09,湖熟街道灵顺南路197-4(湖熟幼儿园对面),江宁区,南京市,118.986711,31.852855,新蕾电动车(灵顺南路),江苏省,无,新蕾
2019-09-09,建宁路57-1号,鼓楼区,南京市,118.771146,32.092208,新蕾,江苏省,无,新蕾
2019-09-09,葛关路947号,六合区,南京市,118.744773,32.245154,新蕾电动车(浦口旗舰店),江苏省,无,新蕾
2019-09-09,盛家岗街明尚东苑(明尚西苑附近),雨花台区,南京市,118.697017,31.944545,新蕾电动车(岱山店),江苏省,无,新蕾
2019-09-09,柘塘镇柘塘东路15号金燕车行,溧水区,南京市,118.922910,31.755391,新蕾电动车(柘塘镇财政所东),江苏省,13851835692,新蕾
2019-09-09,盘城新街58号,浦口区,南京市,118.715270,32.211188,新蕾电动车(盘城连锁店),江苏省,025-58731815,新蕾
2019-09-09,汤山街道汤泉东路28号,江宁区,南京市,119.061916,32.056830,新蕾电动车(汤山店),江苏省,无,新蕾
2019-09-09,九龙路226号附近,江宁区,南京市,118.926633,31.837850,新蕾电动车(龙都店),江苏省,无,新蕾
2019-09-09,浦东路进福顺金陵特色面馆旁,浦口区,南京市,118.713192,32.109939,新蕾电动车(浦东路店),江苏省,15951676634,新蕾
2019-09-09,淳关路129号,江宁区,南京市,118.935493,31.937503,新蕾电动车(淳化专卖店),江苏省,无,新蕾
2019-09-09,天印大道716号,江宁区,南京市,118.858109,31.959155,新蕾电动车(江宁旗舰店),江苏省,无,新蕾
2019-09-09,昌宁路21号,江宁区,南京市,118.865115,31.948268,新蕾电动车(昌宁路),江苏省,13451838853,新蕾
2019-09-09,盛岸西路372号,惠山区,无锡市,120.243685,31.609649,新蕾电动车(佰乐路店),江苏省,15950402472,新蕾
2019-09-09,公园东路与民主路交叉口东50米,宜兴市,无锡市,119.846882,31.251592,新蕾电动,江苏省,无,新蕾
2019-09-09,利港路34附近,锡山区,无锡市,120.555252,31.698138,新蕾电动车工厂直营店,江苏省,无,新蕾
2019-09-09,中兴路与骏马路交叉口东100米,宜兴市,无锡市,119.865065,31.433400,新蕾电动,江苏省,无,新蕾
2019-09-09,新兴路与新河路交叉口西北50米,宜兴市,无锡市,119.663125,31.395652,新蕾电动授权体验店,江苏省,无,新蕾
2019-09-09,唐芳路西50米,宜兴市,无锡市,119.935620,31.401508,SLanE新蕾电动,江苏省,无,新蕾
2019-09-09,张渚镇桃溪路59号,宜兴市,无锡市,119.632312,31.265631,新蕾电动车专卖(张渚店),江苏省,13585032395,新蕾
2019-09-09,梁溪区运河东路906号附近,梁溪区,无锡市,120.335572,31.531308,新蕾电动车,江苏省,13961849076,新蕾
2019-09-09,民主路,宜兴市,无锡市,119.847491,31.252416,新蕾车行(丁山旗舰店),江苏省,无,新蕾
2019-09-09,健康路与远东创业街交叉口东南50米,宜兴市,无锡市,119.751465,31.452057,新蕾电动车,江苏省,无,新蕾
2019-09-09,璜溪路47号附近,江阴市,无锡市,120.339680,31.755577,新蕾电动车,江苏省,无,新蕾
2019-09-09,羊尖镇工业园a区园大路10号新雷电动车,锡山区,无锡市,120.547413,31.624292,新蕾电动,江苏省,无,新蕾
2019-09-09,永康路与长寿路交叉口东南100米,江阴市,无锡市,120.379322,31.812217,新蕾电动车(长寿满兴专卖店),江苏省,无,新蕾
2019-09-09,高塍镇塍北路40号(广电局旁边),宜兴市,无锡市,119.816042,31.455926,新蕾电动车专卖,江苏省,15061732681,新蕾
2019-09-09,鹅洲东路400号附近,宜兴市,无锡市,119.896338,31.481789,新蕾电动车(鹅洲东路店),江苏省,0510-87815848,新蕾
2019-09-09,分范线与芳阳北路交叉口西150米,宜兴市,无锡市,119.939249,31.413852,新蕾电动车(芳桥专卖店),江苏省,13584242107,新蕾
2019-09-09,丁蜀镇丁山街嘉华苑(东区)南100米,宜兴市,无锡市,119.850428,31.255436,新蕾车行(丁山舰店),江苏省,0510-87429080,新蕾
2019-09-09,宜城街道太滆东路20号,宜兴市,无锡市,119.821730,31.368900,新蕾电动车(宜兴旗舰店),江苏省,18206159508;13921376016,新蕾
2019-09-09,锡沪路安镇西段28-1号,锡山区,无锡市,120.474619,31.607081,新蕾电动,江苏省,无,新蕾
2019-09-09,伊庄镇北大街,铜山区,徐州市,117.596142,34.159100,新蕾电动,江苏省,无,新蕾
2019-09-09,殷庄路麦当劳对面,鼓楼区,徐州市,117.208472,34.300541,新蕾电动车(苹果新天地店),江苏省,无,新蕾
2019-09-09,龙牵线与304县道交叉口西100米,睢宁县,徐州市,117.849700,33.982504,新蕾电动车,江苏省,15050066886,新蕾
2019-09-09,庆丰路与紧鞍路交叉口南150米,沛县,徐州市,116.923981,34.495411,新蕾电动车,江苏省,无,新蕾
2019-09-09,新安路52-1号附近,新沂市,徐州市,118.350605,34.376470,新蕾电动,江苏省,无,新蕾
2019-09-09,惠民东支路,云龙区,徐州市,117.271195,34.177438,新蕾电动车(惠民小区店),江苏省,18205003397,新蕾
2019-09-09,,鼓楼区,徐州市,117.131642,34.316315,新蕾电动车(拾屯店),江苏省,无,新蕾
2019-09-09,黄河西路12-3号,铜山区,徐州市,117.182364,34.185390,新蕾电动车(铜山新区店),江苏省,0516-66651166,新蕾
2019-09-09,堤北二巷与煤港路交叉口西北50米,鼓楼区,徐州市,117.197108,34.280335,新蕾电动车,江苏省,无,新蕾
2019-09-09,祥和路1号,鼓楼区,徐州市,117.199704,34.290837,新蕾电动车(祥和路店),江苏省,无,新蕾
2019-09-09,德政北路8号,云龙区,徐州市,117.238247,34.248694,天目新蕾电动车,江苏省,无,新蕾
2019-09-09,府前街与海棠路交叉口西北50米,铜山区,徐州市,117.263237,34.143217,新蕾电动车,江苏省,无,新蕾
2019-09-09,王林文化街80号附近,睢宁县,徐州市,118.028919,33.846092,新蕾电动车,江苏省,无,新蕾
2019-09-09,下淀路138号,鼓楼区,徐州市,117.220503,34.284723,新蕾电动车(下淀路店),江苏省,无,新蕾
2019-09-09,九里街道汉城路,鼓楼区,徐州市,117.134377,34.290807,新蕾电动车(九里店),江苏省,无,新蕾
2019-09-09,人民路与305县道交叉口西北50米,铜山区,徐州市,117.068475,34.356422,新蕾电动车(刘集店),江苏省,无,新蕾
2019-09-09,郑集镇商业街圆盘道东58米路北,铜山区,徐州市,117.046830,34.439200,新蕾电动车(全国连锁郑集店),江苏省,无,新蕾
2019-09-09,三堡街道振兴路茗居苑门面房,铜山区,徐州市,117.484030,34.086224,新蕾电动车,江苏省,0516-83078286,新蕾
2019-09-09,广德路东支路南50米,贾汪区,徐州市,117.279294,34.284557,新蕾电动车(蟠桃店),江苏省,18361558211,新蕾
2019-09-09,棠张镇沟棠路蓝溪花园南250米,铜山区,徐州市,117.261655,34.149463,新蕾电动车,江苏省,无,新蕾
2019-09-09,汉城小区,鼓楼区,徐州市,117.134213,34.291267,祥和车行(汉城路),江苏省,无,新蕾
2019-09-09,310国道南150米,贾汪区,徐州市,117.350507,34.355984,新蕾电动车,江苏省,无,新蕾
2019-09-09,203县道西200米,贾汪区,徐州市,117.356417,34.288496,新蕾电动车(大黄山店),江苏省,无,新蕾
2019-09-09,新泉路与温州大道交叉口西北50米,贾汪区,徐州市,117.469963,34.395492,新蕾电动车,江苏省,无,新蕾
2019-09-09,供销佳苑东南50米(运河路东),铜山区,徐州市,117.255094,34.363018,新蕾电动车(茅村连锁店),江苏省,15062166208,新蕾
2019-09-09,黄河南路79附近,泉山区,徐州市,117.162786,34.273419,新蕾电动车(黄河店),江苏省,13705216200,新蕾
2019-09-09,隆源路与322省道交叉口东南100米顺泰人家附近,铜山区,徐州市,116.990572,34.435777,新蕾电动车(徐州黄集专卖店),江苏省,无,新蕾
2019-09-09,商城街南150米,贾汪区,徐州市,117.570508,34.338522,新蕾电动车(商城街店),江苏省,无,新蕾
2019-09-09,301县道附近,丰县,徐州市,116.466759,34.847364,新蕾电动车(首常线),江苏省,无,新蕾
2019-09-09,复兴北路163号,鼓楼区,徐州市,117.202975,34.282785,新蕾电动车(堤北店),江苏省,无,新蕾
2019-09-09,,新北区,常州市,119.807516,31.902252,新蕾电动车,江苏省,无,新蕾
2019-09-09,勤业支路与星园路交叉口东北50米,钟楼区,常州市,119.930302,31.782541,新蕾电动,江苏省,无,新蕾
2019-09-09,德胜路18号附近,新北区,常州市,119.928677,31.969755,新蕾电动车,江苏省,13776397482,新蕾
2019-09-09,离宫路104号,天宁区,常州市,119.977055,31.745340,新蕾电动车,江苏省,13218671123,新蕾
2019-09-09,茅东大街与薛埠大街交叉口东北50米,金坛区,常州市,119.377487,31.722237,新蕾电动授权体验店,江苏省,无,新蕾
2019-09-09,人民西路12号附近,武进区,常州市,119.900385,31.729364,新蕾电动,江苏省,无,新蕾
2019-09-09,童子河东路与香樟路交叉口西南200米,钟楼区,常州市,119.886332,31.802747,新蕾电动,江苏省,无,新蕾
2019-09-09,新闸新昌路453号,钟楼区,常州市,119.903126,31.814057,新蕾电动,江苏省,无,新蕾
2019-09-09,儒林镇北街82号西南80米,金坛区,常州市,119.620610,31.587626,新蕾电动车(金坛旗舰店),江苏省,无,新蕾
2019-09-09,东方大道与戚月路交叉口西100米,武进区,常州市,120.094810,31.761397,新蕾电动车,江苏省,13961196885,新蕾
2019-09-09,大学城鸣新中路67-1号,武进区,常州市,119.939636,31.674332,新蕾电动车,江苏省,无,新蕾
2019-09-09,金城镇丹荆路丹丽花园,金坛区,常州市,119.572833,31.754836,新蕾电动车(丹丽店),江苏省,13338172899,新蕾
2019-09-09,中吴大道与印墅大道交叉口西100米,武进区,常州市,120.089524,31.697457,新蕾电动车(中天店),江苏省,无,新蕾
2019-09-09,华林路与西林路交叉口南200米,钟楼区,常州市,119.892537,31.764071,新蕾电动车,江苏省,无,新蕾
2019-09-09,圩墩路138号,武进区,常州市,120.063844,31.716558,新蕾电动车(圩墩路),江苏省,无,新蕾
2019-09-09,东方大道与戚月路交叉口西100米,武进区,常州市,120.094750,31.761454,尼科尼亚电动车(横山桥专卖店),江苏省,13961196885,新蕾
2019-09-09,博爱路272号,天宁区,常州市,119.958638,31.784510,新蕾电动,江苏省,无,新蕾
2019-09-09,人民中路320号,武进区,常州市,119.964196,31.727340,新蕾电动,江苏省,无,新蕾
2019-09-09,凤林北路与春秋路交叉口北100米,武进区,常州市,119.926826,31.684250,新蕾电动,江苏省,无,新蕾
2019-09-09,,武进区,常州市,119.980775,31.712734,新蕾电动,江苏省,无,新蕾
2019-09-09,清潭路380号,钟楼区,常州市,119.924661,31.768283,台铃新蕾电动车,江苏省,13775279183,新蕾
2019-09-09,江兴西路563号附近,吴江区,苏州市,120.637652,31.169635,新蕾电动车,江苏省,18112723503,新蕾
2019-09-09,黑龙江南路27号,昆山市,苏州市,120.983380,31.358798,新蕾电动车,江苏省,13390876865,新蕾
2019-09-09,红树湾花园兴吴路1213号,吴江区,苏州市,120.635881,31.223323,新蕾电动,江苏省,无,新蕾
2019-09-09,甪直镇陶浜东方大道182号,吴中区,苏州市,120.837519,31.264686,新蕾电动车(甪直店),江苏省,18654285976,新蕾
2019-09-09,问渡路25号,相城区,苏州市,120.440466,31.433690,新蕾电动,江苏省,无,新蕾
2019-09-09,桐泾北路378号枫桥夜泊大厦1层,姑苏区,苏州市,120.578653,31.315527,新蕾电动车,江苏省,18106137496,新蕾
2019-09-09,黎里镇莘塔镇商巷路212号,吴江区,苏州市,120.852602,31.054632,新蕾电动车,江苏省,15365361597,新蕾
2019-09-09,花卉巷23号附近,吴中区,苏州市,120.630823,31.275285,新蕾电动车(苏苑店),江苏省,无,新蕾
2019-09-09,笠泽路155号大润发超市内恒森国际广场1层,吴江区,苏州市,120.647591,31.148886,新蕾电动车时尚概念馆,江苏省,13862551016,新蕾
2019-09-09,先奇街与盘蠡路交叉口西北50米,姑苏区,苏州市,120.614268,31.269643,新蕾电动车(吴中店),江苏省,18896935326,新蕾
2019-09-09,海虞镇深圳路与南沙路十字路口红绿灯北30米附近,常熟市,苏州市,120.745597,31.692498,新蕾电动车(毛桥店),江苏省,无,新蕾
2019-09-09,支塘镇朝阳路36号,常熟市,苏州市,120.964885,31.540695,新蕾电动车(任阳店),江苏省,15206234178;15370153845,新蕾
2019-09-09,城厢镇长埭路7号(江南花园南100米),太仓市,苏州市,121.105720,31.441366,新蕾电动,江苏省,13809052580,新蕾
2019-09-09,五洲西路与四通路交叉口西北50米,太仓市,苏州市,121.133528,31.487210,新蕾电动车(板桥店),江苏省,无,新蕾
2019-09-09,凤凰街与镇南路交叉口西50米,吴江区,苏州市,120.501745,30.907620,新蕾电动车,江苏省,无,新蕾
2019-09-09,盛泽镇南麻路699号,吴江区,苏州市,120.542078,30.886044,新蕾电动车(南麻店),江苏省,无,新蕾
2019-09-09,众兴街与市西路交叉口东南50米,太仓市,苏州市,121.152514,31.545753,新蕾电动车(岳王店),江苏省,无,新蕾
2019-09-09,太湖新城镇松陵镇体育路35号,吴江区,苏州市,120.674758,31.075248,新蕾电动车(八坼专卖店),江苏省,13952404183,新蕾
2019-09-09,张浦镇南港望江路南港小学50米,昆山市,苏州市,120.882902,31.274655,新蕾电动车(新蕾店),江苏省,无,新蕾
2019-09-09,南京路与维达路交叉口北150米,张家港市,苏州市,120.634304,31.818226,新蕾电动车,江苏省,15962342851;18751188445,新蕾
2019-09-09,繁荣路与镇南大道交叉口东北150米,吴江区,苏州市,120.469460,30.989583,新蕾,江苏省,15599031772,新蕾
2019-09-09,人民路与桃花源大道交叉口西50米,吴江区,苏州市,120.490035,30.801394,新蕾电动车(桃源店),江苏省,无,新蕾
2019-09-09,,吴中区,苏州市,120.846585,31.265093,新蕾电动车,江苏省,无,新蕾
2019-09-09,环城东路49号,常熟市,苏州市,120.749706,31.642031,新蕾电动车(常熟旗舰店),江苏省,0512-52709318,新蕾
2019-09-09,平望镇梅堰社区双龙路106号,吴江区,苏州市,120.586577,30.983039,新蕾电动车(梅堰店),江苏省,无,新蕾
2019-09-09,桃源镇青云大道1192号,吴江区,苏州市,120.490606,30.846841,新蕾电动车,江苏省,无,新蕾
2019-09-09,斜桥长安北路255-257号,张家港市,苏州市,120.553840,31.889487,新蕾电动车(杨舍店),江苏省,无,新蕾
2019-09-09,甪直镇凌港甪胜路46号,吴中区,苏州市,120.821046,31.286261,新蕾电动车(胜铺专卖店),江苏省,无,新蕾
2019-09-09,乌鹊桥路59号,姑苏区,苏州市,120.628459,31.294141,新蕾电动车(乌鹊桥旗舰店),江苏省,0512-65194178,新蕾
2019-09-09,太湖新城镇松陵镇体育路35号,吴江区,苏州市,120.654962,31.146099,小牛电动,江苏省,13952404183;13862551016,新蕾
2019-09-09,晨曦路4-1号附近,昆山市,苏州市,121.040011,31.385283,新蕾电动,江苏省,无,新蕾
2019-09-09,313县道附近,如东县,南通市,121.172868,32.273576,新蕾电动车,江苏省,无,新蕾
2019-09-09,人民西路与静安路交叉口西100米,海门市,南通市,121.161956,31.889966,新蕾电动,江苏省,无,新蕾
2019-09-09,竹韵花园西大门,崇川区,南通市,120.990043,31.903609,新蕾电动,江苏省,无,新蕾
2019-09-09,为民路与虹南路交叉口东北50米,通州区,南通市,121.067623,32.083474,新蕾电动,江苏省,无,新蕾
2019-09-09,福利路与福达路交叉口东200米,港闸区,南通市,120.849144,32.085910,新蕾电动,江苏省,无,新蕾
2019-09-09,九总北路与111县道交叉口东北50米,如东县,南通市,121.257847,32.343427,新蕾电动车九总专卖店,江苏省,15190976815,新蕾
2019-09-09,隆兴佳园D幢110室,港闸区,南通市,120.796238,32.043432,新蕾电动车专卖,江苏省,无,新蕾
2019-09-09,创业东路与新地南路交叉口南150米,通州区,南通市,120.944775,32.046592,新蕾电动车,江苏省,无,新蕾
2019-09-09,顺发宾馆酒店(丁堰店),如皋市,南通市,120.688416,32.357426,新蕾电动车,江苏省,无,新蕾
2019-09-09,334省道南50米,如东县,南通市,121.156705,32.292328,新蕾电动车,江苏省,无,新蕾
2019-09-09,高新技术产业开发区夏庄村美树城路口路西,如皋市,南通市,120.606298,32.292551,新蕾电动车,江苏省,无,新蕾
2019-09-09,开发区通盛花园79幢,崇川区,南通市,120.951305,31.908789,新蕾电动车(通盛花苑店),江苏省,无,新蕾
2019-09-09,开发区开发区橡树湾60幢,崇川区,南通市,120.946181,31.933554,新蕾电动车,江苏省,15962767027,新蕾
2019-09-09,仁寿路与鹿门路交叉口西50米,如皋市,南通市,120.553864,32.402633,新蕾时尚酷车馆(城北店),江苏省,无,新蕾
2019-09-09,012县道南50米,如皋市,南通市,120.492994,32.240336,新蕾电动车专卖,江苏省,无,新蕾
2019-09-09,张芝山镇星河家园62号楼13号,通州区,南通市,121.004133,31.922778,新蕾电动车专卖店,江苏省,无,新蕾
2019-09-09,长沙镇长沙医院西隔壁,如东县,南通市,121.288569,32.410118,新蕾电动车(长沙专卖店),江苏省,无,新蕾
2019-09-09,丁堰镇鬼头街红绿灯南150米路西,如皋市,南通市,120.692367,32.352157,新蕾电动车,江苏省,无,新蕾
2019-09-09,314县道北50米,如皋市,南通市,120.758380,32.298082,新蕾电动车,江苏省,无,新蕾
2019-09-09,范堤北路9号中央广场C区1号楼129商铺,如东县,南通市,121.196700,32.315163,新蕾电动车(中央广场专卖店),江苏省,13806270348,新蕾
2019-09-09,悦来镇三条桥,海门市,南通市,121.379841,31.932374,新蕾电动车(三条桥店),江苏省,无,新蕾
2019-09-09,高新区资丰市场二期工程5排7一8号,海安市,南通市,120.456225,32.525612,新蕾电动车(神龙车业),江苏省,无,新蕾
2019-09-09,010县道与026乡道交叉口西北100米,如东县,南通市,120.794210,32.450265,新蕾电动车(袁庄专卖店),江苏省,0513-84689894;18936208894,新蕾
2019-09-09,大豫镇人民南路中国邮政北200米,如东县,南通市,121.302648,32.222882,新蕾电动车(丁店专卖店),江苏省,13584605876,新蕾
2019-09-09,王川线与222省道交叉口北100米,海门市,南通市,121.252140,31.970961,新蕾电动车(平山店),江苏省,13222190135,新蕾
2019-09-09,华兴路与023县道交叉口西北50米,通州区,南通市,121.245401,32.175882,新蕾电动车(北兴桥店),江苏省,无,新蕾
2019-09-09,掘港镇苏中建材市场五区22-25号附近,如东县,南通市,121.203212,32.228912,新蕾电动车(童店专卖店),江苏省,15862862283,新蕾
2019-09-09,皋南大道与011县道交叉口北100米,如皋市,南通市,120.568037,32.337650,新蕾电动车(大明专卖店),江苏省,13646190555,新蕾
2019-09-09,兴惠街272号附近,启东市,南通市,121.757206,31.766298,新蕾电动车(惠萍店),江苏省,无,新蕾
2019-09-09,长江西路10号附近,如皋市,南通市,120.564556,32.100013,新蕾电动车(二家店),江苏省,13813647795,新蕾
2019-09-09,016县道北50米,通州区,南通市,120.940553,32.209343,新蕾电动车,江苏省,无,新蕾
2019-09-09,XZ01与人民北路交叉口X203与XZ01交叉口北50米,如东县,南通市,121.299540,32.269335,新蕾电动车(兵房专卖店),江苏省,无,新蕾
2019-09-09,南川园南北路与南川园路交叉口西150米,崇川区,南通市,120.886348,32.002078,新蕾电动车,江苏省,无,新蕾
2019-09-09,朝阳路与通富南路交叉口西100米路北,崇川区,南通市,120.921997,31.960260,新蕾电动车(朝阳路),江苏省,18860970998,新蕾
2019-09-09,新一佳超市(兴亭公路店)西50米,通州区,南通市,120.972810,32.080515,新蕾电动车(兴东店),江苏省,13167488878,新蕾
2019-09-09,436乡道与447乡道交叉口西南50米,海安市,南通市,120.340620,32.433147,新蕾电动车(张剁店),江苏省,13615220823,新蕾
2019-09-09,三陈路南200米(旺购超市对面),通州区,南通市,120.946055,32.130658,新蕾电动车(东方丽都小区西),江苏省,13773737209,新蕾
2019-09-09,中山西路与志颐路交叉口西南50米,如皋市,南通市,120.542974,32.384323,新蕾电动车(如皋旗舰二店),江苏省,18994222345,新蕾
2019-09-09,刘桥镇苏沪花园11号,通州区,南通市,120.840093,32.164192,新蕾电动车(刘桥连锁店),江苏省,无,新蕾
2019-09-09,七贯路与334省道交叉口东北50米,如东县,南通市,121.334589,32.272007,新蕾电动车(七贯路店),江苏省,无,新蕾
2019-09-09,中心路与007乡道交叉口北100米,通州区,南通市,120.895907,32.105534,新蕾电动车(中心路),江苏省,无,新蕾
2019-09-09,建新路51号,启东市,南通市,121.663387,31.807005,新蕾电动车(启东店),江苏省,0513-83313508,新蕾
2019-09-09,外环西路汇达广场4号楼,港闸区,南通市,120.827859,32.026864,新蕾电动,江苏省,无,新蕾
2019-09-09,下口村老码头斜对面,赣榆区,连云港市,119.171183,34.824154,新蕾电动车(下口专卖店),江苏省,无,新蕾
2019-09-09,菜市街57-37附近,东海县,连云港市,118.766128,34.520659,新蕾电动车(东海店),江苏省,无,新蕾
2019-09-09,丽景街57号,赣榆区,连云港市,119.121213,34.843588,新蕾电动车(赣榆店),江苏省,无,新蕾
2019-09-09,栖霞路97-8号,连云区,连云港市,119.365017,34.742978,新蕾电动车(连云区店),江苏省,无,新蕾
2019-09-09,县道102新海永盛超市旁,盱眙县,淮安市,118.553997,32.998619,新蕾电动车(永昌店),江苏省,13813302369,新蕾
2019-09-09,万家乐超市(王杨路南),淮阴区,淮安市,118.961360,33.592094,新蕾电动车,江苏省,无,新蕾
2019-09-09,宁徐路与121省道交叉口东南100米,盱眙县,淮安市,118.492051,33.038051,新蕾电动车,江苏省,无,新蕾
2019-09-09,都梁大道西50米,盱眙县,淮安市,118.531154,33.003147,新蕾电动车(新马店),江苏省,13770461887,新蕾
2019-09-09,盱城镇金鹏大道95号,盱眙县,淮安市,118.525818,32.991602,新蕾电动车(盱眙店),江苏省,无,新蕾
2019-09-09,金源南路111号,盱眙县,淮安市,118.507020,32.981880,新蕾电动车(金源南路店),江苏省,0517-88202168,新蕾
2019-09-09,清江浦区勤政北路与电机路交叉口西北50米,清江浦区,淮安市,119.016311,33.597475,新蕾电动车(淮安店),江苏省,无,新蕾
2019-09-09,慧丰巷与金源南路交叉口南50米,盱眙县,淮安市,118.515070,32.990871,新蕾电动车(盱眙店),江苏省,无,新蕾
2019-09-09,幸福东大街216号附近,大丰区,盐城市,120.470775,33.203207,新蕾电动车(康平路服务店),江苏省,15195166852;13912526048,新蕾
2019-09-09,向阳北路与向阳路交叉口南50米,滨海县,盐城市,119.881302,33.831072,新蕾电动,江苏省,无,新蕾
2019-09-09,复兴街287号附近,滨海县,盐城市,119.943730,33.898024,新蕾电动,江苏省,无,新蕾
2019-09-09,中兴路与人民路交叉口北150米,盐都区,盐城市,119.915630,33.339441,新蕾电动车,江苏省,无,新蕾
2019-09-09,人民路,盐都区,盐城市,119.960235,33.205819,新蕾电动车,江苏省,无,新蕾
2019-09-09,迎宾大道光荣小区底商,亭湖区,盐城市,120.186313,33.406591,新蕾电动,江苏省,无,新蕾
2019-09-09,汇文东路891附近,建湖县,盐城市,119.818358,33.462239,新蕾电动授权体验店,江苏省,15722555131,新蕾
2019-09-09,台南社区河口大桥,东台市,盐城市,120.276625,32.799660,新蕾电动车专卖,江苏省,无,新蕾
2019-09-09,鹿鸣路493号附近,盐都区,盐城市,120.135184,33.340914,新蕾电动,江苏省,无,新蕾
2019-09-09,丰方线西50米,大丰区,盐城市,120.477650,33.441601,新蕾电动车(丰富形象店),江苏省,无,新蕾
2019-09-09,体西路与大庆路交叉口西北50米,亭湖区,盐城市,120.133728,33.368403,新蕾电动车(大庆路店),江苏省,0515-83030689,新蕾
2019-09-09,大庆路与盐马路交叉口东北150米,亭湖区,盐城市,120.131266,33.368782,新蕾电动,江苏省,无,新蕾
2019-09-09,合德镇振阳街13号楼,射阳县,盐城市,120.256925,33.768016,新蕾电动车,江苏省,无,新蕾
2019-09-09,青墩中路219,亭湖区,盐城市,120.158974,33.464401,新蕾电动车(青墩连锁店),江苏省,无,新蕾
2019-09-09,护陇路与繁华巷交叉口北100米,盐都区,盐城市,120.045534,33.257962,新蕾电动车(护陇路),江苏省,无,新蕾
2019-09-09,纬六路与老204国道交叉口西北150米,东台市,盐城市,120.285538,32.896013,新蕾电动车(老204国道),江苏省,无,新蕾
2019-09-09,人民北路50号,大丰区,盐城市,120.462334,33.204922,新蕾电动车(大丰店),江苏省,无,新蕾
2019-09-09,海韵家园2-1011,大丰区,盐城市,120.737793,33.251678,新蕾电动车,江苏省,15851000485,新蕾
2019-09-09,唐南街与黄海南街交叉口西北100米,东台市,盐城市,120.693836,32.623960,新蕾电动车,江苏省,13401250608,新蕾
2019-09-09,文苑路4号附近,亭湖区,盐城市,120.156848,33.390998,新蕾电动车,江苏省,13951488644,新蕾
2019-09-09,庆丰镇水柳北路,建湖县,盐城市,119.935303,33.468780,新蕾电动车专卖店,江苏省,无,新蕾
2019-09-09,政府中街南50米,东台市,盐城市,120.553671,32.886574,新蕾电动车,江苏省,13851300218,新蕾
2019-09-09,迎宾大道北50米,亭湖区,盐城市,120.240850,33.435502,新蕾电动车(迎宾大道),江苏省,无,新蕾
2019-09-09,人民路82号附近,大丰区,盐城市,120.370362,33.172559,新蕾电动车新团连锁店,江苏省,13092185288,新蕾
2019-09-09,盐城市中心路与黄海路交叉口东北150米,大丰区,盐城市,120.594074,33.127581,新蕾电动车通商形象店,江苏省,0515-83333933,新蕾
2019-09-09,大方线与226省道交叉口东南150米,大丰区,盐城市,120.659868,32.920803,新蕾电动车,江苏省,无,新蕾
2019-09-09,大华路45-3号,大丰区,盐城市,120.474691,33.196975,新蕾电动车(大华路店),江苏省,13851006691,新蕾
2019-09-09,大中镇人民北路15号,大丰区,盐城市,120.458760,33.205954,新蕾电动车(建业路店),江苏省,15851007580,新蕾
2019-09-09,千黄线与通兴西路交叉口北100米,射阳县,盐城市,120.341820,33.807752,新蕾电动车(海通店),江苏省,无,新蕾
2019-09-09,大兴1号小区18幢M101,亭湖区,盐城市,120.182716,33.355538,新蕾电动车(开发区专卖店),江苏省,13770006446,新蕾
2019-09-09,阜建路18号附近,阜宁县,盐城市,119.799640,33.692226,新蕾电动车(阜宁一店),江苏省,0515-87512890,新蕾
2019-09-09,人民北路424号,亭湖区,盐城市,120.103278,33.420180,卧龙新蕾电动车,江苏省,无,新蕾
2019-09-09,文峰街道盐马路10-3号,亭湖区,盐城市,120.126472,33.377485,新蕾电动(盐马路店),江苏省,18066182009;13770082446,新蕾
2019-09-09,G204(烟沪线),亭湖区,盐城市,120.226376,33.309302,福伴新蕾电动车(伍佑连锁店),江苏省,无,新蕾
2019-09-09,X302(回归路),邗江区,扬州市,119.315085,32.524044,新蕾电动车,江苏省,无,新蕾
2019-09-09,浦峰路东50米,仪征市,扬州市,119.131284,32.290677,新蕾电动,江苏省,无,新蕾
2019-09-09,华联路北50米,仪征市,扬州市,119.272390,32.429151,刘集新蕾电动车,江苏省,无,新蕾
2019-09-09,阳光路阳光锦城28幢12号,宝应县,扬州市,119.325846,33.256100,新蕾电动车,江苏省,无,新蕾
2019-09-09,吉安路155号,邗江区,扬州市,119.386036,32.341471,电动车专卖,江苏省,13773570976,新蕾
2019-09-09,杭集镇富民路43号,广陵区,扬州市,119.540871,32.362996,新蕾电动车(杭集店),江苏省,无,新蕾
2019-09-09,邵真路47号附近,江都区,扬州市,119.572512,32.581313,新蕾电动车(杨庄店),江苏省,无,新蕾
2019-09-09,033县道与307县道交叉口东100米,高邮市,扬州市,119.672314,32.734139,新蕾电动车,江苏省,无,新蕾
2019-09-09,卸甲镇东风街89号正东方向37米,高邮市,扬州市,119.599290,32.758518,新蕾电动车(卸甲店),江苏省,13092057935,新蕾
2019-09-09,七泉路与慧照路交叉口东50米,邗江区,扬州市,119.347332,32.478465,新蕾电动车(甘泉店),江苏省,无,新蕾
2019-09-09,通运路228号(扬州龙翔宾馆附近),邗江区,扬州市,119.388680,32.291603,新蕾电动车(运西店),江苏省,13813146678,新蕾
2019-09-09,昌兴路与马横公路交叉口东100米,高邮市,扬州市,119.581075,32.906767,新蕾电动车(司徒兴楼店),江苏省,18752564683,新蕾
2019-09-09,金山西路(原新大星超市),润州区,镇江市,119.404056,32.207551,新蕾电动车,江苏省,13913443005,新蕾
2019-09-09,丁卯桥路161-1号,京口区,镇江市,119.481424,32.178150,新蕾电动车,江苏省,无,新蕾
2019-09-09,玉书路107附近,丹徒区,镇江市,119.304661,32.170231,新蕾电动,江苏省,无,新蕾
2019-09-09,和平路街道朱方路68号,润州区,镇江市,119.424727,32.205962,新蕾电动车店,江苏省,无,新蕾
2019-09-09,东吴路与花山湾北交叉口西南100米,京口区,镇江市,119.467590,32.214241,新蕾电动,江苏省,无,新蕾
2019-09-09,中山路与复兴路交叉口西南100米,丹阳市,镇江市,119.574533,31.994372,新蕾电动,江苏省,无,新蕾
2019-09-09,长江路293号之1-2附近,润州区,镇江市,119.412748,32.211859,新蕾电动车,江苏省,18952891361,新蕾
2019-09-09,三官塘巷与中山西路交叉口东南50米,润州区,镇江市,119.440219,32.201480,新蕾电动授权旗舰店,江苏省,无,新蕾
2019-09-09,岗子下路与鸿鹤桥路交叉口东北50米,润州区,镇江市,119.465130,32.189749,新蕾电动车,江苏省,无,新蕾
2019-09-09,中国石化辛丰加油站东(谏辛线东),丹徒区,镇江市,119.574511,32.120927,新蕾电动车(辛丰连锁店),江苏省,无,新蕾
2019-09-09,桃花坞1区15号,京口区,镇江市,119.472128,32.205961,新蕾电动车,江苏省,无,新蕾
2019-09-09,高红路西50米,丹徒区,镇江市,119.654730,32.227241,新蕾电动车,江苏省,无,新蕾
2019-09-09,朱方路201号,润州区,镇江市,119.424576,32.205950,新蕾电动车(镇江旗舰店),江苏省,18061821212;0511-85636697,新蕾
2019-09-09,北圩巷与扬子东路交叉口北50米,扬中市,镇江市,119.830866,32.235748,新蕾电动车(扬中店),江苏省,无,新蕾
2019-09-09,党泰西路35附近,丹徒区,镇江市,119.408317,32.071315,新蕾电动车(上党店),江苏省,13952813398,新蕾
2019-09-09,龙山路圣地雅格北门(玉南小区对面),丹徒区,镇江市,119.437225,32.132825,新蕾电动车丹徒旗舰店,江苏省,18652894648,新蕾
2019-09-09,康宁路71号附近,靖江市,泰州市,120.276440,32.019518,新蕾电动车,江苏省,15952635819,新蕾
2019-09-09,老姜八路三元桥段东50米,靖江市,泰州市,120.311514,32.109778,新蕾电动车格林豪泰,江苏省,无,新蕾
2019-09-09,永丰北路183附近,泰兴市,泰州市,120.236547,32.250437,新蕾电动(黄桥店),江苏省,无,新蕾
2019-09-09,海滨路与金诚街交叉口东北150米,姜堰区,泰州市,120.053583,32.406970,新蕾电动车,江苏省,无,新蕾
2019-09-09,港口村夹河街35号,姜堰区,泰州市,119.915465,32.574647,新蕾电动车,江苏省,无,新蕾
2019-09-09,塔东路24号,泰兴市,泰州市,120.240952,32.246613,新蕾电动车,江苏省,无,新蕾
2019-09-09,景德北路与311县道交叉口西北50米,兴化市,泰州市,120.010767,32.748553,新蕾电动车,江苏省,无,新蕾
2019-09-09,雨声村8-248号,海陵区,泰州市,119.858508,32.509947,新蕾雅迪电动车,江苏省,13641586485,新蕾
2019-09-09,顾庄,兴化市,泰州市,120.065209,32.749663,新蕾电动车(顾庄专卖店),江苏省,18796728572,新蕾
2019-09-09,府西路20号附近,高港区,泰州市,119.974510,32.356716,新蕾电动车大泗店,江苏省,无,新蕾
2019-09-09,开发区丰收南路150号,兴化市,泰州市,119.835013,32.919768,新蕾电动车(兴化旗舰店),江苏省,无,新蕾
2019-09-09,大垛镇文化北路52号,兴化市,泰州市,120.044338,32.904153,新蕾电动车(大垛专卖店),江苏省,无,新蕾
2019-09-09,马桥镇白衣堂,靖江市,泰州市,120.207085,32.036447,新蕾电动车(马桥店),江苏省,无,新蕾
2019-09-09,龙海浴场(336省道北),泰兴市,泰州市,120.071009,32.109885,新蕾电动车(张桥旗舰店),江苏省,15961001983,新蕾
2019-09-09,建设路与233省道交叉口西南150米,兴化市,泰州市,119.977641,33.087171,新蕾电动车,江苏省,无,新蕾
2019-09-09,戴窑镇乐吾路,兴化市,泰州市,120.215227,32.934160,新蕾电动车(戴窑店),江苏省,无,新蕾
2019-09-09,新桥镇川夹路飞跃集团北侧30米,靖江市,泰州市,120.069558,32.000671,新蕾电动车(新桥店),江苏省,无,新蕾
2019-09-09,生祠镇生祠路64号,靖江市,泰州市,120.169083,32.033616,新蕾电动车(生柯店),江苏省,15861034303;13961029851,新蕾
2019-09-09,老姜八路三元桥段东50米,靖江市,泰州市,120.311519,32.109673,新蕾电动车,江苏省,无,新蕾
2019-09-09,建设路与金富商业街交叉口西南50米,兴化市,泰州市,119.842078,32.937382,新蕾电动车(兴化旗舰店),江苏省,无,新蕾
2019-09-09,高韩线附近,沭阳县,宿迁市,119.007167,34.337412,新蕾电动,江苏省,无,新蕾
2019-09-09,永安路北50米,沭阳县,宿迁市,118.796227,34.100159,新蕾电动,江苏省,无,新蕾
2019-09-09,青阳镇交界处水岸城邦西门,泗洪县,宿迁市,118.221839,33.454827,新蕾电动车,江苏省,无,新蕾
2019-09-09,龙聚路与101县道交叉口西北200米,泗洪县,宿迁市,118.532904,33.405802,新蕾电动车,江苏省,15951069743,新蕾
2019-09-09,浦沿新浦路131号,滨江区,杭州市,120.150952,30.156597,新蕾电动车,浙江省,15558152399;15088751249,新蕾
2019-09-09,庆春路8号,下城区,杭州市,120.186560,30.258177,新蕾电动车,浙江省,13805741052,新蕾
2019-09-09,丁兰街道华丰中路751号龙湖武林九里,江干区,杭州市,120.220475,30.340574,新蕾电动车,浙江省,无,新蕾
2019-09-09,三墩路与莫干山路交叉口北50米,拱墅区,杭州市,120.106423,30.328344,杭州新蕾电动车总代理,浙江省,无,新蕾
2019-09-09,勤丰路与大农港路交叉口东50米,江干区,杭州市,120.235893,30.356661,新蕾电动车,浙江省,无,新蕾
2019-09-09,杭玻街760号(桦枫居北苑)绿源,下城区,杭州市,120.195185,30.343302,新蕾,浙江省,无,新蕾
2019-09-09,2号大街1119号附近,江干区,杭州市,120.345248,30.309452,新蕾电动,浙江省,无,新蕾
2019-09-09,通达路560号,海曙区,宁波市,121.513586,29.854710,新蕾电动车,浙江省,18518960005,新蕾
2019-09-09,骆驼街道荣吉路413号邵家汇南北物流对面,镇海区,宁波市,121.561703,29.971819,新蕾电动车,浙江省,无,新蕾
2019-09-09,樟新路391号附近,慈溪市,宁波市,121.360394,30.237350,新蕾电动车,浙江省,无,新蕾
2019-09-09,富民路与洪运路交叉口西50米,秀洲区,嘉兴市,120.656116,30.681466,洪合镇新蕾电动车,浙江省,无,新蕾
2019-09-09,王店镇百乐路154-160号尚购超市向东60米,秀洲区,嘉兴市,120.721480,30.617628,新蕾电动车,浙江省,无,新蕾
2019-09-09,新仓镇建新路,平湖市,嘉兴市,121.184959,30.727729,新蕾能源车行,浙江省,无,新蕾
2019-09-09,当湖东路79、81号,平湖市,嘉兴市,121.013389,30.686411,新蕾电动车(平湖专卖店),浙江省,无,新蕾
2019-09-09,建新路359号,平湖市,嘉兴市,121.184766,30.727449,新蕾电动车(新建路),浙江省,无,新蕾
2019-09-09,同福路366号附近,桐乡市,嘉兴市,120.464502,30.573576,新蕾电动,浙江省,无,新蕾
2019-09-09,递铺镇浦源大道637号,安吉县,湖州市,119.680872,30.634763,新蕾电动车(安吉店),浙江省,无,新蕾
2019-09-09,仓前二街80号,长兴县,湖州市,119.912176,31.001742,新蕾电动车(仓前街旗舰店),浙江省,0572-6041361,新蕾
2019-09-09,亭中路55号,遂昌县,丽水市,119.283707,28.601301,新蕾电动车,浙江省,无,新蕾
2019-09-09,环城路与鹤翔湖路交叉口南200米,长丰县,合肥市,117.269284,32.003488,新蕾电动车,安徽省,无,新蕾
2019-09-09,大众路与裕溪路交叉口东南150米,瑶海区,合肥市,117.398467,31.833588,新蕾电动车,安徽省,无,新蕾
2019-09-09,S103(合铜路),肥西县,合肥市,117.250109,31.514499,新蕾电动车(三河连锁店),安徽省,13355693116,新蕾
2019-09-09,凤巢路与金梅路交叉口东北50米,长丰县,合肥市,117.258217,31.975858,新蕾电动车,安徽省,无,新蕾
2019-09-09,蒙城路17号,庐阳区,合肥市,117.276078,31.864028,新蕾电动车(蒙城路店),安徽省,无,新蕾
2019-09-09,庐城镇周瑜大道庐城三里社区天润公馆斜对面-新,庐江县,合肥市,117.273961,31.259511,新蕾电动车,安徽省,13865222138,新蕾
2019-09-09,庐城镇越城北路防疫站对面,庐江县,合肥市,117.287350,31.250286,新蕾电动车(越城北路),安徽省,无,新蕾
2019-09-09,南翔万商国际轻纺城D区西3街2D1098,鸠江区,芜湖市,118.428903,31.374456,新蕾电动车,安徽省,无,新蕾
2019-09-09,中天路与永春路交叉口西北150米,芜湖县,芜湖市,118.494918,31.270746,新蕾电动车,安徽省,15955390758,新蕾
2019-09-09,扦坡路11号附近,镜湖区,芜湖市,118.388256,31.338993,新蕾电动,安徽省,无,新蕾
2019-09-09,九华中路218号附近,镜湖区,芜湖市,118.380592,31.326318,新蕾电动,安徽省,无,新蕾
2019-09-09,049县道西50米,三山区,芜湖市,118.232828,31.225737,新蕾电动,安徽省,无,新蕾
2019-09-09,漳河大道36附近,南陵县,芜湖市,118.347025,30.920390,新蕾电动,安徽省,13665539588,新蕾
2019-09-09,国防路56号西北100米,五河县,蚌埠市,117.891958,33.144260,新蕾电动(五河专卖店),安徽省,无,新蕾
2019-09-09,朝阳路1003附近,蚌山区,蚌埠市,117.352212,32.914315,新蕾电动车,安徽省,无,新蕾
2019-09-09,光彩大市场综合楼5栋117号,蚌山区,蚌埠市,117.356581,32.918630,新蕾电动授权体验店,安徽省,无,新蕾
2019-09-09,东风路142附近,固镇县,蚌埠市,117.324692,33.322760,新蕾电动,安徽省,无,新蕾
2019-09-09,淮河路119号附近,龙子湖区,蚌埠市,117.390717,32.942833,新蕾电动车(蚌埠旗舰店),安徽省,无,新蕾
2019-09-09,026县道艺锦玻璃西50米路北,凤台县,淮南市,116.545541,32.693030,新蕾电动车百事利三轮车,安徽省,15955496988,新蕾
2019-09-09,G206(合淮路),田家庵区,淮南市,116.987165,32.581164,新蕾电动车,安徽省,无,新蕾
2019-09-09,009县道北50米,谢家集区,淮南市,116.906069,32.579754,新蕾电动车(李郢孜店),安徽省,无,新蕾
2019-09-09,009乡道南50米,潘集区,淮南市,116.950552,32.763911,新蕾电动车(夹沟专卖店),安徽省,15955486130,新蕾
2019-09-09,人民北路与国庆中路交叉口西北100米,田家庵区,淮南市,117.019313,32.648023,新蕾电动车(淮南旗舰店),安徽省,无,新蕾
2019-09-09,国庆街道人民南路27号(国税局楼下),田家庵区,淮南市,117.021818,32.641944,新蕾电动车(安徽淮南5s旗舰店),安徽省,无,新蕾
2019-09-09,九大路与206国道交叉口东100米,大通区,淮南市,117.101882,32.611006,新蕾电动车(九龙岗连锁店),安徽省,无,新蕾
2019-09-09,安成镇淮南化肥厂五工地金苹果幼儿园对面,田家庵区,淮南市,116.965103,32.630925,新蕾电动车(全国连锁安成铺专卖店),安徽省,无,新蕾
2019-09-09,南小长街与西大街交叉口西100米,寿县,淮南市,116.779051,32.576193,新蕾电动车(寿县专卖店),安徽省,13865736662;13865446781,新蕾
2019-09-09,红旗北路与育才路交叉口东南50米,雨山区,马鞍山市,118.490117,31.689202,新蕾电动,安徽省,无,新蕾
2019-09-09,天门大道南段与永飞路交叉口南100米,雨山区,马鞍山市,118.476274,31.637738,新蕾电动车,安徽省,无,新蕾
2019-09-09,008县道西50米,当涂县,马鞍山市,118.801925,31.423551,新蕾电动车(湖阳店),安徽省,无,新蕾
2019-09-09,望阳路与烈青路交叉口东100米,烈山区,淮北市,116.819242,33.889990,新蕾电动车(烈山店),安徽省,无,新蕾
2019-09-09,旗山路与渡江路交叉口东150米,枞阳县,铜陵市,117.237123,30.716265,新蕾电动车枞阳专(路基亚电动车枞阳专卖店),安徽省,无,新蕾
2019-09-09,103省道与320省道交叉口西200米,枞阳县,铜陵市,117.506035,30.896936,新蕾电动车(欧派电动车),安徽省,无,新蕾
2019-09-09,206国道与318国道交叉口东南200米,怀宁县,安庆市,116.919655,30.615034,新蕾电动车(怀宁县月山中心卫生院西南),安徽省,无,新蕾
2019-09-09,同安路438号附近,桐城市,安庆市,116.960485,31.048654,新蕾电动车(桐城汽运公司店),安徽省,无,新蕾
2019-09-09,206国道北50米,怀宁县,安庆市,116.877879,30.680288,新蕾电动车(怀宁县茶岭镇卫生院东南),安徽省,13053283602,新蕾
2019-09-09,同安北路116号,桐城市,安庆市,116.973096,31.069775,新蕾电动车(北岛店),安徽省,无,新蕾
2019-09-09,009县道与206国道交叉口西南100米,桐城市,安庆市,116.904881,30.934035,新蕾电动车(范岗店),安徽省,无,新蕾
2019-09-09,洪铺镇金桂路94号,怀宁县,安庆市,116.851648,30.527800,新蕾电动车(洪铺旗舰店),安徽省,无,新蕾
2019-09-09,008县道与206国道交叉口西北100米,桐城市,安庆市,117.029669,31.176110,新蕾电动车(卅铺店),安徽省,13339036516,新蕾
2019-09-09,经一路与龙腾路交叉口东50米,桐城市,安庆市,116.982724,31.035836,新蕾电动车(桐城店),安徽省,无,新蕾
2019-09-09,文昌街道同康路金岛购物中心南100米,桐城市,安庆市,116.945183,31.028271,新蕾电动车(南岛店),安徽省,无,新蕾
2019-09-09,011县道西50米,桐城市,安庆市,116.988704,30.901083,传运车行(雅马哈专卖店),安徽省,0556-6660068,新蕾
2019-09-09,220省道西50米,休宁县,黄山市,118.181135,29.596121,新蕾电动车(五城店),安徽省,0559-7591319,新蕾
2019-09-09,屯延安路59号,屯溪区,黄山市,118.307003,29.709302,新蕾电动车(黄山旗舰店),安徽省,13855915995,新蕾
2019-09-09,,凤阳县,滁州市,117.241311,32.746187,新蕾电动车,安徽省,无,新蕾
2019-09-09,包公路与幸福东路交叉口南200米,定远县,滁州市,117.697235,32.532244,新蕾电动车,安徽省,无,新蕾
2019-09-09,北环路与焦阳路交叉口南150米,阜南县,阜阳市,115.594872,32.645492,新蕾电动授权体验店,安徽省,无,新蕾
2019-09-09,大桥北街与新阳路交叉口北50米,界首市,阜阳市,115.367162,33.268104,新蕾电动车,安徽省,18756899193,新蕾
2019-09-09,大桥南路与牛行街交叉口东北100米,界首市,阜阳市,115.357563,33.251819,隆鑫电动车界首专卖,安徽省,无,新蕾
2019-09-09,信义街114号附近,界首市,阜阳市,115.353840,33.260070,新蕾电动车,安徽省,13866290108,新蕾
2019-09-09,106国道东50米,临泉县,阜阳市,114.917832,32.978777,新蕾电动车,安徽省,无,新蕾
2019-09-09,颍南路157号附近,颍州区,阜阳市,115.830399,32.876805,新蕾电动车(阜阳南站店),安徽省,无,新蕾
2019-09-09,百果园(玉兰宾馆十字路口)西北100米,颍上县,阜阳市,116.267558,32.637899,新蕾电动车(颍上专卖店),安徽省,15551332223;15551331113,新蕾
2019-09-09,颖南牛行街云龙大酒店对面,界首市,阜阳市,115.350154,33.253603,新蕾电动车(界首店),安徽省,15956838258,新蕾
2019-09-09,人民北路与建设西路交口西侧栖霞大厦1层,太和县,阜阳市,115.623547,33.175794,新蕾电动车(东野太和旗舰店),安徽省,15905686618,新蕾
2019-09-09,老百货大楼,阜南县,阜阳市,115.588951,32.633972,北新蕾电动车,安徽省,无,新蕾
2019-09-09,007乡道与449省道交叉口南50米,太和县,阜阳市,115.464226,33.280262,皮条孙新蕾电动车,安徽省,无,新蕾
2019-09-09,G206(烟汕线),埇桥区,宿州市,117.027700,33.443516,新蕾电动车,安徽省,无,新蕾
2019-09-09,拂晓大道与胜利路交叉口西50米,埇桥区,宿州市,116.948082,33.640144,新蕾电动,安徽省,无,新蕾
2019-09-09,韩池子路9附近,埇桥区,宿州市,117.014010,33.628345,新蕾电动(韩池社区店),安徽省,无,新蕾
2019-09-09,310国道海马新能源旁,砀山县,宿州市,116.341457,34.420466,新蕾电动车(砀山连锁店),安徽省,0557-8032559,新蕾
2019-09-09,沱河街道小李家,埇桥区,宿州市,117.013157,33.630772,新蕾电动车(宗申车辆东关专卖店),安徽省,无,新蕾
2019-09-09,曙光路与汴河东路交叉口东100米,埇桥区,宿州市,117.007825,33.630971,新蕾电动车(曙光店),安徽省,无,新蕾
2019-09-09,健康路与振兴路交叉口南50米,砀山县,宿州市,116.348139,34.418671,新蕾电动车(砀山专卖店),安徽省,无,新蕾
2019-09-09,黄湾镇黄湾国土资源所附近,灵璧县,宿州市,117.468303,33.415487,新蕾电动车(黄湾创业专卖店),安徽省,无,新蕾
2019-09-09,淮海中路与环城南路交叉口西150米,埇桥区,宿州市,116.979637,33.636413,新蕾电动车(宿州旗舰店),安徽省,无,新蕾
2019-09-09,公安局现代产业园区分局,埇桥区,宿州市,117.254855,33.675686,新蕾电动车(高铁东站专卖店),安徽省,13956830015,新蕾
2019-09-09,创业小区北门进来50米右转,裕安区,六安市,116.482976,31.681392,新蕾电动,安徽省,18175060622,新蕾
2019-09-09,,金安区,六安市,116.536680,31.814030,新蕾电动车,安徽省,无,新蕾
2019-09-09,永达路重庆鲜面店旁,裕安区,六安市,116.424769,31.790474,新蕾电动车(高皇店),安徽省,18726999313,新蕾
2019-09-09,与儿街镇汇景名都广场,霍山县,六安市,116.449579,31.385304,新蕾电动车专卖店,安徽省,无,新蕾
2019-09-09,010县道与184乡道交叉口西北100米,裕安区,六安市,116.364263,31.825203,新蕾电动车,安徽省,无,新蕾
2019-09-09,党校路与解放中路交叉口西北200米,裕安区,六安市,116.499035,31.769790,新蕾电动车(光明路店),安徽省,无,新蕾
2019-09-09,姚李镇010县道姚李中心卫生院东南,叶集区,六安市,116.177229,31.819533,新嘞电动车(姚李专卖店),安徽省,无,新蕾
2019-09-09,长安北路东50米,金安区,六安市,116.529381,31.758315,新蕾电动车,安徽省,13856418787,新蕾
2019-09-09,三十铺镇和平路186号,金安区,六安市,116.630437,31.772548,新蕾电动车专卖店,安徽省,无,新蕾
2019-09-09,S245(花果园大道),霍邱县,六安市,116.389594,32.041807,新蕾电动车专卖店,安徽省,无,新蕾
2019-09-09,建安路附近,谯城区,亳州市,115.803552,33.884213,新蕾电动车,安徽省,无,新蕾
2019-09-09,001县道与008县道交叉口北150米,谯城区,亳州市,115.778438,34.002375,新蕾电动车,安徽省,无,新蕾
2019-09-09,经济技术开发区文化小区北门向东30米,谯城区,亳州市,115.769668,33.825372,新蕾电动车,安徽省,无,新蕾
2019-09-09,神医路与龙凤路交叉口南150米,谯城区,亳州市,115.769136,33.813060,新蕾电动,安徽省,无,新蕾
2019-09-09,体育路124号附近,蒙城县,亳州市,116.563636,33.250889,新蕾电动车(蒙城店),安徽省,无,新蕾
2019-09-09,012县道与307省道交叉口西150米,谯城区,亳州市,115.901876,33.680868,新蕾电动车(大杨专卖店),安徽省,无,新蕾
2019-09-09,G311(徐峡线),谯城区,亳州市,115.665030,33.866735,新蕾电动车,安徽省,无,新蕾
2019-09-09,030县道与307省道交叉口北50米,涡阳县,亳州市,116.371151,33.393092,新蕾电动车,安徽省,无,新蕾
2019-09-09,涡阳城东立交桥东一百五十米路南,涡阳县,亳州市,116.240817,33.479287,新蕾电动车,安徽省,无,新蕾
2019-09-09,X016中国电信东侧,谯城区,亳州市,115.894502,33.485222,新蕾电动车(杨集专卖店),安徽省,18856703639,新蕾
2019-09-09,081乡道附近,谯城区,亳州市,115.861436,33.451202,新蕾电动车,安徽省,无,新蕾
2019-09-09,十九里交通街路北西段,谯城区,亳州市,115.834614,33.800399,新蕾电动车(十九里专卖店),安徽省,15256373838,新蕾
2019-09-09,酒城大道与009县道交叉口西北50米,谯城区,亳州市,115.669738,33.986030,新蕾电动车(古井专卖店),安徽省,无,新蕾
2019-09-09,希夷大道与幸福路四巷交叉口西南100米,谯城区,亳州市,115.777820,33.864447,新蕾电动车(亳州旗舰店),安徽省,无,新蕾
2019-09-09,经济技术开发区十字金街幼儿园路口向东,谯城区,亳州市,115.834488,33.800284,新雷电动车专卖店,安徽省,18726686858,新蕾
2019-09-09,闸北路147号,涡阳县,亳州市,116.217719,33.522692,新蕾电动车,安徽省,18226127787,新蕾
2019-09-09,025县道与030县道交叉口西150米,涡阳县,亳州市,115.987514,33.393681,新蕾电动车(店集店),安徽省,无,新蕾
2019-09-09,014县道与016县道交叉口南150米,谯城区,亳州市,115.891926,33.539826,新蕾电动车(立德专卖店),安徽省,无,新蕾
2019-09-09,文州大道东段与霸王路交叉口西100米,利辛县,亳州市,116.203445,33.148269,新蕾电动车(利辛旗舰店),安徽省,13515685668,新蕾
2019-09-09,035县道与305省道交叉口东南100米,蒙城县,亳州市,116.458682,33.239777,新蕾电动车,安徽省,18756702989,新蕾
2019-09-09,城关镇宝塔东路法院小区(蒙城卫校附近),蒙城县,亳州市,116.564595,33.260198,新蕾电动车(蒙城旗舰店),安徽省,18956720777,新蕾
2019-09-09,希夷大道与幸福路四巷交叉口西北100米,谯城区,亳州市,115.777764,33.865745,新蕾电动车(亳州旗舰店),安徽省,无,新蕾
2019-09-09,胜利路2附近,涡阳县,亳州市,116.215262,33.505038,新蕾电动车(胜利路店),安徽省,0558-7227111,新蕾
2019-09-09,雉河路南50米,涡阳县,亳州市,116.209899,33.508354,东坝新蕾电动车,安徽省,无,新蕾
2019-09-09,231省道西50米,东至县,池州市,117.185364,30.089648,新蕾电动车(葛公店),安徽省,无,新蕾
2019-09-09,桃州南路59号附近,广德市,宣城市,119.417626,30.883316,新蕾电动车,安徽省,无,新蕾
2019-09-09,桃花潭西路399号,泾县,宣城市,118.406409,30.677533,新蕾电动车(泾县店),安徽省,无,新蕾
2019-09-09,太极大道129号,广德市,宣城市,119.415349,30.898111,新蕾电动车(广德店),安徽省,无,新蕾
2019-09-09,青闸线,闽侯县,福州市,119.388591,25.891241,新蕾电动车,福建省,13489083570,新蕾
2019-09-09,白马南路293号附近,台江区,福州市,119.297629,26.058636,新蕾电动车,福建省,无,新蕾
2019-09-09,齐安路763-56号,仓山区,福州市,119.293696,26.001807,新蕾电动车(齐安路店),福建省,无,新蕾
2019-09-09,上街国宾大道与候官路交界处,闽侯县,福州市,119.208557,26.069569,上街新蕾电动车总店,福建省,18860126242,新蕾
2019-09-09,道山路271号附近,鼓楼区,福州市,119.294555,26.076620,新蕾电动车,福建省,无,新蕾
2019-09-09,东贤路与怀乡路交叉口西南50米,马尾区,福州市,119.513129,26.071618,新蕾电动车,福建省,无,新蕾
2019-09-09,君竹路12号鸿瑞苑3号楼1层,马尾区,福州市,119.453994,25.987027,新蕾电动车(鸿瑞苑店),福建省,无,新蕾
2019-09-09,榕信2区1楼03门店,鼓楼区,福州市,119.299537,26.119141,新蕾电动车(东浦店),福建省,0591-22856115,新蕾
2019-09-09,建新镇后巷路33号浦上小区4号楼1层10店面,仓山区,福州市,119.275833,26.026554,新蕾电动车(百花洲店),福建省,0591-22856115,新蕾
2019-09-09,城门镇城门村115号,仓山区,福州市,119.360771,25.995074,新蕾电动车(城门旗舰店),福建省,无,新蕾
2019-09-09,鼓山镇前横南路盛天现代城15号,晋安区,福州市,119.350111,26.070785,新蕾电动车(招贤店),福建省,0591-22856115,新蕾
2019-09-09,金山大道580号融信第一城1楼02的店面,仓山区,福州市,119.247039,26.054677,新蕾电动车(金山融信旗舰店),福建省,无,新蕾
2019-09-09,鼓山镇福马路418号缔静花园11号楼1层06店面,晋安区,福州市,119.335609,26.075057,新蕾电动车(五里亭店),福建省,无,新蕾
2019-09-09,潭城镇红山庄15号,平潭县,福州市,119.793165,25.507670,新蕾电动车(红山东路店),福建省,无,新蕾
2019-09-09,金山街道金康路30号金山碧水二期龙凤苑3号楼1层05店面,仓山区,福州市,119.257621,26.046987,新蕾电动车(金祥店),福建省,13763851759,新蕾
2019-09-09,红星农场齐安路68号好事达对面,仓山区,福州市,119.293567,26.000634,新蕾电动车(盘屿店),福建省,13400553208;13559454899,新蕾
2019-09-09,禾山路41-9,湖里区,厦门市,118.133049,24.500239,新蕾电动车(江头店),福建省,无,新蕾
2019-09-09,,城厢区,莆田市,118.958514,25.394701,新蕾电动车,福建省,无,新蕾
2019-09-09,三迪路与利民路交叉口东北150米,城厢区,莆田市,118.965287,25.393433,新蕾电动车,福建省,无,新蕾
2019-09-09,新南街116号,秀屿区,莆田市,119.483067,25.213954,新蕾电动车,福建省,13030850666,新蕾
2019-09-09,三江街与涵芳小区南路交叉口南100米,涵江区,莆田市,119.118784,25.450352,新蕾电动车(涵江旗舰店),福建省,无,新蕾
2019-09-09,福官南路320号安贵长途客运附近,南安市,泉州市,118.433796,24.802758,新蕾电动车(官桥形象店),福建省,无,新蕾
2019-09-09,东桥镇东湖村,惠安县,泉州市,118.888092,25.027546,新蕾电动车(东桥店),福建省,18959796273,新蕾
2019-09-09,崇武镇五峰欢迎门旁东侧,惠安县,泉州市,118.924047,24.888066,新蕾电动车,福建省,无,新蕾
2019-09-09,成功南路南50米,南安市,泉州市,118.425060,24.624260,新蕾电动车(石井专卖店),福建省,无,新蕾
2019-09-09,杏秀路东园镇政府西北50米,惠安县,泉州市,118.753346,24.916789,安达车行,福建省,0595-87654326,新蕾
2019-09-09,北环路123号附近,平和县,漳州市,117.316202,24.370130,新蕾电动车,福建省,无,新蕾
2019-09-09,草坂村利民加油站对面,南靖县,漳州市,117.528592,24.531464,新蕾电动车,福建省,无,新蕾
2019-09-09,南诏镇康华路82号农机站斜对面对面,诏安县,漳州市,117.169468,23.712979,新蕾电动车,福建省,无,新蕾
2019-09-09,人民西路与安泰路交叉口西南50米,长泰县,漳州市,117.752709,24.620976,新蕾电动,福建省,无,新蕾
2019-09-09,漳华路5499号附近,芗城区,漳州市,117.623165,24.630116,新蕾电动车,福建省,无,新蕾
2019-09-09,温泉路与324国道交叉口西北50米,龙海市,漳州市,117.905024,24.529371,新蕾电动车,福建省,无,新蕾
2019-09-09,君宝路与将军大道交叉口东100米,云霄县,漳州市,117.329121,23.950180,新蕾电动车,福建省,无,新蕾
2019-09-09,丹霞路东南商贸城东区2幢1-2号,芗城区,漳州市,117.672378,24.512620,新蕾电动车(漳州专卖店),福建省,无,新蕾
2019-09-09,人民西路11号2号,龙海市,漳州市,117.814536,24.446109,新蕾电动车(龙海店),福建省,无,新蕾
2019-09-09,嘉禾北路854附近,建阳区,南平市,118.110143,27.356872,新蕾电动车,福建省,无,新蕾
2019-09-09,东桥东路北50米,建阳区,南平市,118.129585,27.335474,新蕾电动车(宋慈路),福建省,无,新蕾
2019-09-09,福宁大道人民公社东100米,霞浦县,宁德市,120.012751,26.885584,新蕾电动车专卖店,福建省,无,新蕾
2019-09-09,井冈山大道联运大厦一楼,青云谱区,南昌市,115.912392,28.644148,新蕾电动车,江西省,13707099736,新蕾
2019-09-09,井冈北路与瑶湖西二路交叉口东南150米,南昌县,南昌市,116.032504,28.694473,新蕾电动车,江西省,无,新蕾
2019-09-09,长堎镇兴国路752号,新建区,南昌市,115.806750,28.693930,新蕾电动车,江西省,18970821890,新蕾
2019-09-09,幽街口段南50米,南昌县,南昌市,116.150224,28.576756,电动车专卖店,江西省,无,新蕾
2019-09-09,城南路8号,青云谱区,南昌市,115.948897,28.633033,新蕾电动车(青山湖南大道专卖店),江西省,无,新蕾
2019-09-09,湖坊镇洪都中大道151号(鸿雁电子市场对面),青山湖区,南昌市,115.928246,28.665445,新蕾电动车(洪都中大道店),江西省,无,新蕾
2019-09-09,新溪桥西二路与新溪桥路交叉口东南50米,青云谱区,南昌市,115.919226,28.636048,新蕾电动车,江西省,13177881370,新蕾
2019-09-09,长堎镇长征西路新建中心4栋,新建区,南昌市,115.821449,28.679778,新蕾电动车(邹家三路),江西省,无,新蕾
2019-09-09,曙光大道与李渡大道交叉口西50米,进贤县,南昌市,116.176200,28.226470,新蕾电动车(李渡连锁店),江西省,13517090358,新蕾
2019-09-09,五七南路63号附近,南昌县,南昌市,116.069943,28.800655,新蕾电动车,江西省,无,新蕾
2019-09-09,古城路与长安路交叉口西50米,进贤县,南昌市,116.128704,28.283702,新蕾电动车(文港旗舰店),江西省,无,新蕾
2019-09-09,经济技术开发区枫庐新天地1栋,青山湖区,南昌市,115.850274,28.734250,新蕾电动车(庐山南大道店),江西省,13699519835;13699519875,新蕾
2019-09-09,古彩路与粉彩路交叉口北200米,珠山区,景德镇市,117.252161,29.295321,新蕾电动车,江西省,无,新蕾
2019-09-09,商贸街60号附近,浮梁县,景德镇市,117.153443,29.316885,新蕾电动车,江西省,无,新蕾
2019-09-09,安工路全网通手机卖场旁,乐平市,景德镇市,117.119441,28.981510,新蕾电动车,江西省,13320083519,新蕾
2019-09-09,308省道丹丹烟酒百货南,浮梁县,景德镇市,117.323775,29.324433,新蕾电动车,江西省,13307989305,新蕾
2019-09-09,西郊街道瓷都大道得雨生态园,昌江区,景德镇市,117.157533,29.249891,新蕾电动车(新蕾吕蒙店),江西省,无,新蕾
2019-09-09,新厂西路与童宾路交叉口东100米,珠山区,景德镇市,117.233199,29.293510,新蕾,江西省,无,新蕾
2019-09-09,拥军街与新昌北路交叉口西北50米,浮梁县,景德镇市,117.215484,29.355506,新蕾电动车(浮梁店),江西省,13879807184,新蕾
2019-09-09,蛟潭老街与096县道交叉口东南100米,浮梁县,景德镇市,117.217866,29.543878,新蕾电动车,江西省,18779801977;18779805913,新蕾
2019-09-09,化工厂大门口,珠山区,景德镇市,117.265652,29.302469,新蕾电动车(景城名郡西南),江西省,无,新蕾
2019-09-09,湘湖镇荞玉路乔麦岭公交站西南50米,浮梁县,景德镇市,117.323704,29.324274,远恒车业(湘湖店),江西省,13307989305,新蕾
2019-09-09,银曙路13号,珠山区,景德镇市,117.217097,29.276832,新蕾电动车(曙光花苑小区店),江西省,13879859341,新蕾
2019-09-09,太白园小港嘴老小学,珠山区,景德镇市,117.221405,29.270303,新蕾电动车,江西省,13767830525,新蕾
2019-09-09,中华南路306号附近,珠山区,景德镇市,117.211402,29.286844,新蕾电动车(戴家弄4S店),江西省,13657987456,新蕾
2019-09-09,马鞍山路98号,珠山区,景德镇市,117.219323,29.291308,新蕾电动车(景德镇旗舰店),江西省,无,新蕾
2019-09-09,马鞍山路10号,珠山区,景德镇市,117.218742,29.291431,新蕾电动车(景德镇专卖店),江西省,0798-8286780,新蕾
2019-09-09,老火车站边上,乐平市,景德镇市,117.116186,28.967603,新蕾电动车建新总经销,江西省,无,新蕾
2019-09-09,环宇西路附近,芦溪县,萍乡市,113.983485,27.580421,新蕾电动车,江西省,无,新蕾
2019-09-09,建设中路20号附近,安源区,萍乡市,113.845066,27.643913,新蕾电动车(萍乡旗舰店),江西省,15979277789,新蕾
2019-09-09,新埠路与255县道交叉口西北100米,都昌县,九江市,116.320256,29.466890,新蕾电动车,江西省,无,新蕾
2019-09-09,发展大道226号附近,共青城市,九江市,115.811593,29.238011,新蕾电动,江西省,17770208773,新蕾
2019-09-09,渣津镇津龙西大道102号,修水县,九江市,114.240029,29.003387,新蕾电动车(渣津精品店),江西省,无,新蕾
2019-09-09,562乡道北50米,庐山市,九江市,116.048918,29.476232,新蕾电动车,江西省,无,新蕾
2019-09-09,马坳老街226号附近,修水县,九江市,114.333764,29.051260,新蕾电动车专卖店,江西省,13970271022,新蕾
2019-09-09,瀼溪东路与铜城大道交叉口西南100米,瑞昌市,九江市,115.681696,29.682666,新蕾电动车瑞昌生活馆,江西省,13507061873,新蕾
2019-09-09,义宁镇站前路老桥头,修水县,九江市,114.576255,29.031677,新蕾电动车(修水店),江西省,无,新蕾
2019-09-09,瀼溪东路16号,瑞昌市,九江市,115.670826,29.672475,新蕾电动三轮车(瑞昌店),江西省,无,新蕾
2019-09-09,石城街东50米,都昌县,九江市,116.235248,29.479905,苏山新蕾电动车,江西省,无,新蕾
2019-09-09,沿江路1070号附近,渝水区,新余市,114.942334,27.825648,新蕾电动,江西省,无,新蕾
2019-09-09,北湖西路462号附近,渝水区,新余市,114.903489,27.821623,新蕾电动(世纪清华店),江西省,18079071568,新蕾
2019-09-09,渝洲大桥维也纳酒店凯光幼儿园隔壁,渝水区,新余市,114.943607,27.789944,新蕾电动车,江西省,13879097780;15970299898,新蕾
2019-09-09,胜利北路292号附近,渝水区,新余市,114.946854,27.804889,新蕾电动车,江西省,无,新蕾
2019-09-09,锦龙路186号附近,渝水区,新余市,114.934706,27.805971,新蕾电动,江西省,无,新蕾
2019-09-09,天工南大道422号,分宜县,新余市,114.688290,27.806063,新蕾电动车,江西省,无,新蕾
2019-09-09,文新路与179乡道交叉口南100米,渝水区,新余市,114.931142,27.838451,新蕾电动车(帝海观澜店),江西省,无,新蕾
2019-09-09,抱石大道与通济路交叉口南100米,渝水区,新余市,114.951289,27.800104,新蕾电动车(新余店),江西省,无,新蕾
2019-09-09,223省道与298县道交叉口南150米,渝水区,新余市,114.953920,27.773763,新蕾电动车,江西省,13879097780;15970299898,新蕾
2019-09-09,渝东大道北50米,渝水区,新余市,115.024554,27.830656,新蕾电动车,江西省,18607908108,新蕾
2019-09-09,龙潭洲路608号,渝水区,新余市,114.952965,27.820258,新蕾电动车,江西省,13177531821,新蕾
2019-09-09,锦龙路270号,渝水区,新余市,114.936319,27.806497,新蕾电动车(胜利北路),江西省,0790-6228428;13907905991,新蕾
2019-09-09,环城东路31号2号,月湖区,鹰潭市,117.039761,28.235371,新蕾电动车(鹰潭旗舰店),江西省,0701-7038029;0701-7087698,新蕾
2019-09-09,滨江路,全南县,赣州市,114.544546,24.746936,新蕾电动车,江西省,无,新蕾
2019-09-09,市场路,信丰县,赣州市,114.926352,25.254618,新蕾电动车,江西省,无,新蕾
2019-09-09,517县道朱坊乡荷田村村民委员会西南,南康区,赣州市,114.684553,25.717585,新蕾电动车,江西省,无,新蕾
2019-09-09,G105(京珠线),章贡区,赣州市,114.891209,25.789972,新蕾电动车(高校区店),江西省,无,新蕾
2019-09-09,普惠路190号,兴国县,赣州市,115.346723,26.328878,新蕾电动车,江西省,无,新蕾
2019-09-09,北门街与新城大道交叉口东南50米,大余县,赣州市,114.624482,25.531218,新蕾电动车(北门街),江西省,15180206431,新蕾
2019-09-09,南水大道北150米,南康区,赣州市,114.765031,25.650295,新蕾电动车(南水社区店),江西省,无,新蕾
2019-09-09,新城大道169号附近,大余县,赣州市,114.614578,25.530728,新蕾电动车,江西省,15180206431,新蕾
2019-09-09,龙南镇中山路人民医院东100米,龙南县,赣州市,114.794158,24.906620,新蕾电动车(龙南旗舰店),江西省,无,新蕾
2019-09-09,寿梅路9-10附近,全南县,赣州市,114.526091,24.745510,新蕾电动车(顺和苑东),江西省,18970745568,新蕾
2019-09-09,章源大道859号,崇义县,赣州市,114.304914,25.691001,新蕾电动车(崇义专卖店),江西省,18279733421;15007095551,新蕾
2019-09-09,南山东路与阳明中路交叉口东北200米,信丰县,赣州市,114.936801,25.377625,新蕾电动车(信丰二店),江西省,13970149867,新蕾
2019-09-09,东门南路与金赣大道交叉口西100米,南康区,赣州市,114.763032,25.658407,新蕾电动车(南康旗舰店),江西省,13330136923,新蕾
2019-09-09,水南大道221号正西方向83米,上犹县,赣州市,114.541433,25.790646,新蕾电动车,江西省,无,新蕾
2019-09-09,康赤路利客隆超市旁,南康区,赣州市,114.693065,25.646790,新蕾电动车(横寨旗舰店),江西省,无,新蕾
2019-09-09,鑫林街21号,章贡区,赣州市,114.845924,25.742188,新蕾电动车,江西省,13479773816,新蕾
2019-09-09,唐平北路金彭电动三轮车旁,南康区,赣州市,114.746614,25.805978,新蕾电动车(唐江专卖店),江西省,13437075158,新蕾
2019-09-09,于都路和会昌路交叉口东100米,章贡区,赣州市,114.943140,25.825530,新蕾电动车(水南新区三店),江西省,无,新蕾
2019-09-09,中山北路52号,宁都县,赣州市,116.021862,26.478540,新蕾电动车(宁都旗航店),江西省,0797-6830037,新蕾
2019-09-09,文武坝镇水东大道72号,会昌县,赣州市,115.796700,25.602599,新蕾电动车(水东大道店),江西省,13263067530,新蕾
2019-09-09,G105(京珠线),遂川县,吉安市,114.569222,26.366698,新蕾电动车,江西省,无,新蕾
2019-09-09,沙溪镇,永丰县,吉安市,115.598979,26.891458,新蕾电动车沙溪专卖店,江西省,无,新蕾
2019-09-09,新村路,吉州区,吉安市,114.974749,27.179048,新蕾电动车,江西省,13576849859;13970609470,新蕾
2019-09-09,天玉山路与正气路交叉口西南50米,青原区,吉安市,115.017942,27.102715,新蕾电动车,江西省,15970246205,新蕾
2019-09-09,雩田中学旁边,遂川县,吉安市,114.598696,26.399524,新蕾电动车专卖店,江西省,无,新蕾
2019-09-09,中源购物广场(文竹店),永新县,吉安市,113.983012,27.001598,新蕾电动车,江西省,无,新蕾
2019-09-09,吉州大道穗华小区5栋门面,吉州区,吉安市,114.976405,27.129028,新蕾电动车行,江西省,无,新蕾
2019-09-09,775县道东50米,永丰县,吉安市,115.504160,27.432808,新蕾电动车(潭城专卖店),江西省,18397862896,新蕾
2019-09-09,兰花路1号-2030号,井冈山市,吉安市,114.281066,26.737223,新蕾电动车,江西省,15170810251,新蕾
2019-09-09,六屋八小区6栋,吉安县,吉安市,114.926763,27.031634,新蕾电动车(吉安县专卖),江西省,15070656983,新蕾
2019-09-09,草林镇322省道草林中心卫生院西,遂川县,吉安市,114.390195,26.253161,新蕾电动车,江西省,无,新蕾
2019-09-09,城北路与恩江大道交叉口东50米,永丰县,吉安市,115.436639,27.325183,新蕾电动车(城北路),江西省,无,新蕾
2019-09-09,下后巷与中山东路交叉口北50米,吉州区,吉安市,114.989022,27.104899,新蕾电动车吉安店二部,江西省,无,新蕾
2019-09-09,财苑路与迎宾大道交叉口西100米,永丰县,吉安市,115.421932,27.322006,新蕾电动车(永丰精品店),江西省,0796-2206588,新蕾
2019-09-09,恩江北路8号附近,永丰县,吉安市,115.437260,27.326960,新蕾电动车(永丰二部),江西省,无,新蕾
2019-09-09,川江路与水南上街交叉口西南50米,遂川县,吉安市,114.521570,26.318779,新蕾电动车(遂川旗舰店),江西省,无,新蕾
2019-09-09,下后街20-4号,吉州区,吉安市,114.989698,27.106094,新蕾电动车(吉安旗舰店),江西省,15879645381;13607968065,新蕾
2019-09-09,梦祥路与紫云南大道交叉口西北50米,丰城市,宜春市,115.774640,28.152440,新蕾电动车,江西省,无,新蕾
2019-09-09,石脑中大道与320国道交叉口东150米,高安市,宜春市,115.295133,28.389470,新蕾电动车,江西省,无,新蕾
2019-09-09,电厂桥西街123号新蕾电动车专卖店,丰城市,宜春市,115.723576,28.200441,新蕾电动车电厂专卖,江西省,18379578887,新蕾
2019-09-09,共和东路34号附近,樟树市,宜春市,115.557590,28.059706,新蕾电动车(樟树店),江西省,无,新蕾
2019-09-09,城东南路与永和西大道交叉口东南50米,宜丰县,宜春市,114.797936,28.386091,新蕾电动车(城东南路店),江西省,0795-2750006;13576504477,新蕾
2019-09-09,大城镇政府(迎宾路北),高安市,宜春市,115.523890,28.535640,新蕾电动车,江西省,无,新蕾
2019-09-09,高丰路与943乡道交叉口西150米,高安市,宜春市,115.474051,28.392230,新蕾电动车(蓝坊卫生院西北),江西省,无,新蕾
2019-09-09,建设大道134号附近,丰城市,宜春市,115.746098,28.292161,新蕾电动车(丰矿专卖店),江西省,无,新蕾
2019-09-09,阳乐大道288号,万载县,宜春市,114.453136,28.096973,新蕾电动车(阳乐大道店),江西省,0795-7106026,新蕾
2019-09-09,市河路与筠泉东路交叉口西150米,高安市,宜春市,115.383872,28.413675,高安新蕾电动车生活馆,江西省,无,新蕾
2019-09-09,狮山西大道167号,奉新县,宜春市,115.387194,28.705658,新蕾电动车(奉新旗舰店),江西省,15979500076,新蕾
2019-09-09,司前路87号附近,资溪县,抚州市,117.071207,27.710574,新蕾电动车(资溪专卖店),江西省,无,新蕾
2019-09-09,公园路与解放北路交叉口东南150米,广昌县,抚州市,116.327862,26.844986,新蕾电动车,江西省,13767600747;13707043393,新蕾
2019-09-09,交通路199号东90米,南城县,抚州市,116.645040,27.564766,新蕾电动车(南城专卖店),江西省,无,新蕾
2019-09-09,孝岗镇荆公路宏鑫商贸城东150米,东乡区,抚州市,116.605667,28.229511,新蕾电动车(东乡专卖店),江西省,无,新蕾
2019-09-09,罗家巷与邓家街交叉口北100米,临川区,抚州市,116.298870,27.939506,新蕾电动车(临川专卖店),江西省,13647941689,新蕾
2019-09-09,鑫源街与712县道交叉口南150米,万年县,上饶市,117.184358,28.727282,新蕾电动车,江西省,无,新蕾
2019-09-09,人民大道827附近,玉山县,上饶市,118.244488,28.670539,新蕾电动车玉山2.0生活馆,江西省,无,新蕾
2019-09-09,康宁路与建材1路交叉口东50米,广丰区,上饶市,118.179967,28.429054,新蕾电动,江西省,无,新蕾
2019-09-09,新花段与317省道交叉口西北100米,德兴市,上饶市,117.640039,28.915242,新蕾电动车,江西省,无,新蕾
2019-09-09,陈营镇万昌大道84号,万年县,上饶市,117.069916,28.686970,新蕾万年生活馆,江西省,0793-3696766;13755730999,新蕾
2019-09-09,709县道西50米,鄱阳县,上饶市,116.825478,28.949244,新蕾电动车,江西省,无,新蕾
2019-09-09,698县道南50米,鄱阳县,上饶市,116.725143,29.056127,新蕾电动车(团林专卖店),江西省,无,新蕾
2019-09-09,迎安大道与704县道交叉口西150米,鄱阳县,上饶市,116.873600,29.069750,新蕾电动车(古南镇旗舰店),江西省,无,新蕾
2019-09-09,209省道南100米,鄱阳县,上饶市,116.926449,28.981650,新蕾电动车,江西省,无,新蕾
2019-09-09,新岭路与700县道交叉口西100米,鄱阳县,上饶市,116.788991,29.165245,新蕾电动车(全国连锁高家岭专卖店),江西省,无,新蕾
2019-09-09,202乡道与208省道交叉口南150米,余干县,上饶市,116.806980,28.468252,新蕾电动车(黄金埠专卖店),江西省,无,新蕾
2019-09-09,庙前乡大利大渡王家昌洲大桥南400米,鄱阳县,上饶市,116.795567,29.010578,新蕾电动车(鄱阳专卖店),江西省,无,新蕾
2019-09-09,长征路与317省道交叉口东100米,德兴市,上饶市,117.647037,28.832831,新蕾电动车(绕二连锁店),江西省,无,新蕾
2019-09-09,白马桥邮政局(208省道西),余干县,上饶市,116.730236,28.639191,新蕾电动车(新蕾白马连锁店),江西省,无,新蕾
2019-09-09,田畈街中学傍边,鄱阳县,上饶市,116.880448,29.350508,新蕾电动车,江西省,13979332846,新蕾
2019-09-09,北门街道五三大道中央公园6栋11号(博悦酒店对面),信州区,上饶市,117.993585,28.462807,新蕾电动车(上饶店),江西省,无,新蕾
2019-09-09,张潜大道与滨河大道交叉口东南150米,德兴市,上饶市,117.584211,28.934229,新蕾电动车(南门商贸城连锁店),江西省,无,新蕾
2019-09-09,人民大道与兴安大道交叉口东南50米,横峰县,上饶市,117.608098,28.407655,新蕾电动(横峰精品店),江西省,无,新蕾
2019-09-09,人民大道与冰溪路交叉口西北150米,玉山县,上饶市,118.244546,28.670400,新蕾电动车(玉山旗舰店),江西省,无,新蕾
2019-09-09,世纪大道355-357号,余干县,上饶市,116.686325,28.700191,新蕾电动车,江西省,0793-3320959,新蕾
2019-09-09,银山路115号,德兴市,上饶市,117.580414,28.943054,新蕾电动车(德兴旗舰店),江西省,13479351768,新蕾
2019-09-09,文塔路与汇源大街交叉口西南100米,莱芜区,济南市,117.712100,36.201471,新蕾电动车(仁和店),山东省,无,新蕾
2019-09-09,华山街道工业北路303-2号,历城区,济南市,117.068948,36.705405,新蕾电动车(鲁轻连锁),山东省,无,新蕾
2019-09-09,330省道北50米,莱芜区,济南市,117.536951,36.216733,新蕾电动车,山东省,无,新蕾
2019-09-09,龙山路与103省道交叉口东北50米附近,历城区,济南市,117.016677,36.511737,新蕾电动车专卖店,山东省,无,新蕾
2019-09-09,华龙路726-5号,历下区,济南市,117.087268,36.681117,鲁轻电动车(华龙路店),山东省,无,新蕾
2019-09-09,212省道东50米,即墨区,青岛市,120.667550,36.363584,新蕾电动,山东省,无,新蕾
2019-09-09,人民路87号附近,平度市,青岛市,120.102396,36.754198,新蕾电动车,山东省,无,新蕾
2019-09-09,灵海路3261-4号附近,黄岛区,青岛市,120.126277,35.928556,新蕾电动车,山东省,无,新蕾
2019-09-09,崔家集镇振华街琪琪百货北200米,平度市,青岛市,119.718916,36.625579,新蕾电动车,山东省,无,新蕾
2019-09-09,环秀街道湘江一路新民小区东30米路北,即墨区,青岛市,120.463856,36.377690,新蕾电动车(湘江一路店),山东省,无,新蕾
2019-09-09,南关街与济南路交叉口东100米,平度市,青岛市,119.952073,36.782714,新蕾电动车(平度大海车行),山东省,0532-88336618,新蕾
2019-09-09,顺兴路22号东南100米,平度市,青岛市,119.852886,36.789619,新蕾电动车(门村海军车行),山东省,15263059036,新蕾
2019-09-09,007乡道西50米,周村区,淄博市,117.946850,36.779457,新蕾电动车,山东省,无,新蕾
2019-09-09,原山大道与新华大道交叉口西150米,张店区,淄博市,117.963099,36.831703,新蕾电动车,山东省,无,新蕾
2019-09-09,013乡道东50米,周村区,淄博市,117.855274,36.746356,新蕾电动车(演礼旗舰店),山东省,无,新蕾
2019-09-09,王村镇西铺小学东100米,周村区,淄博市,117.735664,36.675755,新蕾电动车,山东省,无,新蕾
2019-09-09,站北路8-30号,周村区,淄博市,117.850900,36.794537,新蕾电动车(周村旗舰店),山东省,无,新蕾
2019-09-09,电力周村彭阳供电所旁边正西方向96米,周村区,淄博市,117.807239,36.705668,新蕾电动车(彭阳旗舰店),山东省,无,新蕾
2019-09-09,叠阳路与沿河西路交叉口西100米,博山区,淄博市,117.863011,36.499021,新蕾电动车(全国连锁博山专卖店),山东省,无,新蕾
2019-09-09,承水中路师范学校对面,峄城区,枣庄市,117.589361,34.763400,新蕾电动车(峄城旗舰店),山东省,0632-7709888,新蕾
2019-09-09,永福北路171号,薛城区,枣庄市,117.262242,34.803109,新蕾电动车(薛城专卖店),山东省,13869478409,新蕾
2019-09-09,352省道南50米,峄城区,枣庄市,117.755161,34.768079,大众车行(峨山专卖店),山东省,无,新蕾
2019-09-09,352省道北50米,峄城区,枣庄市,117.482673,34.755405,棠阴许杰车行,山东省,15163238089,新蕾
2019-09-09,旌旗西路与盛隆路交叉口东150米,莱阳市,烟台市,120.716892,36.978436,新蕾电动车,山东省,13793527746,新蕾
2019-09-09,福海路79号摩托车市场往北70米,福山区,烟台市,121.259074,37.493950,新蕾电动,山东省,无,新蕾
2019-09-09,康泰路与海港路交叉口东南50米,龙口市,烟台市,120.334663,37.658957,新蕾电动车(龙口专卖店),山东省,无,新蕾
2019-09-09,方圆大厦对面,海阳市,烟台市,121.204005,36.781994,新蕾电动车,山东省,无,新蕾
2019-09-09,南阳河南街831号,莱州市,烟台市,119.944481,37.162983,新蕾电动车(莱州旗舰店),山东省,15154522278,新蕾
2019-09-09,夏邱东路北50米,莱州市,烟台市,119.912554,37.012388,新蕾电动车(铃木),山东省,13562530278,新蕾
2019-09-09,新城街3598号附近,昌乐县,潍坊市,118.824931,36.718779,新蕾电动车,山东省,无,新蕾
2019-09-09,东风大街197号附近,寿光市,潍坊市,118.877842,36.962921,新蕾电动车,山东省,无,新蕾
2019-09-09,幸福路与金光街交叉口东南50米,寿光市,潍坊市,118.757157,36.879980,新蕾电动车,山东省,无,新蕾
2019-09-09,329省道南50米,诸城市,潍坊市,119.493159,35.981254,新蕾电动车,山东省,无,新蕾
2019-09-09,朝阳街道人民大街东首阳小学斜对面,高密市,潍坊市,119.800562,36.381871,新蕾电动车(高密旗舰店),山东省,无,新蕾
2019-09-09,海源街与禄海路交叉口南150米,寒亭区,潍坊市,118.979827,37.125337,新蕾电动车,山东省,13563685865,新蕾
2019-09-09,329省道北50米,诸城市,潍坊市,119.185392,36.027192,新蕾电动车(贾悦店),山东省,13260727926,新蕾
2019-09-09,共建路东50米,邹城市,济宁市,116.947933,35.319086,新蕾电动,山东省,无,新蕾
2019-09-09,,微山县,济宁市,117.103988,34.929065,新蕾电动车,山东省,无,新蕾
2019-09-09,金宇西路亿丰时代广场D区,任城区,济宁市,116.568753,35.430855,新蕾电动车,山东省,无,新蕾
2019-09-09,105国道东50米,嘉祥县,济宁市,116.452408,35.262322,新蕾电动车,山东省,无,新蕾
2019-09-09,奎文路272附近,微山县,济宁市,117.116640,34.809360,新蕾电动车专卖店,山东省,无,新蕾
2019-09-09,327国道静轩西路49号泰达汽修厂门东,曲阜市,济宁市,116.986466,35.589423,新蕾电动车(仓庚路),山东省,无,新蕾
2019-09-09,尚书路277号,汶上县,济宁市,116.491538,35.728428,新蕾电动车(汶上旗舰店),山东省,无,新蕾
2019-09-09,矿业大街,肥城市,泰安市,116.693667,36.201446,新蕾电动车,山东省,无,新蕾
2019-09-09,银河路200号(原爱玛电动车),新泰市,泰安市,117.752147,35.906422,新蕾电动,山东省,无,新蕾
2019-09-09,虎山路199-1号附近,泰山区,泰安市,117.134994,36.199336,新蕾电动车,山东省,无,新蕾
2019-09-09,新汶大街439附近,新泰市,泰安市,117.681399,35.877526,新蕾电动车,山东省,无,新蕾
2019-09-09,220国道西50米,东平县,泰安市,116.177729,36.109650,新蕾电动车,山东省,13854866030,新蕾
2019-09-09,洼子街与青年路交叉口南50米,泰山区,泰安市,117.129703,36.186251,新蕾电动车(泰安店),山东省,无,新蕾
2019-09-09,104省道东50米,肥城市,泰安市,116.776358,35.964237,新蕾电动车,山东省,无,新蕾
2019-09-09,333省道南50米,宁阳县,泰安市,116.978927,35.907215,新蕾电动车(蒋集店),山东省,无,新蕾
2019-09-09,后王线南50米,东平县,泰安市,116.424488,35.922433,新蕾电动车,山东省,无,新蕾
2019-09-09,X18(一八县道),新泰市,泰安市,117.507410,35.764044,新蕾电动车,山东省,无,新蕾
2019-09-09,东平街道四海城转盘西200米,东平县,泰安市,116.463752,35.921112,新蕾电动车(东平店),山东省,无,新蕾
2019-09-09,洛沟路北50米,新泰市,泰安市,117.691496,35.877294,新蕾电动车新汶专卖店,山东省,13954891497,新蕾
2019-09-09,青云街道新甫街道新安路西首,新泰市,泰安市,117.761322,35.912085,新蕾电动车,山东省,无,新蕾
2019-09-09,六中双语艺术幼儿园附近,宁阳县,泰安市,117.079713,35.858505,新蕾电动车(南驿店),山东省,无,新蕾
2019-09-09,202省道东50米,环翠区,威海市,122.122830,37.308137,新蕾电动车,山东省,无,新蕾
2019-09-09,青岛南路与201省道交叉口东100米,环翠区,威海市,122.171258,37.374522,新蕾电动车,山东省,无,新蕾
2019-09-09,海曲中路38号,东港区,日照市,119.466271,35.424599,新蕾电动,山东省,无,新蕾
2019-09-09,石臼海滨二路碧波大酒店北一百米路东,东港区,日照市,119.548936,35.396757,新蕾电动,山东省,无,新蕾
2019-09-09,南北路与桂林路交叉口东北100米附近,东港区,日照市,119.431339,35.373318,奎山新蕾电动车专卖店,山东省,13863336335,新蕾
2019-09-09,海滨三路5号附近,东港区,日照市,119.541199,35.396841,新蕾电动车日照旗舰店,山东省,无,新蕾
2019-09-09,桃园路北200米,兰山区,临沂市,118.324894,35.079858,新蕾电动车,山东省,无,新蕾
2019-09-09,十字路法庭(莒南中医院东),莒南县,临沂市,118.840117,35.189302,新蕾电动车,山东省,13869997527,新蕾
2019-09-09,莲花山路249-14号,平邑县,临沂市,117.626919,35.514578,新蕾电动车,山东省,无,新蕾
2019-09-09,兰陵包家生鲜干货水产调料配送中心东50米,兰陵县,临沂市,117.858732,34.733817,新蕾电动车(兰陵专卖店),山东省,无,新蕾
2019-09-09,中兴路与兰陵路交叉口路西88米路南,兰陵县,临沂市,118.047813,34.856723,新蕾电动车旗舰店(五岔路口店),山东省,15725956677,新蕾
2019-09-09,017乡道与249省道交叉口北100米,陵城区,德州市,116.845145,37.571117,新蕾电动车专卖,山东省,无,新蕾
2019-09-09,正阳路,宁津县,德州市,116.793158,37.653842,新蕾电动车(宁津专卖),山东省,无,新蕾
2019-09-09,东郎坞村附近,庆云县,德州市,117.390835,37.683576,长征奥斯新蕾电动车,山东省,无,新蕾
2019-09-09,先锋路368附近,临清市,聊城市,115.731319,36.847510,新蕾电动,山东省,无,新蕾
2019-09-09,广州路75号附近,东昌府区,聊城市,115.956544,36.476104,新蕾电动车,山东省,15615027708;15864366136,新蕾
2019-09-09,南关大街122号附近,惠民县,滨州市,117.510752,37.472948,新蕾电动车(惠民店),山东省,无,新蕾
2019-09-09,黛溪三路五羊电动车旁,邹平市,滨州市,117.739179,36.886194,新蕾电动车(邹平旗舰店),山东省,无,新蕾
2019-09-09,幸福一路360-6号,阳信县,滨州市,117.587996,37.643010,新蕾电动车(阳信县商业局北),山东省,无,新蕾
2019-09-09,趵突泉路西150米,成武县,菏泽市,115.932404,34.954353,新蕾电动车,山东省,无,新蕾
2019-09-09,262省道西50米,东明县,菏泽市,115.098860,35.028259,新蕾电动车,山东省,无,新蕾
2019-09-09,东城新丰路北侧1幢02至07号房附近,牡丹区,菏泽市,115.463675,35.249311,新蕾电动车(菏泽旗舰店),山东省,无,新蕾
2019-09-09,,新郑市,郑州市,113.711245,34.525038,新蕾电动车,河南省,无,新蕾
2019-09-09,,巩义市,郑州市,113.055765,34.789213,新蕾电动车,河南省,无,新蕾
2019-09-09,求实路7a-1-291号附近,新郑市,郑州市,113.735318,34.598571,新蕾电动车(华南城店),河南省,无,新蕾
2019-09-09,323省道南50米,登封市,郑州市,112.812165,34.396568,新蕾电动车,河南省,无,新蕾
2019-09-09,溱洧大街北50米,新密市,郑州市,113.598960,34.514667,新蕾电动车(曲梁店),河南省,无,新蕾
2019-09-09,南曹乡航海路与中州大道交叉口美林河畔电动车市场,管城回族区,郑州市,113.715898,34.719710,新蕾电动车,河南省,17719869488,新蕾
2019-09-09,城南路南大街交差口往东50米路南,管城回族区,郑州市,113.676591,34.745591,新蕾电动车(城南路店),河南省,无,新蕾
2019-09-09,航海东路173附近,管城回族区,郑州市,113.695943,34.720571,新蕾电动车(航海东路),河南省,无,新蕾
2019-09-09,京广中路电动车市场35号,二七区,郑州市,113.658212,34.733912,新蕾电动车生活馆,河南省,无,新蕾
2019-09-09,033县道八千乡中心幼儿园附近,新郑市,郑州市,113.829517,34.370848,新蕾电动车(八千专卖店),河南省,无,新蕾
2019-09-09,建安路与建设北路交叉口向南50米路西,中牟县,郑州市,114.018853,34.733436,新蕾电动车(中牟店),河南省,13838334860,新蕾
2019-09-09,少典路与弘远路交叉口向东五十米路北,新郑市,郑州市,113.767496,34.416680,新蕾电动车(新郑店),河南省,无,新蕾
2019-09-09,,金水区,郑州市,113.652299,34.828228,新蕾电动,河南省,无,新蕾
2019-09-09,五一路1号东60米,鼓楼区,开封市,114.338512,34.777834,新蕾电动车,河南省,18337855583,新蕾
2019-09-09,宋门关大街35号院附11,顺河回族区,开封市,114.372720,34.786890,新蕾电动,河南省,无,新蕾
2019-09-09,新曹路宏达花园小区门面房西区10号,顺河回族区,开封市,114.384962,34.800093,新蕾电动(顺彩总店),河南省,18937887397,新蕾
2019-09-09,220国道南50米附近,顺河回族区,开封市,114.450147,34.802157,新蕾电动车专卖店,河南省,13937867837,新蕾
2019-09-09,文卫路143附近,通许县,开封市,114.472233,34.472424,新蕾电动车专卖店,河南省,15137863633,新蕾
2019-09-09,016县道与218省道交叉口北100米,通许县,开封市,114.470020,34.535049,新蕾电动车专卖,河南省,无,新蕾
2019-09-09,开柳公路东50米,龙亭区,开封市,114.363886,34.857558,新蕾电动车(牛庄店),河南省,无,新蕾
2019-09-09,人民路128号附近,通许县,开封市,114.474647,34.479955,新蕾电动车专卖,河南省,13837822611,新蕾
2019-09-09,祥符区014县道西50米,祥符区,开封市,114.512746,34.770196,新蕾电动车(兴隆店),河南省,无,新蕾
2019-09-09,宋门关大街33号,顺河回族区,开封市,114.370613,34.785901,新蕾电动车(开封店),河南省,无,新蕾
2019-09-09,老韩陵,兰考县,开封市,114.872566,34.846885,新蕾电动,河南省,18737846881,新蕾
2019-09-09,,偃师市,洛阳市,112.694483,34.669480,新蕾电动车,河南省,无,新蕾
2019-09-09,九都路41号附近,西工区,洛阳市,112.447348,34.664921,新蕾电动车(九都路社区店),河南省,无,新蕾
2019-09-09,五头镇老街,新安县,洛阳市,112.236829,34.761399,新蕾电动车(五头店),河南省,无,新蕾
2019-09-09,瀍河回族乡瀍河区新街加油站对面,老城区,洛阳市,112.487948,34.683344,新蕾电动(新街连锁店),河南省,13526979449,新蕾
2019-09-09,高龙镇320省道南(美合花园西南200米),偃师市,洛阳市,112.708781,34.634926,新蕾电动车(火神凹连锁店),河南省,0379-67547001;13603962967,新蕾
2019-09-09,X041(平赵路),宜阳县,洛阳市,112.102092,34.427735,新蕾电动车,河南省,无,新蕾
2019-09-09,凤山路东200米,汝阳县,洛阳市,112.477690,34.146538,新蕾电动车,河南省,无,新蕾
2019-09-09,大学城五环街龙富小区(C东区),洛龙区,洛阳市,112.428900,34.624484,新蕾电动车(新区形象店),河南省,18003889461,新蕾
2019-09-09,中州路武汉路交叉口向西300米路北,涧西区,洛阳市,112.365999,34.674247,新蕾电动车(谷水店),河南省,15637996332,新蕾
2019-09-09,瀍河回族区中州东路11号,瀍河回族区,洛阳市,112.501167,34.686621,新蕾电动车,河南省,无,新蕾
2019-09-09,建设路32号附近,涧西区,洛阳市,112.413705,34.662624,新蕾电动车(七里河旗舰二店),河南省,0379-65295152,新蕾
2019-09-09,西花坛摩托城院内,洛宁县,洛阳市,111.643616,34.388153,新蕾电动车旗舰店,河南省,无,新蕾
2019-09-09,镇北路98号,洛龙区,洛阳市,112.481914,34.612045,新蕾电动车(关林专卖店),河南省,无,新蕾
2019-09-09,彭婆镇238省道伊川农商银行旁,伊川县,洛阳市,112.486465,34.484376,新蕾电动车(彭婆直营店),河南省,无,新蕾
2019-09-09,凤鸣路与郑潼路交叉口西北100米,伊川县,洛阳市,112.380867,34.469521,新蕾电动车(鸦岭镇专卖店),河南省,13523799493,新蕾
2019-09-09,023县道北50米,洛龙区,洛阳市,112.616220,34.674909,新蕾电动车(佃庄专卖店),河南省,无,新蕾
2019-09-09,会小线南50米,孟津县,洛阳市,112.554322,34.861788,新蕾电动车(白鹤专卖店),河南省,无,新蕾
2019-09-09,白马寺镇政府正对面,洛龙区,洛阳市,112.594423,34.718937,新蕾电动车(马寺店),河南省,18237933952,新蕾
2019-09-09,建设路10号,涧西区,洛阳市,112.412978,34.662838,新蕾电动车洛阳生活馆,河南省,0379-65295152,新蕾
2019-09-09,杜康大道南段104号,伊川县,洛阳市,112.431070,34.416441,新蕾电动车(伊川旗舰店),河南省,无,新蕾
2019-09-09,320省道东50米,洛龙区,洛阳市,112.602578,34.608783,新蕾电动车(李村店),河南省,13137050799,新蕾
2019-09-09,311国道西50米,栾川县,洛阳市,111.899376,33.845969,新蕾电动车(合峪专卖),河南省,无,新蕾
2019-09-09,东道口与春都路交叉口东100米,老城区,洛阳市,112.450144,34.688723,新蕾电动车(洛阳七星旗舰店),河南省,无,新蕾
2019-09-09,掘丁路东50米,洛龙区,洛阳市,112.649349,34.623035,新蕾电动车(偃师市庞村镇农村卫生工作站东),河南省,15037918055;13213561651,新蕾
2019-09-09,彭婆镇高原站牌南邻,伊川县,洛阳市,112.484170,34.494171,彭婆新蕾电动车,河南省,无,新蕾
2019-09-09,015乡道与331省道交叉口北150米,舞钢市,平顶山市,113.393809,33.184661,新蕾电动车,河南省,无,新蕾
2019-09-09,任店镇乐熙侨心小学附近,叶县,平顶山市,113.253964,33.579838,新蕾电动车(瓦店专卖店),河南省,无,新蕾
2019-09-09,文峰大道与曙光路交叉口向北150米路东,文峰区,安阳市,114.384006,36.098530,新蕾电动,河南省,无,新蕾
2019-09-09,平原路177号附近,文峰区,安阳市,114.377131,36.084816,新蕾电动,河南省,无,新蕾
2019-09-09,101省道附近,滑县,安阳市,114.488960,35.534826,新蕾电动车,河南省,无,新蕾
2019-09-09,英民路与解放路交叉口北150米,滑县,安阳市,114.510654,35.559699,新蕾电动,河南省,0372-8168018,新蕾
2019-09-09,龙安中路242附近,林州市,安阳市,113.831210,36.058044,新蕾电动车(四季优惠店),河南省,无,新蕾
2019-09-09,阜民街与龙安中路交叉口西50米,林州市,安阳市,113.830061,36.054965,新蕾电动车(林州旗舰店),河南省,无,新蕾
2019-09-09,,浚县,鹤壁市,114.397223,35.488399,新蕾电动车,河南省,无,新蕾
2019-09-09,宏力大道(西)北50米,牧野区,新乡市,113.810675,35.325451,新蕾电动车,河南省,无,新蕾
2019-09-09,冀源路与香港路交叉口旁,新乡县,新乡市,113.781244,35.188834,新蕾电动车,河南省,13503448717,新蕾
2019-09-09,唐庄镇卫生院西50米,卫辉市,新乡市,113.993554,35.417473,新蕾电动车(唐庄专卖),河南省,13673732364;13072625459,新蕾
2019-09-09,三阳乡前刘庄西口,武陟县,焦作市,113.299168,35.110897,新蕾电动车,河南省,无,新蕾
2019-09-09,020乡道与G5512晋新高速交叉口北200米,修武县,焦作市,113.356015,35.170646,新蕾电动车,河南省,无,新蕾
2019-09-09,九凤东路与238省道交叉口西100米,沁阳市,焦作市,112.947103,35.191425,新蕾电动专卖,河南省,无,新蕾
2019-09-09,文化路与群英巷交叉口南50米,武陟县,焦作市,113.411301,35.083147,新蕾电动车(武陟旗舰店),河南省,无,新蕾
2019-09-09,文昌路1号,马村区,焦作市,113.317646,35.273724,新蕾(马村连锁店),河南省,无,新蕾
2019-09-09,西韩愈大街251号,孟州市,焦作市,112.773339,34.905879,星星电动车,河南省,15346197981,新蕾
2019-09-09,047县道南50米,沁阳市,焦作市,112.900461,35.134025,新蕾电动车,河南省,无,新蕾
2019-09-09,309省道南200米,温县,焦作市,113.080000,34.953108,新蕾电动车,河南省,无,新蕾
2019-09-09,311省道北50米,武陟县,焦作市,113.536191,35.045037,新蕾电动车(刘村专卖店),河南省,无,新蕾
2019-09-09,036县道西50米,温县,焦作市,112.918625,34.983068,新蕾电动车(番田店),河南省,无,新蕾
2019-09-09,X076(高九线),博爱县,焦作市,113.132819,35.060798,新蕾电动车,河南省,13523353567,新蕾
2019-09-09,黄河大道57号-附8,武陟县,焦作市,113.413694,35.094221,新蕾电动车,河南省,无,新蕾
2019-09-09,待王火车站西200米,马村区,焦作市,113.339981,35.238914,新蕾电动车,河南省,13839112753,新蕾
2019-09-09,怡光路25号附近,中站区,焦作市,113.170732,35.240140,新蕾电动车焦作生活馆,河南省,无,新蕾
2019-09-09,032县道东50米,温县,焦作市,113.150212,35.027711,新蕾电动车(武德镇专卖店),河南省,无,新蕾
2019-09-09,237省道东50米,温县,焦作市,113.094862,35.032275,新蕾电动车(徐堡店),河南省,无,新蕾
2019-09-09,104省道南50米,山阳区,焦作市,113.142668,35.149620,新蕾专卖店,河南省,无,新蕾
2019-09-09,黄金北路附近,濮阳县,濮阳市,115.227300,35.741709,新蕾电动车,河南省,0393-4872279;18300653359,新蕾
2019-09-09,016县道与021乡道交叉口东50米,清丰县,濮阳市,115.043758,35.861267,新蕾电动车(固始店),河南省,无,新蕾
2019-09-09,大庆中路394附近,华龙区,濮阳市,115.073177,35.761551,新蕾电动车(濮阳专卖),河南省,无,新蕾
2019-09-09,建安区007县道南50米,建安区,许昌市,113.781991,34.128898,新蕾电动车,河南省,无,新蕾
2019-09-09,来吧快捷宾馆北50米(延安路东),魏都区,许昌市,113.799385,34.002019,新蕾雪豹电动车,河南省,13409365654,新蕾
2019-09-09,邓庄乡隆福聚洗浴中心东隔壁,建安区,许昌市,113.908137,34.043558,新蕾电动车,河南省,无,新蕾
2019-09-09,西大街760号,魏都区,许昌市,113.818825,34.028184,新蕾电动车(许昌店),河南省,无,新蕾
2019-09-09,,源汇区,漯河市,113.952465,33.579044,新蕾电动车,河南省,无,新蕾
2019-09-09,030乡道与238省道交叉口东150米附近,召陵区,漯河市,114.257844,33.595458,新蕾电动车青年惠君旗舰店,河南省,无,新蕾
2019-09-09,郭漯线,召陵区,漯河市,114.201901,33.501965,新蕾电动车,河南省,无,新蕾
2019-09-09,桐柏山路与汾河路交叉口东北50米,召陵区,漯河市,114.085816,33.585723,新蕾电动车,河南省,无,新蕾
2019-09-09,金山路西50米,舞阳县,漯河市,113.689314,33.617147,新蕾电动车,河南省,无,新蕾
2019-09-09,人民路90号附近,舞阳县,漯河市,113.601185,33.437427,新蕾电动车,河南省,无,新蕾
2019-09-09,五一路768号附近,源汇区,漯河市,114.027374,33.552044,新蕾电动车(漯河旗舰店),河南省,无,新蕾
2019-09-09,人民东路与阳山路交叉口东150米,召陵区,漯河市,114.132774,33.572348,新蕾电动车(漯河店),河南省,无,新蕾
2019-09-09,人民东路44号,召陵区,漯河市,114.073008,33.567628,新蕾电动车(人民路),河南省,无,新蕾
2019-09-09,004乡道南50米,召陵区,漯河市,114.166386,33.585999,新蕾电动车(齐都路店),河南省,无,新蕾
2019-09-09,和谐路与018县道交叉口北200米,源汇区,漯河市,114.026740,33.529783,天能电池新蕾电动车,河南省,无,新蕾
2019-09-09,三门新华西路城关镇中心学校东北50米,灵宝市,三门峡市,110.881177,34.521321,新蕾电动车,河南省,13193956119;13839898123,新蕾
2019-09-09,千秋路与滨河路交叉口西150米,义马市,三门峡市,111.855899,34.750491,新蕾电动车(千秋路),河南省,15839865739,新蕾
2019-09-09,富民路与长江路交叉口东150米,社旗县,南阳市,112.943644,33.043887,新蕾电动授权体验店,河南省,无,新蕾
2019-09-09,车站南路2358附近,卧龙区,南阳市,112.505014,32.958459,新蕾电动车服务部,河南省,无,新蕾
2019-09-09,福兴街与香山中路交叉口西50米,社旗县,南阳市,112.935277,33.061971,新蕾电动,河南省,无,新蕾
2019-09-09,人民路与银化路交叉口南150米,唐河县,南阳市,112.835684,32.682965,唐河县新蕾电动车旗舰店,河南省,15660009444,新蕾
2019-09-09,文渠乡,邓州市,南阳市,111.962790,32.739987,新蕾电动(文渠专卖),河南省,13525667439,新蕾
2019-09-09,中州大道东50米,邓州市,南阳市,112.108410,32.666104,新蕾电动车(中州大道店),河南省,13926812850,新蕾
2019-09-09,长江中路50号附近,宛城区,南阳市,112.544436,32.969757,新蕾电动车(小梁庄家属院东南),河南省,无,新蕾
2019-09-09,商圣街道冬青四小路口对面,淅川县,南阳市,111.490497,33.119953,新蕾电动车(浙川店),河南省,无,新蕾
2019-09-09,南关菜市场,内乡县,南阳市,111.848819,33.041468,新蕾电动车(内乡形象店),河南省,无,新蕾
2019-09-09,城南街与豫陕西路交叉口西北150米,西峡县,南阳市,111.092200,33.447406,新蕾电动车,河南省,13462540527,新蕾
2019-09-09,灌涨镇312国道家佳乐购物广场西,内乡县,南阳市,111.933934,33.038101,新蕾电动车(灌涨专卖),河南省,13569253387,新蕾
2019-09-09,007乡道与249省道交叉口北50米,内乡县,南阳市,111.797667,33.120108,新蕾电动车(赵店专卖店),河南省,无,新蕾
2019-09-09,胜利路东段金色摇篮东200米附近,宛城区,南阳市,112.629100,32.688559,新蕾电动车,河南省,13849791626,新蕾
2019-09-09,,虞城县,商丘市,115.859662,34.387596,新蕾电动车(虞城澜湾二店),河南省,无,新蕾
2019-09-09,张弓镇广场西路南附近,宁陵县,商丘市,115.245671,34.341029,新蕾电动车,河南省,无,新蕾
2019-09-09,牡丹路与迎春路交叉口东50米,永城市,商丘市,116.434637,33.929062,新蕾电动,河南省,18236398771,新蕾
2019-09-09,014县道南50米,虞城县,商丘市,116.011790,34.484033,新蕾电动车,河南省,无,新蕾
2019-09-09,105国道与327省道交叉口南200米,睢阳区,商丘市,115.677189,34.210817,新蕾电动车(冯桥形象店),河南省,无,新蕾
2019-09-09,中国邮政南100米(203省道东),虞城县,商丘市,115.932470,34.518152,新蕾电动车,河南省,无,新蕾
2019-09-09,中华春水西路236号附近,柘城县,商丘市,115.291885,34.077656,新蕾电动车国际旗舰店,河南省,无,新蕾
2019-09-09,睢州大道金彭电动三轮旁,睢县,商丘市,115.069503,34.429350,新蕾电动车(睢县专卖店),河南省,无,新蕾
2019-09-09,乌龙大道78附近,淮滨县,信阳市,115.416982,32.451834,新蕾电动淮滨旗舰店,河南省,无,新蕾
2019-09-09,香米贡大道南150米,息县,信阳市,114.747848,32.361501,新蕾电动车息县第二旗舰店,河南省,无,新蕾
2019-09-09,花园路6号楼附近,商城县,信阳市,115.412528,31.792050,商城县新蕾电动车旗舰店,河南省,0376-3263886,新蕾
2019-09-09,S216(幸福大道),固始县,信阳市,115.422429,32.086481,新蕾电动车,河南省,18205817397,新蕾
2019-09-09,朝前路与草方路交叉口东北50米,固始县,信阳市,115.578389,32.072650,新蕾电动车(草庙店),河南省,13033736015,新蕾
2019-09-09,大庆路大蓉和茶楼对面,浉河区,信阳市,114.083576,32.113842,新蕾电动车,河南省,无,新蕾
2019-09-09,紫水街道长庵巷35号,光山县,信阳市,114.906704,32.014220,新蕾电动车,河南省,无,新蕾
2019-09-09,固三公路与004县道交叉口西南100米,固始县,信阳市,115.779949,32.416176,新蕾电动车(桥沟专卖店),河南省,13462092409,新蕾
2019-09-09,王庄村台头小学附近,淮滨县,信阳市,115.335971,32.438898,新蕾电动车(台头专卖店),河南省,无,新蕾
2019-09-09,环城路与航空路交叉口东100米,潢川县,信阳市,115.049567,32.136931,新蕾电动车(潢川旗舰店),河南省,0376-3902919;0376-3190766,新蕾
2019-09-09,新汽车站对面桃花源商贸城,息县,信阳市,114.747407,32.361611,新蕾电动车,河南省,15565518881,新蕾
2019-09-09,北京路四季花城北50米,浉河区,信阳市,114.063150,32.143119,新蕾电动车(北京路店),河南省,无,新蕾
2019-09-09,沿河路85号,息县,信阳市,114.746726,32.346039,新蕾电动车(沿河路店),河南省,13803768588,新蕾
2019-09-09,新建东路,扶沟县,周口市,114.400138,34.058498,新蕾电动车,河南省,无,新蕾
2019-09-09,005乡道附近,沈丘县,周口市,115.334008,33.327166,新蕾电动车(陈寨专卖店),河南省,无,新蕾
2019-09-09,002县道东50米,郸城县,周口市,115.510175,33.688725,新蕾电动车,河南省,15670895058,新蕾
2019-09-09,329省道北50米,郸城县,周口市,115.119433,33.683283,新蕾电动车,河南省,无,新蕾
2019-09-09,富民北街大邢庄乡政府西南200米,沈丘县,周口市,115.208591,33.152918,新蕾电动车,河南省,无,新蕾
2019-09-09,326省道北50米,鹿邑县,周口市,115.607276,34.046207,新蕾电动车(宋河专卖店),河南省,15256158505,新蕾
2019-09-09,213省道西50米,商水县,周口市,114.646633,33.379327,新蕾电动车(固墙店),河南省,无,新蕾
2019-09-09,006乡道东50米,郸城县,周口市,115.344351,33.576178,新蕾电动车,河南省,无,新蕾
2019-09-09,211省道东50米,太康县,周口市,114.929822,34.237586,新蕾电动车,河南省,无,新蕾
2019-09-09,洺北办事处支农路防疫站南20米,郸城县,周口市,115.203829,33.647762,新蕾电动车(郸城旗舰店),河南省,13613949360,新蕾
2019-09-09,015县道北50米,郸城县,周口市,115.118677,33.594295,新蕾电动车(巴集店),河南省,15839478800,新蕾
2019-09-09,102省道南50米,川汇区,周口市,114.736987,33.580924,新蕾电动车,河南省,13523699564,新蕾
2019-09-09,207省道西50米,沈丘县,周口市,115.120790,33.325271,新蕾电动车(石槽旗舰店),河南省,无,新蕾
2019-09-09,207省道西50米,郸城县,周口市,115.263278,33.587489,新蕾电动车(九大桥旗舰店),河南省,无,新蕾
2019-09-09,010乡道与330省道交叉口西100米,西华县,周口市,114.161721,33.682738,新蕾电动车(址坊专卖),河南省,无,新蕾
2019-09-09,农垦大道南段西50米,西华县,周口市,114.416973,33.744643,新蕾电动车(西华店),河南省,无,新蕾
2019-09-09,311国道北50米,太康县,周口市,114.950975,33.960358,新蕾电动车(旗舰店),河南省,无,新蕾
2019-09-09,振坤家电(012乡道),上蔡县,驻马店市,114.300148,33.159451,新蕾电动车,河南省,无,新蕾
2019-09-09,卧龙路,上蔡县,驻马店市,114.371653,33.228622,新蕾电动车,河南省,无,新蕾
2019-09-09,002乡道北50米,遂平县,驻马店市,114.054652,33.225643,新蕾电动车,河南省,无,新蕾
2019-09-09,003县道北50米,上蔡县,驻马店市,114.346308,33.428743,新蕾电动车(小岳寺店),河南省,无,新蕾
2019-09-09,朝阳路西50米,上蔡县,驻马店市,114.268351,33.255391,新蕾电动上蔡专卖店,河南省,无,新蕾
2019-09-09,练江大道2361附近,驿城区,驻马店市,114.017835,32.961597,新蕾电动,河南省,无,新蕾
2019-09-09,乐山大道1064附近,驿城区,驻马店市,114.029905,32.993314,驻马店市新蕾电动车(乐山路店),河南省,无,新蕾
2019-09-09,嵖岈山路与开元路交叉口西北50米,遂平县,驻马店市,113.995368,33.141439,新蕾电动车,河南省,无,新蕾
2019-09-09,光明路与富康路交叉口西北50米,汝南县,驻马店市,114.264553,32.933434,新蕾电动,河南省,无,新蕾
2019-09-09,人民路与永康路交叉口东100米,新蔡县,驻马店市,114.972929,32.752197,新蕾电动车,河南省,无,新蕾
2019-09-09,韩庄镇028县道韩庄乡卫生院东北400米,汝南县,驻马店市,114.184130,32.897062,新蕾电动车(韩庄专卖店),河南省,无,新蕾
2019-09-09,经贸路与新洪路交叉口往东20米,西平县,驻马店市,114.035636,33.390900,新蕾电动车,河南省,无,新蕾
2019-09-09,016乡道东50米,遂平县,驻马店市,113.787388,33.116653,新蕾电动车(花庄专卖店),河南省,无,新蕾
2019-09-09,003乡道西50米,西平县,驻马店市,113.932218,33.374335,新蕾电动车(谭店店),河南省,无,新蕾
2019-09-09,007县道东50米,上蔡县,驻马店市,114.401321,33.199455,新蕾电动车(杨屯店),河南省,无,新蕾
2019-09-09,005县道与010乡道交叉口西100米,上蔡县,驻马店市,114.208102,33.366102,新蕾电动车,河南省,无,新蕾
2019-09-09,马南长安大道梁祝镇政府西南50米,汝南县,驻马店市,114.359055,32.779507,新蕾电动车(马乡专卖店),河南省,无,新蕾
2019-09-09,板店街车头,汝南县,驻马店市,114.423232,33.061557,新蕾电动车(板店专卖店),河南省,无,新蕾
2019-09-09,334省道西50米,汝南县,驻马店市,114.234583,32.904491,新蕾电动车(康店分店),河南省,无,新蕾
2019-09-09,丰收路南50米,上蔡县,驻马店市,114.452524,33.278464,新蕾电动车(上蔡专卖店),河南省,无,新蕾
2019-09-09,008县道与015县道交叉口西50米,汝南县,驻马店市,114.480983,32.852737,新蕾电动车,河南省,无,新蕾
2019-09-09,旗杆街与梁祝大道交叉口西100米,汝南县,驻马店市,114.351297,33.000750,新蕾电动车(旗杆街店),河南省,无,新蕾
2019-09-09,八仙街与济水大街交叉口西南50米,济源市,济源市,112.579003,35.091495,新蕾电动车,河南省,无,新蕾
2019-09-09,,济源市,济源市,112.593403,35.046385,新蕾电动车,河南省,无,新蕾
2019-09-09,文昌路与济水大街交叉口西100米,济源市,济源市,112.593132,35.088306,新的电动车,河南省,无,新蕾
2019-09-09,文昌路与济水大街交叉口西50米,济源市,济源市,112.593669,35.088324,新蕾电动车济源旗舰店,河南省,无,新蕾
2019-09-09,恩施街106小区北门口,青山区,武汉市,114.403296,30.621193,新蕾电动车,湖北省,13720169790,新蕾
2019-09-09,关东街道民族大道熊家嘴康福路,洪山区,武汉市,114.392475,30.494113,新蕾电动,湖北省,13667136580,新蕾
2019-09-09,中兴路与园春街交叉口东北150米,黄陂区,武汉市,114.296295,30.802916,新蕾电动,湖北省,无,新蕾
2019-09-09,南干渠街与建港南街交叉口西北50米,青山区,武汉市,114.371462,30.616895,新蕾电动车,湖北省,无,新蕾
2019-09-09,鹦鹉大道424号附近,汉阳区,武汉市,114.263516,30.531022,新蕾电动车(杨泗庙店),湖北省,无,新蕾
2019-09-09,盘龙城经济开发区盘龙城路甲山路摩卡小镇,黄陂区,武汉市,114.246110,30.709664,新蕾电动车,湖北省,无,新蕾
2019-09-09,东园西路与光谷一路交叉口东北150米,江夏区,武汉市,114.441192,30.431238,新蕾电动车(流芳二店),湖北省,15827012425,新蕾
2019-09-09,墨水湖北路与紫荆路交叉口西北50米,汉阳区,武汉市,114.220017,30.555597,新蕾电动车,湖北省,无,新蕾
2019-09-09,友谊大道869-2号南60米,洪山区,武汉市,114.389633,30.619028,新蕾电动车,湖北省,无,新蕾
2019-09-09,南湖综合生鲜市场,洪山区,武汉市,114.325199,30.493993,新蕾电动车,湖北省,无,新蕾
2019-09-09,前进街办事处前进一路194号,江汉区,武汉市,114.281922,30.579227,新蕾电动车(前进一路店),湖北省,无,新蕾
2019-09-09,汉口北大道与滠阳大街交叉口西南100米,黄陂区,武汉市,114.353398,30.717223,新蕾电动车,湖北省,无,新蕾
2019-09-09,新湾一路与红旗渠路交叉口东50米,江汉区,武汉市,114.244874,30.621634,新蕾电动车(红旗渠路店),湖北省,17786433395,新蕾
2019-09-09,关山大道新二村38号,洪山区,武汉市,114.410412,30.469867,新蕾电动车(关南小区专卖店),湖北省,无,新蕾
2019-09-09,韦桑路107号81中学对面,江岸区,武汉市,114.314010,30.620488,新蕾电动车(韦桑路店),湖北省,无,新蕾
2019-09-09,车站街87号,蔡甸区,武汉市,114.051314,30.504022,新蕾电动车(西岸百合春天东北),湖北省,13207175110,新蕾
2019-09-09,汉新街南78号附近,蔡甸区,武汉市,114.082510,30.561409,新蕾电动车(新农专卖店),湖北省,无,新蕾
2019-09-09,和平大道973附10号,青山区,武汉市,114.392792,30.635056,新蕾电动车(青山建五专卖店),湖北省,无,新蕾
2019-09-09,解放路521号,武昌区,武汉市,114.302206,30.554416,新蕾电动车(解放路专卖店),湖北省,15342273603,新蕾
2019-09-09,联城西路与联城路交叉口西南50米,蔡甸区,武汉市,114.155858,30.491684,新蕾电动车(沌口专卖店),湖北省,无,新蕾
2019-09-09,珞喻路312附36号,洪山区,武汉市,114.366614,30.520435,新蕾电动车,湖北省,无,新蕾
2019-09-09,汉兴街办事处新湾五路182号,江汉区,武汉市,114.253060,30.633623,新蕾电动车(汉口新湾五路店),湖北省,无,新蕾
2019-09-09,新竹路5号附近,洪山区,武汉市,114.398257,30.491369,新蕾电动车(新竹路店),湖北省,无,新蕾
2019-09-09,后湖四路与后湖大道交叉口西100米,江岸区,武汉市,114.293832,30.645227,新蕾电动车(万国二店),湖北省,无,新蕾
2019-09-09,金龙道74号东70米,汉阳区,武汉市,114.207836,30.568155,新蕾电动车(金龙路飞越二店),湖北省,15871357447,新蕾
2019-09-09,南一路与南北大道交叉口南100米,东西湖区,武汉市,114.154947,30.610268,新蕾电动车(舵落口连锁店),湖北省,18707118323,新蕾
2019-09-09,俊才街75号附近,江岸区,武汉市,114.280437,30.620925,新蕾电动车(俊才街专卖店),湖北省,13545262483,新蕾
2019-09-09,珞珈山16号武汉大学,洪山区,武汉市,114.368887,30.529572,小张车行全国连锁八一路专卖店,湖北省,无,新蕾
2019-09-09,黄郦路27号,武昌区,武汉市,114.358855,30.568222,新蕾电动车(黄鹂路专卖店),湖北省,无,新蕾
2019-09-09,解放路63附8号,武昌区,武汉市,114.296356,30.530858,绿源电动车(解放路店),湖北省,13797005813,新蕾
2019-09-09,杨桥湖大道18号南100米,江夏区,武汉市,114.442716,30.433872,新蕾电动车(流芳二店),湖北省,无,新蕾
2019-09-09,民族大道305号,洪山区,武汉市,114.394277,30.473983,新蕾电动车(东林外庐店),湖北省,13476864716,新蕾
2019-09-09,唐家墩街办事处香江东路26号,江汉区,武汉市,114.279953,30.606042,新蕾电动车(北湖专卖店),湖北省,无,新蕾
2019-09-09,兴国镇桃花泉街25号,阳新县,黄石市,115.207408,29.842918,新蕾电动车,湖北省,13872132014,新蕾
2019-09-09,黄石大道111-6号,黄石港区,黄石市,115.074850,30.227835,新蕾电动车(黄石店),湖北省,13597644886,新蕾
2019-09-09,兴国大道146号古商城购物广场(爱玛电动车旁),阳新县,黄石市,115.217961,29.832116,新雷电动,湖北省,无,新蕾
2019-09-09,车城大道56号附近,丹江口市,十堰市,110.981939,32.533728,新蕾电动车,湖北省,无,新蕾
2019-09-09,港口路与生产南路交叉口东50米,丹江口市,十堰市,111.512713,32.529732,新蕾电动车(丹江口总经销),湖北省,无,新蕾
2019-09-09,城关镇观音阁路44号,竹溪县,十堰市,109.726392,32.315293,新蕾电动车竹溪专卖店,湖北省,15172268910,新蕾
2019-09-09,S322(芭蕉西路),五峰土家族自治县,宜昌市,111.075729,30.165957,新蕾电动车,湖北省,无,新蕾
2019-09-09,夷陵大道228号,伍家岗区,宜昌市,111.317610,30.675029,新蕾电动车(伍家岗店),湖北省,无,新蕾
2019-09-09,人民路176号附近,樊城区,襄阳市,112.140653,32.040324,新蕾电动车(襄阳旗舰店),湖北省,无,新蕾
2019-09-09,桥文路22号,鄂城区,鄂州市,114.924947,30.379072,新蕾电动车,湖北省,无,新蕾
2019-09-09,葛店镇葛洪大道478号电厂桥头,华容区,鄂州市,114.652804,30.538305,新蕾电动车,湖北省,无,新蕾
2019-09-09,华容镇交通路,华容区,鄂州市,114.737429,30.534626,新蕾电动车(鄂州华容形象店),湖北省,无,新蕾
2019-09-09,孝武大道498附近,孝南区,孝感市,113.967503,30.883748,新蕾电动车,湖北省,无,新蕾
2019-09-09,槐荫大道与航空路交叉口西南50米,孝南区,孝感市,113.903475,30.920744,新蕾电动车,湖北省,无,新蕾
2019-09-09,仙女大道146号,汉川市,孝感市,113.830275,30.653470,新蕾电动车,湖北省,13726898158,新蕾
2019-09-09,槐荫大道418号中医院正对面,孝南区,孝感市,113.919557,30.916792,新蕾电动车,湖北省,无,新蕾
2019-09-09,蒲阳大道44-1号,应城市,孝感市,113.572350,30.940024,新蕾电动车(应城旗舰店),湖北省,0712-3182867,新蕾
2019-09-09,文昌路42号,安陆市,孝感市,113.694108,31.255751,新蕾电动车(安陆店),湖北省,无,新蕾
2019-09-09,罗陂路与310省道交叉口西南50米,孝南区,孝感市,113.986863,30.979377,大运摩托新蕾电动车,湖北省,无,新蕾
2019-09-09,金松大道与青峰山路交叉口西100米,松滋市,荆州市,111.773929,30.183327,新蕾电动,湖北省,无,新蕾
2019-09-09,绣林大道34号,石首市,荆州市,112.416769,29.721831,新蕾电动车,湖北省,13872215253,新蕾
2019-09-09,警民路雅马哈电动车旁,公安县,荆州市,112.210912,30.063211,新蕾电动车(荣军路),湖北省,无,新蕾
2019-09-09,红坪大道33-5号,红安县,黄冈市,114.614488,31.286849,新蕾电动车,湖北省,无,新蕾
2019-09-09,黄梅镇航信中部汽贸城A4栋,黄梅县,黄冈市,115.956770,30.061564,新蕾电动车(黄梅旗舰店),湖北省,0713-3351998,新蕾
2019-09-09,桂花西路96号,咸安区,咸宁市,114.332857,29.832413,新蕾电动车,湖北省,无,新蕾
2019-09-09,神农大道北50米,随县,随州市,113.312596,31.853189,新蕾电动,湖北省,无,新蕾
2019-09-09,凤翔大道与接龙桥路交叉口南150米,来凤县,恩施土家族苗族自治州,109.414854,29.514116,新蕾电动车来凤旗舰店,湖北省,无,新蕾
2019-09-09,航空路航空花园,恩施市,恩施土家族苗族自治州,109.481392,30.291274,新蕾电动车(恩施店),湖北省,无,新蕾
2019-09-09,咸嘉湖西路308附近,岳麓区,长沙市,112.906963,28.212092,新蕾电动车(西站店),湖南省,15399930868,新蕾
2019-09-09,丹桂巷与车站南路交叉口东北100米,雨花区,长沙市,113.010761,28.180670,新蕾电动车,湖南省,无,新蕾
2019-09-09,乌山街道郭亮南路-43号122中队旁,望城区,长沙市,112.816604,28.336454,新蕾电动,湖南省,无,新蕾
2019-09-09,金珠路,耒阳市,衡阳市,112.846760,26.427239,新蕾电动车,湖南省,无,新蕾
2019-09-09,白虎街361号附近,邵阳县,邵阳市,111.285867,26.998770,新蕾电动车,湖南省,无,新蕾
2019-09-09,建设路b栋12号附近,双清区,邵阳市,111.486199,27.235109,金箭电动车(邵阳总代理),湖南省,0739-5129855,新蕾
2019-09-09,建设路283号附近,双清区,邵阳市,111.486196,27.234316,新蕾电动车(邵阳形象店),湖南省,0739-2998260,新蕾
2019-09-09,新阳路137号附近,新邵县,邵阳市,111.470197,27.312937,新蕾电动车(新邵连锁店),湖南省,17773916262,新蕾
2019-09-09,孟奇路与西正街交叉口西南50米,汉寿县,常德市,111.963107,28.908417,新蕾电动车,湖南省,无,新蕾
2019-09-09,三角坪子午路温莎KTV对面,永定区,张家界市,110.468042,29.133754,新蕾电动(装修中),湖南省,0744-8229929,新蕾
2019-09-09,燕子前路与燕泉北路交叉口东50米,北湖区,郴州市,113.027751,25.788536,新蕾电动车(郴州专卖店),湖南省,无,新蕾
2019-09-09,龙泉镇新华东路28号,新田县,永州市,112.226339,25.912805,新蕾电动车(新田店),湖南省,无,新蕾
2019-09-09,泠江路与重华南路交叉口东南50米,宁远县,永州市,111.936226,25.583149,新蕾电动车(宁远店),湖南省,0746-7372106,新蕾
2019-09-09,瑞丰路217号门面,鹤城区,怀化市,109.976553,27.563165,新蕾电动车,湖南省,15115164361,新蕾
2019-09-09,319国道筲箕湾镇政府东50米,沅陵县,怀化市,110.299508,28.227819,新蕾电动车,湖南省,无,新蕾
2019-09-09,怀北路521号北国之春生态小区对面,鹤城区,怀化市,109.970832,27.570640,新蕾电动车(怀化店),湖南省,13487559429;18797576168,新蕾
2019-09-09,永平路与福星路交叉口西200米,靖州苗族侗族自治县,怀化市,109.676038,26.576839,新蕾电动,湖南省,无,新蕾
2019-09-09,乐坪东街1号西北90米,娄星区,娄底市,112.000854,27.723512,新蕾电动,湖南省,无,新蕾
2019-09-09,进港大道193号(进港大道245号102房)新蕾电动授权体验店,南沙区,广州市,113.561388,22.797997,新蕾电动车,广东省,无,新蕾
2019-09-09,望岗工业二路与106国道交叉口东南50米,白云区,广州市,113.282934,23.239892,豪德车行,广东省,15323338893,新蕾
2019-09-09,工业路403号,翁源县,韶关市,114.140523,24.355860,新蕾电动车,广东省,无,新蕾
2019-09-09,万丰村万安路40栋,宝安区,深圳市,113.822417,22.722634,新蕾电动车,广东省,无,新蕾
2019-09-09,上北三巷1至4号,宝安区,深圳市,113.840951,22.721167,新蕾电动车,广东省,无,新蕾
2019-09-09,福海街道塘尾十三区十巷一号102,宝安区,深圳市,113.804830,22.703259,新蕾电动车(塘尾店),广东省,无,新蕾
2019-09-09,流塘路32-6号,宝安区,深圳市,113.888921,22.583426,新蕾电动车(西乡店),广东省,13714219049,新蕾
2019-09-09,美平东路2101号附近,金湾区,珠海市,113.185784,22.098266,新蕾电动车,广东省,无,新蕾
2019-09-09,金砂路28号,金平区,汕头市,116.694852,23.366024,新蕾电动车,广东省,无,新蕾
2019-09-09,青年路与324国道交叉口南50米,龙湖区,汕头市,116.754165,23.439138,新蕾电动车(外砂店),广东省,无,新蕾
2019-09-09,,南海区,佛山市,113.203198,23.016882,新蕾电动车,广东省,无,新蕾
2019-09-09,明德路与桂平东路交叉口西南50米,南海区,佛山市,113.201602,23.030146,新蕾电动,广东省,无,新蕾
2019-09-09,跃华路雅居花园首层,高明区,佛山市,112.872094,22.898517,新蕾电动车,广东省,18929926990,新蕾
2019-09-09,堤东路213号之214号,蓬江区,江门市,113.094554,22.578290,新蕾电动车旗舰店,广东省,无,新蕾
2019-09-09,,雷州市,湛江市,110.008524,21.089760,新蕾电动车(客路店),广东省,13434603917,新蕾
2019-09-09,建设大道25号1层,廉江市,湛江市,110.285454,21.613409,新蕾电动车,广东省,13790987886,新蕾
2019-09-09,中山五路73号附近,廉江市,湛江市,110.292577,21.620970,新蕾电动车(中山路店),广东省,0759-6669809,新蕾
2019-09-09,遂城镇湛川路20号,遂溪县,湛江市,110.254336,21.373892,新蕾电动车(遂溪专卖店),广东省,无,新蕾
2019-09-09,618县道南50米,电白区,茂名市,111.224718,21.488478,新蕾电动车(博贺店),广东省,无,新蕾
2019-09-09,下郭大道132号,化州市,茂名市,110.636502,21.641127,新蕾电动车,广东省,15917117874,新蕾
2019-09-09,油城四路132号附近,茂南区,茂名市,110.915091,21.663723,新蕾电动车(茂名店),广东省,无,新蕾
2019-09-09,高凉西路126号,高州市,茂名市,110.847103,21.908109,新蕾电动车(高州店),广东省,无,新蕾
2019-09-09,清东路68号附近,四会市,肇庆市,112.715277,23.344529,新蕾电动车(四会市总店总代理),广东省,13076624516;13726994048,新蕾
2019-09-09,南兴三路嘉庆楼一楼铺,高要区,肇庆市,112.450020,23.027912,新蕾电动车专卖店,广东省,无,新蕾
2019-09-09,321国道东50米,高要区,肇庆市,112.283396,23.169706,电动车专卖,广东省,无,新蕾
2019-09-09,工业大道与工业大道五巷交叉口西北50米,怀集县,肇庆市,112.182125,23.916862,致诚电动车配件行,广东省,无,新蕾
2019-09-09,园洲镇兴园四路60号,博罗县,惠州市,113.970445,23.121605,新雷电动车,广东省,15817663254,新蕾
2019-09-09,仙井街东四巷与长安北路交叉口西北50米,惠阳区,惠州市,114.476410,22.790100,威震车行,广东省,0752-3389806,新蕾
2019-09-09,三栋路与山角街交叉口南100米,惠城区,惠州市,114.446781,22.981464,新蕾电动车(金海华府店),广东省,无,新蕾
2019-09-09,秋长镇秋宝路白石客运站附近,惠阳区,惠州市,114.379537,22.769542,新蕾电动车行,广东省,0752-3389805,新蕾
2019-09-09,仙井街东四巷与长安北路交叉口西北50米,惠阳区,惠州市,114.476392,22.790176,震威车行(长安南路店),广东省,0752-3389806;13927386951,新蕾
2019-09-09,水寨大道370号,五华县,梅州市,115.759491,23.926265,新蕾电动车(三田摩托车电动车专卖店),广东省,无,新蕾
2019-09-09,南山园路口往甲子方向50米处,陆丰市,汕尾市,115.921376,22.905119,新蕾电动车(南塘店),广东省,无,新蕾
2019-09-09,甲子镇陆甲大道加油站旁,陆丰市,汕尾市,116.061218,22.874146,新蕾电动车(甲子店),广东省,无,新蕾
2019-09-09,海龙路与红城大道东交叉口东北50米(佳美商场西),海丰县,汕尾市,115.346059,22.974266,新蕾电动车,广东省,无,新蕾
2019-09-09,梅陇镇梅陇小学旁富华楼1楼,海丰县,汕尾市,115.208289,22.893815,新蕾电动车店,广东省,无,新蕾
2019-09-09,城南路401号,城区,汕尾市,115.359673,22.780826,新蕾电动车(汕尾店),广东省,0660-3340111,新蕾
2019-09-09,宝源路桥头东景江花苑C103号,源城区,河源市,114.689036,23.738490,新蕾电动车行,广东省,无,新蕾
2019-09-09,华达集团广晟百货上角店河源大道南71号,源城区,河源市,114.689792,23.734514,新蕾电动车(河源专卖店),广东省,0762-3339058,新蕾
2019-09-09,Y004(清源西路),清城区,清远市,113.087440,23.677681,新蕾电动车,广东省,无,新蕾
2019-09-09,环城二路47号东北50米,清城区,清远市,113.026098,23.708650,新蕾电动车,广东省,无,新蕾
2019-09-09,清和大道138号101,清新区,清远市,113.010704,23.733656,清远新蕾电动车行,广东省,无,新蕾
2019-09-09,太和镇清和大道83号,清新区,清远市,113.015564,23.731930,新蕾电动车(清新店),广东省,0763-6951099,新蕾
2019-09-09,太和镇清和大道83号,清新区,清远市,113.012761,23.732545,新蕾电动车,广东省,13415201074,新蕾
2019-09-09,中山西路与和平路交叉口东南50米,东莞市,东莞市,113.850229,23.111082,新蕾电动车,广东省,无,新蕾
2019-09-09,寮步镇向西工业区兴山路49号,东莞市,东莞市,113.904142,22.980318,新蕾电动车(寮步镇凫山店),广东省,无,新蕾
2019-09-09,三乡镇文昌东路绿榕居45-46号,中山市,中山市,113.441153,22.364642,新蕾电动车(乐途车行),广东省,15807600361,新蕾
2019-09-09,阜城路18号附近,中山市,中山市,113.350476,22.664690,新雷电动车,广东省,13528111969,新蕾
2019-09-09,坦洲镇金斗大街79号至83号,中山市,中山市,113.470182,22.260668,文记车行,广东省,无,新蕾
2019-09-09,石岐区莲塘路35号,中山市,中山市,113.380851,22.529383,新蕾电动车行,广东省,无,新蕾
2019-09-09,坦洲镇金斗大街85号,中山市,中山市,113.469037,22.260862,新蕾电动车(坦洲文记店),广东省,无,新蕾
2019-09-09,莲塘路35号9-11,中山市,中山市,113.380909,22.529638,新蕾电动车(石岐专卖店),广东省,0760-88842899,新蕾
2019-09-09,黄圃镇新丰中路17号,中山市,中山市,113.333299,22.715177,新蕾电动车专卖,广东省,无,新蕾
2019-09-09,324国道北50米,饶平县,潮州市,117.049160,23.663927,新蕾电动车(连锁店),广东省,13553773102,新蕾
2019-09-09,道江西路,揭西县,揭阳市,116.133933,23.436773,新蕾电动车,广东省,无,新蕾
2019-09-09,棉湖镇50米曙光新城对面,揭西县,揭阳市,116.146439,23.427818,新蕾车行,广东省,无,新蕾
2019-09-09,新城镇大南路26号康乃馨楼下,新兴县,云浮市,112.227519,22.685065,新蕾电动车,广东省,无,新蕾
2019-09-09,吴圩镇友谊路237号,江南区,南宁市,108.219591,22.640636,新蕾电动车,广西壮族自治区,0771-4208929,新蕾
2019-09-09,南梧大道239号,兴宁区,南宁市,108.358404,22.856489,新蕾电动车(南梧店),广西壮族自治区,15277179711,新蕾
2019-09-09,定罗路与灵源路交叉口北150米,武鸣区,南宁市,108.284055,23.150132,新蕾电动车(武鸣专卖店),广西壮族自治区,无,新蕾
2019-09-09,智城路与银泉路交叉口东南100米,上林县,南宁市,108.599771,23.430350,新蕾电动车(上林县专卖店),广西壮族自治区,18977976400,新蕾
2019-09-09,五一路与南建路交叉口西50米,江南区,南宁市,108.294836,22.794340,新蕾电动车全国连锁(南宁旗舰店),广西壮族自治区,无,新蕾
2019-09-09,宾州镇芦圩工业品市场,宾阳县,南宁市,108.796684,23.216747,新蕾电动车(宾阳专卖店),广西壮族自治区,0771-8264261,新蕾
2019-09-09,城厢镇万隆国际广场,武鸣区,南宁市,108.282571,23.150390,新蕾电动车(武鸣专卖店),广西壮族自治区,0771-6296679,新蕾
2019-09-09,北雀路与景观路交叉口东北50米,柳北区,柳州市,109.398070,24.364879,新蕾电动车(柳北专卖店),广西壮族自治区,无,新蕾
2019-09-09,长安镇桔香北路137号,融安县,柳州市,109.405455,25.216665,新蕾电动车专卖店,广西壮族自治区,15957700307,新蕾
2019-09-09,雒容镇雒柳路41号,鱼峰区,柳州市,109.606856,24.400626,新蕾电动车(雒容连锁店),广西壮族自治区,无,新蕾
2019-09-09,航二路17号宏城绿都2栋,柳南区,柳州市,109.381855,24.277864,新蕾电动车(柳南店),广西壮族自治区,无,新蕾
2019-09-09,拉堡镇柳堡路597号(柳江区粮食局西北),柳江区,柳州市,109.341673,24.260862,新蕾电动车(柳江专卖店),广西壮族自治区,13367821737;15907821952,新蕾
2019-09-09,建中东路29-1号(鹿寨镇卫生院南),鹿寨县,柳州市,109.751404,24.483058,新蕾电动车(鹿寨镇卫生院南),广西壮族自治区,0772-6828578;0772-6826086;13324826269,新蕾
2019-09-09,屏山大道182之1-2号,鱼峰区,柳州市,109.416328,24.302620,新蕾(柳州总店),广西壮族自治区,0772-3808685,新蕾
2019-09-09,翠竹路53号电焊条厂旁,象山区,桂林市,110.264777,25.261226,新蕾电动车,广西壮族自治区,无,新蕾
2019-09-09,普陀路3栋4号,七星区,桂林市,110.323899,25.277017,新蕾电动车,广西壮族自治区,无,新蕾
2019-09-09,红头岭东安路尊皇大酒店旁,秀峰区,桂林市,110.264010,25.268270,新蕾电动车,广西壮族自治区,无,新蕾
2019-09-09,资源镇西延北路140号(嘉乐迪斜对面),资源县,桂林市,110.645218,26.034473,新蕾电动车,广西壮族自治区,无,新蕾
2019-09-09,兴安镇迎宾路217号,兴安县,桂林市,110.644166,25.610218,新蕾电动车,广西壮族自治区,无,新蕾
2019-09-09,灵川大道42号,灵川县,桂林市,110.306384,25.343044,新蕾电动车(全国连锁八里街专卖店),广西壮族自治区,无,新蕾
2019-09-09,中山南路24号-12,象山区,桂林市,110.284862,25.252627,新蕾电动车服务中心,广西壮族自治区,无,新蕾
2019-09-09,桂黄中路与菱角塘路交叉口东南50米,全州县,桂林市,111.064540,25.930977,新蕾电动车(全州店),广西壮族自治区,无,新蕾
2019-09-09,人民路128号附近,临桂区,桂林市,110.198259,25.237314,新蕾电动车(大汉源电动三轮车),广西壮族自治区,无,新蕾
2019-09-09,201省道附近,灌阳县,桂林市,111.153535,25.484324,灌阳新蕾电动车,广西壮族自治区,15678395456;13077668088,新蕾
2019-09-09,恭城镇城中西路54号,恭城瑶族自治县,桂林市,110.827617,24.838098,新蕾电动车,广西壮族自治区,18978658213,新蕾
2019-09-09,城西路152号,阳朔县,桂林市,110.480488,24.776559,新蕾电动车(阳朔店),广西壮族自治区,无,新蕾
2019-09-09,兴桂路站前街25号,兴安县,桂林市,110.668366,25.614977,新蕾电动车(兴安旗舰店),广西壮族自治区,无,新蕾
2019-09-09,灵川大道与184乡道交叉口北100米,灵川县,桂林市,110.326102,25.404124,新蕾电动车(灵川店),广西壮族自治区,无,新蕾
2019-09-09,漓江路37-11号,七星区,桂林市,110.306882,25.259678,新蕾电动车(漓江路店),广西壮族自治区,无,新蕾
2019-09-09,漓江路31-5号,七星区,桂林市,110.307948,25.259651,新艺电动车(漓江路),广西壮族自治区,无,新蕾
2019-09-09,凤翔路与凤阁路交叉口西北50米,永福县,桂林市,109.987283,24.986638,新蕾电动车(永福专卖店),广西壮族自治区,无,新蕾
2019-09-09,中山南路7附近,象山区,桂林市,110.284013,25.252340,新蕾(南门店),广西壮族自治区,无,新蕾
2019-09-09,漓江路29号,七星区,桂林市,110.308230,25.259659,新蕾电动车(漓江路专卖店),广西壮族自治区,15978048585,新蕾
2019-09-09,,万秀区,梧州市,111.304412,23.471235,新蕾电动车(文澜路),广西壮族自治区,无,新蕾
2019-09-09,文澜路与新兴一路交叉口东北50米,万秀区,梧州市,111.304657,23.471924,新蕾电动车(梧州旗舰店),广西壮族自治区,13807749949,新蕾
2019-09-09,209国道东50米,合浦县,北海市,109.336690,21.757973,新蕾电动车,广西壮族自治区,无,新蕾
2019-09-09,部湾中路8号正东方向25米,海城区,北海市,109.128752,21.483322,新蕾电动车(北海二店),广西壮族自治区,0779-2035008,新蕾
2019-09-09,还珠中路与金海路交叉口西50米,合浦县,北海市,109.201104,21.659670,新蕾电动车(合浦专卖店),广西壮族自治区,无,新蕾
2019-09-09,还珠中路与金海路交叉口东北50米,合浦县,北海市,109.200949,21.659770,新蕾电动车(合浦二分店),广西壮族自治区,0779-7216888,新蕾
2019-09-09,北部湾中路8号(旧汽车总站正对面),海城区,北海市,109.125390,21.482339,新蕾电动车(北湾旗舰店),广西壮族自治区,0779-2035008;13617896333,新蕾
2019-09-09,公车镇德城新世界,港口区,防城港市,108.365392,21.683686,新蕾电动车(防城港店),广西壮族自治区,无,新蕾
2019-09-09,中华路81号,上思县,防城港市,107.979665,22.148858,新蕾(上思旗舰店),广西壮族自治区,无,新蕾
2019-09-09,新街路,浦北县,钦州市,109.468763,22.183718,新蕾电动车,广西壮族自治区,无,新蕾
2019-09-09,中兴街182号附近,浦北县,钦州市,109.628541,22.569545,新蕾电动车专卖店,广西壮族自治区,无,新蕾
2019-09-09,解放路262号,浦北县,钦州市,109.557793,22.275184,新蕾电动车(浦北旗舰店),广西壮族自治区,18777710633,新蕾
2019-09-09,桂南路尾盐业公司对面,桂平市,贵港市,110.074979,23.371704,新蕾电动车行,广西壮族自治区,无,新蕾
2019-09-09,金田镇财政所西北(348县道),桂平市,贵港市,110.117317,23.584784,新蕾电动车专卖店,广西壮族自治区,无,新蕾
2019-09-09,209国道与324国道交叉口东200米,覃塘区,贵港市,109.416950,23.131778,新蕾电动车(覃塘区城乡规划建设监察大队西),广西壮族自治区,18776637423,新蕾
2019-09-09,二环路与石棠路交汇处东北100米玉林市文化艺术中心附近,玉州区,玉林市,110.184161,22.649691,新蕾电动车(北门专卖店),广西壮族自治区,无,新蕾
2019-09-09,温汤路与陆兴中路交叉口东北50米,陆川县,玉林市,110.259900,22.315080,新蕾电动车行,广西壮族自治区,无,新蕾
2019-09-09,妇幼保健院斜对面,靖西市,百色市,106.419975,23.137269,新蕾电动车NEO体验店,广西壮族自治区,18077649700,新蕾
2019-09-09,田州镇荣鑫路40号(花样年华酒吧斜对面),田阳区,百色市,106.902530,23.735776,新蕾电动车,广西壮族自治区,13558062703;17777620152,新蕾
2019-09-09,城东大道与福州街交叉口北100米,右江区,百色市,106.656109,23.877446,新蕾电动车,广西壮族自治区,无,新蕾
2019-09-09,城北二路15号,右江区,百色市,106.609880,23.898303,新蕾电动车(百色生活馆),广西壮族自治区,无,新蕾
2019-09-09,怀远镇,宜州区,河池市,108.471850,24.564142,新蕾电动车,广西壮族自治区,无,新蕾
2019-09-09,庆远镇龙岗路电动车市场五区,宜州区,河池市,108.652481,24.490020,新蕾电动车(宜州专卖店),广西壮族自治区,无,新蕾
2019-09-09,苗苗幼儿园(武宣县东乡镇政府西北),武宣县,来宾市,109.855166,23.593354,新蕾电动车,广西壮族自治区,无,新蕾
2019-09-09,岭南镇人民中路666号,合山市,来宾市,108.890150,23.825465,新蕾电动车(合山市旗舰店),广西壮族自治区,无,新蕾
2019-09-09,322国道东50米,兴宾区,来宾市,108.961264,23.620179,新蕾电动车(迁江旗舰店),广西壮族自治区,13977209321,新蕾
2019-09-09,大塘镇大忻路33号,忻城县,来宾市,108.917035,24.129621,当代车行新蕾电动车,广西壮族自治区,15224628699,新蕾
2019-09-09,银兴街118号,凭祥市,崇左市,106.757829,22.111566,新蕾电动车,广西壮族自治区,0771-8534188,新蕾
2019-09-09,龙州镇东门街25号,龙州县,崇左市,106.857400,22.348911,新蕾电动车(九州专卖店),广西壮族自治区,0771-8818430,新蕾
2019-09-09,新华南路2号金鹿摩托车城5-6号,龙华区,海口市,110.345200,20.036822,新蕾电动车(东湖连锁店),海南省,无,新蕾
2019-09-09,龙昆北路23号,龙华区,海口市,110.328658,20.028709,新蕾电动车(龙昆北路店),海南省,无,新蕾
2019-09-09,高登东街180附近,琼山区,海口市,110.361067,19.998752,新蕾电动车(海口店),海南省,15109827939,新蕾
2019-09-09,丘海大道水头村路水头村3区1号附近,秀英区,海口市,110.296517,19.988759,新蕾电动车,海南省,无,新蕾
2019-09-09,府城镇高登东街35号,琼山区,海口市,110.363670,19.999211,欧派电动车(丰利金大厦东),海南省,无,新蕾
2019-09-09,琼州大道明珠大厦,琼山区,海口市,110.358732,20.005749,新蕾电动车(明珠店),海南省,无,新蕾
2019-09-09,秀英大道2-21号正南方向37米,秀英区,海口市,110.280917,20.010410,新蕾电动车(秀英旗舰店),海南省,无,新蕾
2019-09-09,新街92附近(龙塘中心小学西北),琼山区,海口市,110.414611,19.882810,龙塘新蕾电动车行,海南省,18907543938,新蕾
2019-09-09,和平街49附近,天涯区,三亚市,109.504451,18.243529,新蕾电动车NEOWO专卖,海南省,无,新蕾
2019-09-09,新民路572号附近,海棠区,三亚市,109.755619,18.404636,新蕾电动车,海南省,无,新蕾
2019-09-09,上新东路与上新西路交叉口南50米,吉阳区,三亚市,109.591050,18.283301,新蕾电动车专卖店,海南省,0898-88650429,新蕾
2019-09-09,崖州区崖城镇古城文明门儒学街27号,崖州区,三亚市,109.163616,18.369658,新蕾电动车,海南省,无,新蕾
2019-09-09,凤凰路与新居巷交叉口北50米,天涯区,三亚市,109.456965,18.297856,新蕾电动车(三亚店),海南省,无,新蕾
2019-09-09,街道胜利路271号上岛咖啡旁边,天涯区,三亚市,109.504289,18.241936,新蕾电动车(三亚专卖店),海南省,无,新蕾
2019-09-09,501县道附近,儋州市,儋州市,109.426479,19.698937,新蕾电动车,海南省,无,新蕾
2019-09-09,人民中路295/297,儋州市,儋州市,109.570921,19.513097,新蕾电动车(立新街),海南省,无,新蕾
2019-09-09,中兴南路与排塘路交叉口东南50米,琼海市,琼海市,110.475378,19.144020,新蕾电动车(中原店),海南省,无,新蕾
2019-09-09,富海横南与富海路交叉口西150米,琼海市,琼海市,110.468199,19.249531,新蕾电动车(琼海专卖店),海南省,无,新蕾
2019-09-09,长坡镇长文街,琼海市,琼海市,110.615358,19.342620,新蕾电动车专卖店,海南省,13389870048,新蕾
2019-09-09,龙楼镇文铜大道24号,文昌市,文昌市,110.966621,19.649603,新蕾电动,海南省,无,新蕾
2019-09-09,文城镇文新路41号,文昌市,文昌市,110.754984,19.618733,新蕾(文昌专卖店),海南省,无,新蕾
2019-09-09,华建路2号附近,文昌市,文昌市,110.762549,19.620744,新蕾电动车(文昌专卖店),海南省,无,新蕾
2019-09-09,东海路与农机路交叉口东南50米,东方市,东方市,108.656457,19.103124,新蕾电动车(东方总店),海南省,0898-25595008,新蕾
2019-09-09,223国道东50米,定安县,定安县,110.446745,19.468555,新蕾电动车(黄竹店),海南省,无,新蕾
2019-09-09,永富新街与永富路交叉口西150米,澄迈县,澄迈县,110.196088,19.746567,新蕾电动车工厂直销店,海南省,无,新蕾
2019-09-09,澄江北路28号附近,澄迈县,澄迈县,110.130515,19.962610,新蕾电动(澄迈老城店),海南省,无,新蕾
2019-09-09,文德路与澄江南路交叉口西南50米,澄迈县,澄迈县,110.124829,19.959899,新蕾电动车(老城专卖店),海南省,13398990548,新蕾
2019-09-09,300县道西50米,澄迈县,澄迈县,109.927885,19.840160,新蕾电动车,海南省,无,新蕾
2019-09-09,人民西路与富新巷交叉口东北50米(富朗镇东神庙附近),澄迈县,澄迈县,110.005541,19.732906,新蕾电动车(人民西路),海南省,13337551799,新蕾
2019-09-09,临城镇跃进西路1号,临高县,临高县,109.679407,19.904978,新蕾电动车,海南省,无,新蕾
2019-09-09,石碌镇人民北路249号,昌江黎族自治县,昌江黎族自治县,109.055488,19.280593,新蕾电动车(昌江店),海南省,0898-38987999,新蕾
2019-09-09,011乡道与225国道交叉口东南100米,乐东黎族自治县,乐东黎族自治县,108.733617,18.581664,新蕾电动车,海南省,无,新蕾
2019-09-09,314省道西50米,乐东黎族自治县,乐东黎族自治县,109.183593,18.737644,新蕾电动车(乐东店),海南省,17351236788,新蕾
2019-09-09,利国镇利国中心大道177号,乐东黎族自治县,乐东黎族自治县,108.896927,18.474468,新蕾电动车,海南省,18289921528,新蕾
2019-09-09,椰林镇建设路(132号),陵水黎族自治县,陵水黎族自治县,110.038014,18.505551,新蕾电动车,海南省,无,新蕾
2019-09-09,建设路480号教师村,陵水黎族自治县,陵水黎族自治县,110.026018,18.501011,新蕾电动车(陵水专卖店),海南省,无,新蕾
2019-09-09,黎族自治区英州镇英榆大道4号,陵水黎族自治县,陵水黎族自治县,109.863818,18.420318,新蕾电动车(英州店),海南省,无,新蕾
2019-09-09,营根镇海榆路56号,琼中黎族苗族自治县,琼中黎族苗族自治县,109.834198,19.035823,新蕾电动车,海南省,无,新蕾
2019-09-09,圣迹西路与学苑路交叉口北100米,大足区,重庆市,105.736001,29.675366,新蕾电动车(大足总代理店),重庆市,无,新蕾
2019-09-09,祥云路314号附近,巫山县,重庆市,109.876068,31.073821,新蕾电动车,重庆市,无,新蕾
2019-09-09,车城大道2-附13号附近,大足区,重庆市,105.764682,29.489496,新蕾电动车,重庆市,15310619087,新蕾
2019-09-09,宝光大道中段430-440号,新都区,成都市,104.155631,30.827428,新蕾电动车(新都旗舰店),四川省,无,新蕾
2019-09-09,宝轮镇清江大道306号,利州区,广元市,105.645587,32.376795,城市宝贝新蕾电动车,四川省,无,新蕾
2019-09-09,两路桥苗圃路145附17号,翠屏区,宜宾市,104.608316,28.757108,新蕾电动,四川省,无,新蕾
2019-09-09,长安中路310、312、320号,西昌市,凉山彝族自治州,102.248552,27.888065,新蕾电动车(长安中路店),四川省,0834-3958998,新蕾
2019-09-09,金带路与顺城东路交叉口南150米,会理县,凉山彝族自治州,102.245441,26.646749,新蕾电动车会理专卖店,四川省,无,新蕾
2019-09-09,三桥南路8-14号-1-3栋-1层,云岩区,贵阳市,106.676940,26.579362,新蕾电动车(三桥连锁店),贵州省,无,新蕾
2019-09-09,沙冲中路59-61号,南明区,贵阳市,106.705097,26.551999,新蕾电动车(贵州旗舰店),贵州省,无,新蕾
2019-09-09,大东方艾妮皇家婚纱摄影名店隔壁美利达自行车店,平坝区,安顺市,106.266370,26.409714,新蕾电动车,贵州省,无,新蕾
2019-09-09,塔山西路78号,西秀区,安顺市,105.927738,26.240114,新蕾电动车(安顺专卖店),贵州省,无,新蕾
2019-09-09,居仁街道华阳街,纳雍县,毕节市,105.432572,26.773239,居仁电动车行(新蕾电动),贵州省,15121735087,新蕾
2019-09-09,市市团结大道与镜山路交叉口西150米附近,沿河土家族自治县,铜仁市,108.496937,28.549643,新蕾电动车,贵州省,无,新蕾
2019-09-09,市印江土家族苗族自治县梵净山路与紫薇路交叉口东南50米,印江土家族苗族自治县,铜仁市,108.414406,27.993717,新蕾电动车,贵州省,无,新蕾
2019-09-09,桔丰路22附近,兴义市,黔西南布依族苗族自治州,104.913095,25.097247,新蕾电动车,贵州省,无,新蕾
2019-09-09,迎宾东路137号附近,兴义市,黔西南布依族苗族自治州,105.000646,25.154909,新蕾电动车(顶效店),贵州省,无,新蕾
2019-09-09,黄金路中段三毛酒厂对面,兴仁市,黔西南布依族苗族自治州,105.196709,25.429346,新蕾电动车(兴仁专卖店),贵州省,无,新蕾
2019-09-09,河西堰路5-21号附近,贵定县,黔南布依族苗族自治州,107.230039,26.577210,新蕾电动车,贵州省,无,新蕾
2019-09-09,四煤段与320国道交叉口北150米,嵩明县,昆明市,103.140987,25.259047,新蕾电动车专卖,云南省,无,新蕾
2019-09-09,花园街东路35号附近,宜良县,昆明市,103.147962,24.920751,新蕾电动车,云南省,无,新蕾
2019-09-09,320国道北50米,官渡区,昆明市,102.874123,25.044313,新蕾电动车(大板桥专卖店),云南省,15911636575,新蕾
2019-09-09,珥季路232号,官渡区,昆明市,102.769810,24.973045,新蕾电动车(小板桥专卖店),云南省,无,新蕾
2019-09-09,兴呈路与石龙路交叉口东50米,呈贡区,昆明市,102.801351,24.886909,新蕾电动车(呈贡专卖店),云南省,无,新蕾
2019-09-09,万达路与鲁布革大道交叉口西北50米,罗平县,曲靖市,104.309496,24.895717,新蕾电动车,云南省,13887494692,新蕾
2019-09-09,中兴南路20号新蕾电动,陆良县,曲靖市,103.662205,25.022084,新蕾电动车,云南省,0874-6928668,新蕾
2019-09-09,南宁北路155号,麒麟区,曲靖市,103.805058,25.502638,新蕾电动专卖店,云南省,无,新蕾
2019-09-09,明珠路与秀山路交叉口西100米,红塔区,玉溪市,102.532262,24.343345,新蕾电动车,云南省,无,新蕾
2019-09-09,东市街与宁荣街交叉口西北50米,华宁县,玉溪市,102.934105,24.187124,新蕾电动,云南省,无,新蕾
2019-09-09,文祥街70-45号,江川区,玉溪市,102.754294,24.295993,新蕾电动车(江川宝凤店),云南省,13529755821,新蕾
2019-09-09,玉泉路4-1号,红塔区,玉溪市,102.493577,24.337536,新蕾电动车,云南省,无,新蕾
2019-09-09,珊瑚路78-18号,红塔区,玉溪市,102.542816,24.361915,新蕾电动车(玉溪店),云南省,0877-2025556,新蕾
2019-09-09,城西小区70-1,红塔区,玉溪市,102.547374,24.429471,新蕾电动车(玉溪北城店),云南省,0877-2080986,新蕾
2019-09-09,珊瑚路86号,红塔区,玉溪市,102.546210,24.363655,新蕾电动车(玉溪旗舰店),云南省,0877-2038639;0877-2030696,新蕾
2019-09-09,科技路41号,红塔区,玉溪市,102.532463,24.397053,新蕾电动车(马井专卖店),云南省,0877-2041781;13887711498,新蕾
2019-09-09,新西河路与研兴街交叉口西200米,红塔区,玉溪市,102.500931,24.250711,新蕾电动车(虎山路),云南省,无,新蕾
2019-09-09,珊瑚路86号,红塔区,玉溪市,102.543617,24.362800,新蕾电动车(红塔区店),云南省,0877-2030696,新蕾
2019-09-09,龙马路19号,红塔区,玉溪市,102.544047,24.364639,新蕾电动车(龙马路店),云南省,0877-2025556,新蕾
2019-09-09,右甸东路北50米,昌宁县,保山市,99.622492,24.826523,新蕾电动车(昌宁店),云南省,无,新蕾
2019-09-09,镇商云路与绿海路交叉口北50米烟草综合楼附近,镇沅彝族哈尼族拉祜族自治县,普洱市,101.108159,24.008365,新蕾电动(镇沅店),云南省,无,新蕾
2019-09-09,振兴大道与白云路交叉口北100米,思茅区,普洱市,100.972013,22.798210,新蕾车行,云南省,无,新蕾
2019-09-09,中缅路北50米,耿马傣族佤族自治县,临沧市,99.099355,23.563204,新蕾电动,云南省,无,新蕾
2019-09-09,鹿城镇团结路184号,楚雄市,楚雄彝族自治州,101.553831,25.042176,新蕾Neowo电动车(团结路总店),云南省,18787889182,新蕾
2019-09-09,温泉路123号附近,弥勒市,红河哈尼族彝族自治州,103.434827,24.405331,新蕾电动车弥勒旗舰二店,云南省,无,新蕾
2019-09-09,温泉路65号,弥勒市,红河哈尼族彝族自治州,103.437999,24.404755,新蕾(弥勒店),云南省,无,新蕾
2019-09-09,焕文路36号附近,石屏县,红河哈尼族彝族自治州,102.485303,23.717559,新蕾电动车(石屏专卖店),云南省,无,新蕾
2019-09-09,开化中路51号,文山市,文山壮族苗族自治州,104.240364,23.370580,新蕾电动车,云南省,无,新蕾
2019-09-09,普者黑大街180号,丘北县,文山壮族苗族自治州,104.190871,24.037208,新蕾电动车(丘北连锁店),云南省,无,新蕾
2019-09-09,普者黑大街206号附近,丘北县,文山壮族苗族自治州,104.189911,24.037039,新蕾电动车(丘北专卖店),云南省,无,新蕾
2019-09-09,莎湾西环中心A1-4,景洪市,西双版纳傣族自治州,100.794136,22.006032,新蕾电动车,云南省,无,新蕾
2019-09-09,佛双路12号附近,勐海县,西双版纳傣族自治州,100.445209,21.953192,新蕾(勐海店),云南省,无,新蕾
2019-09-09,金牛路与鑫福路交叉口东南50米,宾川县,大理白族自治州,100.586123,25.825685,新蕾电动车(宾川店),云南省,15877781614,新蕾
2019-09-09,赏建路附近,盈江县,德宏傣族景颇族自治州,97.941328,24.696686,新蕾电动车,云南省,无,新蕾
2019-09-09,林廓西路西藏电视台广电厅商品房(中国银行正对面),城关区,拉萨市,91.112872,29.654965,新蕾电动车(拉萨店),西藏自治区,无,新蕾
2019-09-09,新马路,临潼区,西安市,109.221896,34.584724,新蕾电动车,陕西省,无,新蕾
2019-09-09,小寨二路南50米,临潼区,西安市,109.192774,34.381575,新蕾电动车(临潼小寨二路店),陕西省,13571914084,新蕾
2019-09-09,太兴南路与108省道交叉口东北50米,长安区,西安市,109.108967,34.077305,新蕾电动车(引镇专卖店),陕西省,无,新蕾
2019-09-09,永信路南50米,未央区,西安市,108.977263,34.334605,新蕾电动车(永信路),陕西省,无,新蕾
2019-09-09,东兆余村村委会西南(东长安街北),长安区,西安市,108.998453,34.158980,新蕾电动车杜陵专卖店,陕西省,无,新蕾
2019-09-09,太华路141号太华路电动车批发市场,新城区,西安市,108.973829,34.288157,新蕾电动车(含元路),陕西省,无,新蕾
2019-09-09,华强路与文景南路交叉口西北200米,莲湖区,西安市,108.937764,34.285879,新蕾电动车(文景路店),陕西省,无,新蕾
2019-09-09,榆楚镇渭桥商业街,高陵区,西安市,109.105805,34.479973,新蕾电动车(渭桥店),陕西省,13488104566,新蕾
2019-09-09,北增路与208县道交叉口南50米,临潼区,西安市,109.183261,34.459331,新蕾电动车北田专卖,陕西省,13572510359,新蕾
2019-09-09,二曲街道二曲镇农商街周至县环保局东邻,周至县,西安市,108.212591,34.158063,新蕾电动车全国连锁(周至连锁店),陕西省,无,新蕾
2019-09-09,沣惠路南段庆和小区东,莲湖区,西安市,108.889192,34.262015,新蕾电动车(土门店),陕西省,无,新蕾
2019-09-09,,周至县,西安市,108.227463,34.160121,新蕾电动车全国连锁(周至连锁店),陕西省,无,新蕾
2019-09-09,伞塔路付9号附近,碑林区,西安市,108.994644,34.264056,新蕾电动车(西安店),陕西省,无,新蕾
2019-09-09,长安北街康吧小区南30米,长安区,西安市,108.944977,34.162598,新蕾电动车(韦曲店),陕西省,无,新蕾
2019-09-09,郭杜东街与高阳二路交叉口西50米,长安区,西安市,108.873159,34.160239,新蕾电动车(郭杜店),陕西省,无,新蕾
2019-09-09,凤仪路东段6号附近,岐山县,宝鸡市,107.633718,34.445582,新蕾电动车,陕西省,无,新蕾
2019-09-09,310国道北50米,陈仓区,宝鸡市,107.463265,34.307173,新蕾电动车(天王专卖店),陕西省,无,新蕾
2019-09-09,南大街与河滨街交叉口东南100米,陇县,宝鸡市,106.857142,34.887516,新蕾电动车,陕西省,无,新蕾
2019-09-09,陈仓大道南50米,陈仓区,宝鸡市,107.364997,34.354834,新蕾电动车(陈仓专卖店),陕西省,无,新蕾
2019-09-09,,岐山县,宝鸡市,107.631325,34.437295,新蕾电动岐山专卖店,陕西省,14791716998,新蕾
2019-09-09,西大街379号附近,陈仓区,宝鸡市,107.372475,34.353791,新蕾电动车(陈仓区专卖店),陕西省,无,新蕾
2019-09-09,东环南路66号附近,乾县,咸阳市,108.248892,34.523055,新蕾电动车(乾县店),陕西省,无,新蕾
2019-09-09,田阜街道附近,兴平市,咸阳市,108.584183,34.273741,新蕾电动车(田阜店),陕西省,无,新蕾
2019-09-09,昭仁街道西大街,长武县,咸阳市,107.790791,35.208574,新蕾电动车,陕西省,无,新蕾
2019-09-09,咸兴路与040乡道交叉口北200米,兴平市,咸阳市,108.580913,34.301067,新蕾电动车,陕西省,17789168527;17789163592,新蕾
2019-09-09,G312(沪霍线),永寿县,咸阳市,108.146184,34.685093,新蕾电动车(永寿店),陕西省,无,新蕾
2019-09-09,东西一号线附近,渭城区,咸阳市,108.796456,34.471266,新蕾电动车专卖,陕西省,无,新蕾
2019-09-09,底张镇街道办事处附近,渭城区,咸阳市,108.780939,34.422858,新蕾电动车底(张弘德车行连锁店),陕西省,无,新蕾
2019-09-09,211国道北50米,泾阳县,咸阳市,108.812814,34.633037,新蕾电动车(云阳专卖店),陕西省,无,新蕾
2019-09-09,312国道北50米,秦都区,咸阳市,108.627165,34.398920,新蕾电动车,陕西省,无,新蕾
2019-09-09,324县道北50米,渭城区,咸阳市,108.858812,34.445315,新蕾电动车(新城医院东),陕西省,无,新蕾
2019-09-09,S104(金城路中段),兴平市,咸阳市,108.459345,34.305218,新蕾电动车,陕西省,无,新蕾
2019-09-09,珠泉路4号附近,秦都区,咸阳市,108.618989,34.321645,新蕾电动车(茂陵店),陕西省,029-33617061,新蕾
2019-09-09,南大街12号公安局对面,兴平市,咸阳市,108.488708,34.301019,恒源公司,陕西省,029-38156993,新蕾
2019-09-09,塔巷与西大街交叉口东100米,兴平市,咸阳市,108.487569,34.301726,新蕾电动车(南大街店),陕西省,无,新蕾
2019-09-09,景翼街与长庄路交叉口南150米,富平县,渭南市,109.069582,34.817365,新蕾电动车(庄里店),陕西省,无,新蕾
2019-09-09,冯翊路东段城郊中学对面,大荔县,渭南市,109.937771,34.788715,新蕾电动车,陕西省,0913-3216799,新蕾
2019-09-09,107省道南50米,临渭区,渭南市,109.455185,34.620626,新蕾电动车(田市店),陕西省,13891443566,新蕾
2019-09-09,普照中路与烟泉北路交叉口西南50米,韩城市,渭南市,110.455432,35.482775,新蕾电动车,陕西省,13609238446,新蕾
2019-09-09,官油路与苍候路交叉口西北50米,临渭区,渭南市,109.602900,34.572220,新蕾电动车,陕西省,无,新蕾
2019-09-09,罕固路北50米,临渭区,渭南市,109.585808,34.638562,新蕾电动车(固市店),陕西省,无,新蕾
2019-09-09,杜康中路037号附近,白水县,渭南市,109.587879,35.181408,新蕾电动车(白水专卖),陕西省,0913-6158000;13992320700,新蕾
2019-09-09,沙小路与202省道交汇处西北附近,大荔县,渭南市,109.944919,34.749339,新蕾电动车,陕西省,13060306045,新蕾
2019-09-09,商南路与解放南路交叉口东150米,合阳县,渭南市,110.153548,35.228939,新蕾电动车,陕西省,无,新蕾
