add_time,address,area,city,lat,lng,name,province,tel,topic
2019-09-09,大赴路与赴沟路交叉口南50米,昌平区,北京市,116.443082,40.171001,比德文5C产品体验店,北京市,无,比德文
2019-09-09,大皮营路与福东街交叉口北100米,大兴区,北京市,116.654567,39.625236,比德文电动车专卖,北京市,无,比德文
2019-09-09,长沟镇长沟大街96号,房山区,北京市,115.899624,39.576872,比德文电动车(西乡苑南),北京市,无,比德文
2019-09-09,九德路与漷马路交叉口东100米,通州区,北京市,116.653756,39.750719,比德文电动车(锐驰生活区西南),北京市,无,比德文
2019-09-09,德觅路东50米,通州区,北京市,116.882428,39.716765,比德文电动车,北京市,无,比德文
2019-09-09,阳坊村西大街18号附近,昌平区,北京市,116.143364,40.140758,比德文专卖,北京市,无,比德文
2019-09-09,,延庆区,北京市,116.002406,40.460854,比德文电动车,北京市,无,比德文
2019-09-09,宝芦公路西50米,宁河区,天津市,117.721959,39.517765,比德文电动车,天津市,无,比德文
2019-09-09,宝芦公路北50米,宝坻区,天津市,117.610322,39.578220,比德文电动车八门城总经销,天津市,无,比德文
2019-09-09,翠屏山,蓟州区,天津市,117.424940,39.997219,比德文电动车(翠屏山店),天津市,13821290021,比德文
2019-09-09,前进道金海岸商业广场193号金盛捷电动汽车城,武清区,天津市,117.062887,39.356664,比德文电动车(武清店),天津市,无,比德文
2019-09-09,宝芦公路西50米,宁河区,天津市,117.721919,39.517712,松岭车行,天津市,022-69261866,比德文
2019-09-09,商贸街67号附近,蓟州区,天津市,117.413210,40.036426,比德文电动车,天津市,无,比德文
2019-09-09,城角街656号附近,鹿泉区,石家庄市,114.425122,37.984721,比德文,河北省,无,比德文
2019-09-09,香港路131号附近,行唐县,石家庄市,114.563625,38.441563,比德文电动车,河北省,无,比德文
2019-09-09,建华大街北宋路东北角,长安区,石家庄市,114.546112,38.046529,比德文电动自行车,河北省,18032932374,比德文
2019-09-09,314县道与659乡道交叉口北100米,新乐市,石家庄市,114.762013,38.433827,比德文电动车,河北省,无,比德文
2019-09-09,滨彤街6号附近,裕华区,石家庄市,114.553102,37.981636,比德文电动车,河北省,无,比德文
2019-09-09,红旗大街与汇新路交叉口南行30米路西,桥西区,石家庄市,114.460038,37.998262,比德文电动车,河北省,无,比德文
2019-09-09,建明中路与谈固东街交叉口东南50米,长安区,石家庄市,114.570421,38.040055,比德文电动自行车,河北省,无,比德文
2019-09-09,光华路北150米,长安区,石家庄市,114.550154,38.060098,比德文电动车,河北省,15100127275,比德文
2019-09-09,红日商城(204省道),藁城区,石家庄市,114.739456,38.040169,比德文电动车机场路专卖店,河北省,无,比德文
2019-09-09,影院胡同与河边东路交叉口东北50米,井陉县,石家庄市,114.143409,38.030450,比德文电动车(造纸厂宿舍店),河北省,无,比德文
2019-09-09,昌泰路与107国道交叉口西南100米,正定县,石家庄市,114.655592,38.289301,永波电动车行,河北省,13731180668,比德文
2019-09-09,赵州镇石桥大街53号,赵县,石家庄市,114.774974,37.750345,比德文电动车(赵县店),河北省,0311-84941075,比德文
2019-09-09,204省道与G1811黄石高速出口交叉口北150米,藁城区,石家庄市,114.739526,38.039883,比德文低碳交通馆,河北省,无,比德文
2019-09-09,"跃进路与谈固大街交口西行100米路南,西红柿KTV斜对面",长安区,石家庄市,114.560775,38.049580,立马电动车行,河北省,无,比德文
2019-09-09,204省道西50米,藁城区,石家庄市,114.751375,38.296055,比德文电动车(藁城区果庄新区北),河北省,无,比德文
2019-09-09,中华北大街与柏林南路口西行50米电动车市场院内,新华区,石家庄市,114.477991,38.071853,比德文电动车(石家庄店),河北省,13930459934,比德文
2019-09-09,兴华北路88号,辛集市,石家庄市,115.215780,37.922798,比德文电动车(铁马小区西北),河北省,0311-83385588,比德文
2019-09-09,府前东路74号,深泽县,石家庄市,115.207210,38.183596,比德文电动车深泽(旗舰店),河北省,无,比德文
2019-09-09,鲜虞街33号豪华车行,新乐市,石家庄市,114.691469,38.345421,比德文电动车(新乐店),河北省,0311-87570189;13073144055,比德文
2019-09-09,联盟路12-2号附近,新华区,石家庄市,114.495256,38.078203,比德文电动车,河北省,无,比德文
2019-09-09,胜利南街353东南100米,裕华区,石家庄市,114.495314,37.989978,比德文电动车,河北省,无,比德文
2019-09-09,开泰街留营小区东门北行200米路东,桥西区,石家庄市,114.431997,38.059131,比德文电动车,河北省,无,比德文
2019-09-09,大郭街道大郭镇和平西路西城盛世一楼底商,新华区,石家庄市,114.417655,38.069441,比德文电动车,河北省,无,比德文
2019-09-09,北城国际,长安区,石家庄市,114.518375,38.075726,比德文电动车,河北省,无,比德文
2019-09-09,东岗路8号河北棉花大厦天山人家对面,裕华区,石家庄市,114.518501,38.015530,比德文电动自行车,河北省,无,比德文
2019-09-09,大河路北50米,鹿泉区,石家庄市,114.389777,38.134739,比德文电动自行车,河北省,无,比德文
2019-09-09,联盟路547附近,新华区,石家庄市,114.467374,38.079223,比德文电动自行车,河北省,无,比德文
2019-09-09,中山东路与兴宁寺街交叉口北100米,长安区,石家庄市,114.585642,38.044908,比德文电动自行车,河北省,无,比德文
2019-09-09,仓盛路12号东60米,裕华区,石家庄市,114.524502,37.987769,比德文电动自行车,河北省,13722875716,比德文
2019-09-09,,丰润区,唐山市,118.068994,39.634467,比德文电动车总店,河北省,无,比德文
2019-09-09,102国道北50米,玉田县,唐山市,117.884964,39.875091,比德文电动车,河北省,无,比德文
2019-09-09,无终东街225号附近,玉田县,唐山市,117.757572,39.883090,比德文电动车5c产品体验店(玉田专卖店),河北省,无,比德文
2019-09-09,林西道80号附近,古冶区,唐山市,118.464294,39.719824,比德文电动车,河北省,无,比德文
2019-09-09,庆南道18号,路北区,唐山市,118.203314,39.690690,比德文电动车(唐山旗舰店),河北省,13803326690,比德文
2019-09-09,070乡道西50米,丰润区,唐山市,118.010819,39.773057,比德文电动车专卖店,河北省,无,比德文
2019-09-09,丰扬线与131乡道交叉口西南50米,玉田县,唐山市,117.674408,39.756409,比德文电动车,河北省,无,比德文
2019-09-09,602县道东50米,迁安市,唐山市,118.595003,39.928093,比德文电动车,河北省,无,比德文
2019-09-09,033乡道北50米,遵化市,唐山市,117.971579,40.095887,比德文电动车(团瓢庄专卖),河北省,无,比德文
2019-09-09,263省道西50米,丰南区,唐山市,118.216184,39.494992,比德文追风鸟电动车自行车孟庄专卖店,河北省,无,比德文
2019-09-09,丰登路与隆泰西道交叉口北100米,丰润区,唐山市,117.923130,39.699535,比德文电动车,河北省,无,比德文
2019-09-09,京哈公路雅迪电动车旁,玉田县,唐山市,117.654873,39.905134,比德文电动车,河北省,无,比德文
2019-09-09,银河路与248乡道交叉口东150米,丰润区,唐山市,118.204372,39.778833,比德文电动车,河北省,无,比德文
2019-09-09,西城路40号,开平区,唐山市,118.264206,39.679725,比德文电动车(西城路店),河北省,无,比德文
2019-09-09,无终东街与无终街交叉口西150米,玉田县,唐山市,117.757591,39.883145,比德文电动车(玉田专卖店),河北省,15284249208,比德文
2019-09-09,韩城镇阳光超市东100米路北,丰润区,唐山市,118.052458,39.637530,鑫洋比德文电动车(韩城专卖店),河北省,0315-5017882;13313059366,比德文
2019-09-09,丰南镇新华街86号,丰南区,唐山市,118.102685,39.563394,比德文电动车(丰南店),河北省,无,比德文
2019-09-09,258乡道北50米,丰润区,唐山市,118.101865,39.712319,比德文电动车(老庄子专卖),河北省,无,比德文
2019-09-09,邱柳线东50米,丰润区,唐山市,118.154539,39.951120,比德文电动三轮车,河北省,无,比德文
2019-09-09,窝洛沽镇,玉田县,唐山市,117.775999,39.666327,士凯车行,河北省,无,比德文
2019-09-09,西关口南100米,遵化市,唐山市,118.102528,40.347371,洪山口比德文专卖店,河北省,无,比德文
2019-09-09,116乡道与117乡道交叉口东100米,昌黎县,秦皇岛市,119.297008,39.699488,比德文电动车,河北省,无,比德文
2019-09-09,财神庙街与261省道交叉口北100米,昌黎县,秦皇岛市,119.163584,39.706745,比德文5c产品体验店(昌黎店),河北省,0335-2021508;13810381681,比德文
2019-09-09,309国道北50米,武安市,邯郸市,113.990033,36.644640,比德文电动车,河北省,无,比德文
2019-09-09,313省道附近,大名县,邯郸市,115.412042,36.226793,比德文电动车,河北省,无,比德文
2019-09-09,邯邢路临洺关火车站南路西20米,永年区,邯郸市,114.485553,36.776600,比德文电动车(永年旗舰店),河北省,13831000640,比德文
2019-09-09,中兴路与建设街交叉口南50米,邱县,邯郸市,115.170330,36.816251,比德文电动车(邱县专卖店),河北省,无,比德文
2019-09-09,,武安市,邯郸市,114.120878,36.608725,比德文电动车,河北省,15631042828,比德文
2019-09-09,建设大街与王郎前街交叉口东南50米,复兴区,邯郸市,114.460486,36.610296,比德文电动车,河北省,无,比德文
2019-09-09,315省道北50米,邯山区,邯郸市,114.484761,36.461398,比德文专卖店,河北省,18931036002,比德文
2019-09-09,112乡道附近,永年区,邯郸市,114.406750,36.838000,比德文电动车(邓上旗舰店),河北省,18331895827,比德文
2019-09-09,浴新南大街212号,邯山区,邯郸市,114.477542,36.589234,比德文电动车,河北省,无,比德文
2019-09-09,036省道南50米,永年区,邯郸市,114.592650,36.739509,比德文电动车,河北省,0310-6955333,比德文
2019-09-09,127乡道北50米,临漳县,邯郸市,114.461952,36.308588,比德文电动车,河北省,13785045204,比德文
2019-09-09,中山西路46号,磁县,邯郸市,114.380373,36.360131,比德文电动车,河北省,无,比德文
2019-09-09,展览路48号,丛台区,邯郸市,114.511958,36.611864,电动车专卖店,河北省,15733078558,比德文
2019-09-09,利民街15号,邯山区,邯郸市,114.490245,36.593172,比德文电动车,河北省,15232088865,比德文
2019-09-09,望岭东路与曙光街西行50米(老二十五中北侧),邯山区,邯郸市,114.483433,36.587899,比德文电动车,河北省,15130395353,比德文
2019-09-09,王禅东路与邺都南大街交叉口东150米,临漳县,邯郸市,114.614314,36.331187,比德文电动车(临漳店),河北省,13730418485,比德文
2019-09-09,兴堡东街45号附近,魏县,邯郸市,114.833862,36.331624,比德文电动三轮车,河北省,无,比德文
2019-09-09,,丛台区,邯郸市,114.467286,36.664744,比德文电动自行车,河北省,无,比德文
2019-09-09,丛台西路101号附近,复兴区,邯郸市,114.462023,36.621651,比德文电动自行车,河北省,无,比德文
2019-09-09,115乡道北50米,永年区,邯郸市,114.723860,36.771460,比德文电动三轮车(强胜电动三轮车东杨庄店),河北省,无,比德文
2019-09-09,洺兴路与洺园街交叉口西北200米,永年区,邯郸市,114.488021,36.770835,比德文电动三轮车(永年专卖店),河北省,13722685071,比德文
2019-09-09,武馆线与075乡道交叉口西100米,馆陶县,邯郸市,115.383479,36.719019,比德文电动三轮车(俊涛专卖店),河北省,无,比德文
2019-09-09,318省道北50米,永年区,邯郸市,114.524090,36.805850,比德文电动三轮车(艾丽斯电动车),河北省,无,比德文
2019-09-09,辛庄北路北50米,桥东区,邢台市,114.524899,37.068885,比德文电动自行车,河北省,无,比德文
2019-09-09,玉兰东路37号附近,临西县,邢台市,115.500882,36.859947,比德文电动车5C产品体验店,河北省,无,比德文
2019-09-09,253县道北50米,任县,邢台市,114.765832,37.126884,比德文电动车,河北省,无,比德文
2019-09-09,325省道国美家电旁,平乡县,邢台市,115.024203,37.062788,比德文电动车(平乡旗舰店),河北省,13191605526,比德文
2019-09-09,昆仑南大街与海河路交叉口东200米,宁晋县,邢台市,114.936646,37.558884,比德文电动车,河北省,无,比德文
2019-09-09,葛仙庄镇太行北路武松公园西350米老百姓大药房隔壁,清河县,邢台市,115.667746,37.064553,比德文电动自行车(清河旗舰店),河北省,18730953331,比德文
2019-09-09,公园东街富水嘉园B区东门,桥西区,邢台市,114.484240,37.098217,比德文电动车,河北省,无,比德文
2019-09-09,平安大道,内丘县,邢台市,114.469337,37.227343,比德文电动车,河北省,无,比德文
2019-09-09,326省道南50米,广宗县,邢台市,115.128485,36.979134,比德文电动车,河北省,13463905119,比德文
2019-09-09,403乡道与408乡道交叉口西150米,宁晋县,邢台市,115.055817,37.717856,比德文电动车,河北省,17003294448,比德文
2019-09-09,建设大街282号,南和县,邢台市,114.692165,37.007485,比德文电动车(南和旗舰店),河北省,无,比德文
2019-09-09,327省道,临城县,邢台市,114.361930,37.489876,比德文电动车,河北省,无,比德文
2019-09-09,双碑村,隆尧县,邢台市,114.611974,37.346562,比德文电动车旗舰店,河北省,13643299857;0319-6556190,比德文
2019-09-09,327省道北50米,巨鹿县,邢台市,115.183329,37.361007,比德文电动车三轮车(团城专卖店),河北省,无,比德文
2019-09-09,月城路202号,宁晋县,邢台市,114.925756,37.623282,比德文电动车(宁晋智慧产品体验店),河北省,0319-5802200,比德文
2019-09-09,327省道北150米,隆尧县,邢台市,114.682450,37.386323,比德文电动车,河北省,0319-6768285,比德文
2019-09-09,,隆尧县,邢台市,114.746992,37.283804,比德文电动车,河北省,无,比德文
2019-09-09,234省道南50米,宁晋县,邢台市,114.987961,37.452528,比德文电动车,河北省,0319-5586666;13513295118,比德文
2019-09-09,329省道南50米,沙河市,邢台市,114.361679,36.876702,新城比德文电动车,河北省,15833397836,比德文
2019-09-09,吉祥路百泉宾馆东100米,宁晋县,邢台市,114.914256,37.627671,比德文电动三轮车宁晋经销店,河北省,无,比德文
2019-09-09,325省道与905县道交叉口东南50米,威县,邢台市,115.478606,37.065745,踏浪电动车(常屯专卖店),河北省,无,比德文
2019-09-09,隆尧镇隆尧宾馆西行50米路北,隆尧县,邢台市,114.776675,37.353056,比德文电动车(隆尧店),河北省,13191601105,比德文
2019-09-09,,隆尧县,邢台市,114.783315,37.461345,比德文电动车,河北省,无,比德文
2019-09-09,324省道北50米,任县,邢台市,114.851320,37.248462,比德文电动车,河北省,无,比德文
2019-09-09,S323(新兴西大街),邢台县,邢台市,114.420112,37.047806,比德文电动自行车,河北省,无,比德文
2019-09-09,326省道与608乡道交叉口西100米,平乡县,邢台市,114.927065,36.975372,比德文电动三轮车(平乡中心卫生院东),河北省,无,比德文
2019-09-09,白马中路东50米,雄县,保定市,116.114474,39.083213,大营比德文电动车专卖店,河北省,无,比德文
2019-09-09,755县道北50米,定兴县,保定市,115.897951,39.303170,比德文(志朋车行专卖),河北省,无,比德文
2019-09-09,柳河营路与潘柳路交叉口东100米,涿州市,保定市,116.097685,39.402095,比德文专卖,河北省,无,比德文
2019-09-09,康节西路57附近,涿州市,保定市,115.986583,39.561865,东仙坡中学对面比德文电动车店,河北省,无,比德文
2019-09-09,,雄县,保定市,116.171856,38.963390,比德文电动车,河北省,无,比德文
2019-09-09,博望线西50米,望都县,保定市,115.265891,38.604648,比德文电动车,河北省,无,比德文
2019-09-09,东关街与兴华西路交叉口东150米,定兴县,保定市,115.786855,39.272104,比德文电动车(定兴专卖店),河北省,13831289228,比德文
2019-09-09,永兴路76号附近,定兴县,保定市,115.913972,39.209955,比德文电动车,河北省,无,比德文
2019-09-09,S231省道良寨村中心街附近,清苑区,保定市,115.434667,38.594276,比德文专卖,河北省,无,比德文
2019-09-09,316县道东50米,清苑区,保定市,115.453057,38.572449,比德文电动二轮车,河北省,无,比德文
2019-09-09,北平东路与燕赵北街交叉口西南150米,满城区,保定市,115.321511,38.951456,比德文电动车(满城旗舰店),河北省,无,比德文
2019-09-09,涞定路与352县道交叉口东100米,定兴县,保定市,115.732320,39.279336,比德文电动车,河北省,无,比德文
2019-09-09,大王店东街复兴路英利商场西50米,徐水区,保定市,115.440089,39.060419,比德文电动车(徐水形象店),河北省,0312-8680680,比德文
2019-09-09,贤寓镇邮局东,定兴县,保定市,115.720818,39.139999,比德文专卖,河北省,无,比德文
2019-09-09,孙村乡保新路高架桥东行200米路北鸣放车行,清苑区,保定市,115.590246,38.841669,比德文电动车(西孙村专卖店),河北省,无,比德文
2019-09-09,金台西路39号附近,容城县,保定市,115.863185,39.051492,比德文电动车(金台西路店),河北省,无,比德文
2019-09-09,高里乡高里店附近,定兴县,保定市,115.647969,39.285170,高里比德文电动车,河北省,13273216393,比德文
2019-09-09,宏基路东50米,易县,保定市,115.472043,39.315418,比德文电动车,河北省,无,比德文
2019-09-09,古遂东路与333省道交叉口西北50米,徐水区,保定市,115.562969,39.040496,比德文电动车,河北省,15030227934,比德文
2019-09-09,恒山东路恒州镇大赵邱学校西150米,曲阳县,保定市,114.757626,38.622126,比德文电动车(智慧产品体验店曲阳店),河北省,无,比德文
2019-09-09,蒲洼村039区024号,清苑区,保定市,115.622675,38.675657,比德文电动车(蒲洼店),河北省,0312-8055119,比德文
2019-09-09,232省道玛瑙专卖店南60米,曲阳县,保定市,114.680491,38.607884,比德文(斯波兹曼电动车专卖),河北省,15720178656;13832271479,比德文
2019-09-09,桃园街道冠云西路50号伟达电动车配件大全对面,涿州市,保定市,115.969081,39.477178,比德文电动三轮车,河北省,13833038868,比德文
2019-09-09,燕赵大街东50米,曲阳县,保定市,114.813476,38.548408,比德文电动车,河北省,无,比德文
2019-09-09,中心大街与220乡道交叉口西北50米,雄县,保定市,116.047874,39.064228,比德文电动车,河北省,无,比德文
2019-09-09,京广北大街15号附近,高碑店市,保定市,115.862561,39.329603,比德文电动车(高碑店),河北省,无,比德文
2019-09-09,万安镇镇政府对过,蠡县,保定市,115.661448,38.643567,比德文电动车(万安旗舰店),河北省,无,比德文
2019-09-09,和谐路与柳河营路交叉口西150米,涿州市,保定市,116.099838,39.401585,比德文电动三轮车,河北省,15933532475,比德文
2019-09-09,人民大街与向阳街交叉口北50米,雄县,保定市,116.101804,38.980440,比德文电动车(保定雄县店),河北省,13633120200,比德文
2019-09-09,财旺路南50米,定兴县,保定市,115.619511,39.177724,比德文电动车,河北省,无,比德文
2019-09-09,满易路与神西路交叉口南150米,满城区,保定市,115.287179,39.027616,比德文电动车,河北省,无,比德文
2019-09-09,333省道大册营镇政府东南100米,满城区,保定市,115.362285,39.012336,比德文电动车(大册营专卖店),河北省,13931395548,比德文
2019-09-09,中兴路附近,徐水区,保定市,115.440042,39.060378,欧宝橱柜,河北省,0312-8680680,比德文
2019-09-09,张登镇,清苑区,保定市,115.473513,38.647082,比德文电动车(张登镇店),河北省,无,比德文
2019-09-09,白沟镇富民南路105号,高碑店市,保定市,116.035165,39.111752,比德文电动车智慧产品体验店,河北省,13803280446,比德文
2019-09-09,金台西路53号附近,容城县,保定市,115.863157,39.051495,容城县占功电动车商行,河北省,无,比德文
2019-09-09,清苑镇迎宾街97号,清苑区,保定市,115.495143,38.765151,比德文电动车(清苑5c产品体验店),河北省,15903127185,比德文
2019-09-09,安肃镇永兴路55号,徐水区,保定市,115.653297,39.018788,比德文电动车(永兴中路店),河北省,13383120380,比德文
2019-09-09,莲池区南二环,莲池区,保定市,115.538668,38.804851,比德文电动车,河北省,无,比德文
2019-09-09,X755(祥胜路),高碑店市,保定市,115.951098,39.264166,比德文电动车,河北省,无,比德文
2019-09-09,满城区,满城区,保定市,115.359210,39.010813,比德文电动三轮车,河北省,无,比德文
2019-09-09,兴贸路王者通讯西30米,定州市,保定市,115.053017,38.607775,比德文电动三轮车,河北省,15033202013,比德文
2019-09-09,盛源南大街,徐水区,保定市,115.640883,39.001087,比德文电动自行车,河北省,无,比德文
2019-09-09,,徐水区,保定市,115.529233,39.006899,比德文电动自行车,河北省,无,比德文
2019-09-09,文化街与迎宾路交叉口东北50米,高碑店市,保定市,115.880917,39.326601,比德文电动自行车,河北省,无,比德文
2019-09-09,金鹰街5号附近,容城县,保定市,115.980400,39.031294,比德文电动三轮车(大河经销店),河北省,无,比德文
2019-09-09,商业街3号附近,万全区,张家口市,114.733631,40.756922,比德文电动车5c产品万全体验店,河北省,无,比德文
2019-09-09,南大街街道财神庙商业区金雕日化旁,宣化区,张家口市,115.061572,40.610987,比德文电动车,河北省,无,比德文
2019-09-09,平安街62号,尚义县,张家口市,113.976848,41.081207,比德文电动车(尚义体验店),河北省,13932368554,比德文
2019-09-09,355省道南50米,兴隆县,承德市,118.016425,40.383233,比德文电动车(蓝旗营综合楼西),河北省,无,比德文
2019-09-09,滦河大街2号东70米,双滦区,承德市,117.747831,40.955573,比德文电动车,河北省,无,比德文
2019-09-09,东大地乡集市场,宽城满族自治县,承德市,118.595666,40.429449,比德文电动车,河北省,无,比德文
2019-09-09,海崔线馨园小区附近,海兴县,沧州市,117.499072,38.133077,比德文电动车,河北省,无,比德文
2019-09-09,建设西路金台园南门底商,任丘市,沧州市,116.095605,38.701096,比德文电动车(任丘5C产品体验店),河北省,无,比德文
2019-09-09,383省道南50米,东光县,沧州市,116.647746,37.863429,比德文电动车,河北省,无,比德文
2019-09-09,G104(京福线),吴桥县,沧州市,116.401463,37.692208,比德文电动车,河北省,无,比德文
2019-09-09,民族大街269号,孟村回族自治县,沧州市,117.103759,38.057130,比德文电动车孟村专卖,河北省,13784718838;13784719690,比德文
2019-09-09,新华路神农居药店西80米比德文电动车专卖店,青县,沧州市,116.818029,38.576990,比德文电动车(青县1店),河北省,13473720662,比德文
2019-09-09,长江路17附近,吴桥县,沧州市,116.391071,37.625710,比德文电动车(吴桥旗舰店),河北省,15130756998,比德文
2019-09-09,381省道南50米,任丘市,沧州市,116.032990,38.690856,比德文电动车,河北省,15231746010,比德文
2019-09-09,162乡道与177乡道交叉口东北150米,东光县,沧州市,116.744721,37.893410,比德文电动车,河北省,无,比德文
2019-09-09,红旗巷与阁北街交叉口西南50米,肃宁县,沧州市,115.836022,38.431031,比德文电动车,河北省,无,比德文
2019-09-09,307国道北50米,沧县,沧州市,116.554669,38.281201,比德文电动三轮车(崔尔庄店),河北省,无,比德文
2019-09-09,盐水河北道与花车巷交叉口西南150米,霸州市,廊坊市,116.405225,39.107222,比德文电动车,河北省,0316-5988228;18731698318,比德文
2019-09-09,胜利道73号,霸州市,廊坊市,116.378244,39.179822,比德文电动车,河北省,13831617074,比德文
2019-09-09,霸州镇北杨庄村万德福对面,霸州市,廊坊市,116.408912,39.134297,比德文电动车,河北省,13932682752,比德文
2019-09-09,爱民东道卫生局综合楼37号,广阳区,廊坊市,116.697317,39.526467,比德文电动车,河北省,无,比德文
2019-09-09,金宝斋东300米路北比德文专卖店,霸州市,廊坊市,116.408321,39.112361,比德文电动车(霸州店),河北省,13231613228,比德文
2019-09-09,高楼大街22号,三河市,廊坊市,116.871520,40.001308,比德文电动车高楼(东旭专卖店),河北省,无,比德文
2019-09-09,250乡道与282省道交叉口南200米,枣强县,衡水市,115.722456,37.410672,比德文电动车城李三专营,河北省,无,比德文
2019-09-09,和平西路与美食街交叉口北50米,冀州区,衡水市,115.576225,37.547085,比德文电动车5C产品体验店,河北省,无,比德文
2019-09-09,邢德路与324省道交叉口西50米,故城县,衡水市,116.220873,37.431259,比德文电动自行车,河北省,无,比德文
2019-09-09,东武中街与保大南路交叉口西150米,武强县,衡水市,115.966786,38.034989,比德文电动车(武强店),河北省,15512675188,比德文
2019-09-09,武景公路与328乡道交叉口东南100米,武邑县,衡水市,115.971644,37.754569,苗小庄常升车业,河北省,无,比德文
2019-09-09,新城西门4号,尖草坪区,太原市,112.541287,37.949625,比德文电动车,山西省,15333512719,比德文
2019-09-09,西谷村迎商街78号,清徐县,太原市,112.403419,37.571149,比德文电动车,山西省,13080314458;18235169748,比德文
2019-09-09,昌盛东街,小店区,太原市,112.575732,37.735547,比德文电动车,山西省,无,比德文
2019-09-09,平喜路东50米,云冈区,大同市,113.214918,40.016888,比德文电动车,山西省,无,比德文
2019-09-09,新华西街50号,阳高县,大同市,113.744643,40.364720,比德文电动车,山西省,0352-6624147,比德文
2019-09-09,南大街与厂区路交叉口南50米,城区,阳泉市,113.594752,37.849663,比德文电动车(阳泉专卖店),山西省,13327530379,比德文
2019-09-09,新建西街526附近,沁水县,晋城市,112.184371,35.688127,比德文电动车,山西省,无,比德文
2019-09-09,黄华街91号大拇指儿童生活广场1层,城区,晋城市,112.841550,35.498186,比德文电动车(晋城店),山西省,无,比德文
2019-09-09,梅杏北路198号,沁水县,晋城市,112.188442,35.690219,比德文电动车(沁水专卖店),山西省,13753606236,比德文
2019-09-09,巴公镇南牛线第二人民医院附近,泽州县,晋城市,112.900884,35.618818,比德文电动车,山西省,无,比德文
2019-09-09,中都中街与中都中街北一巷交叉口东北50米,平遥县,晋中市,112.178671,37.212592,比德文电动车(平遥专卖),山西省,13453265386,比德文
2019-09-09,新建路15号正西方向57米,太谷县,晋中市,112.564828,37.420475,比德文5C产品体验店,山西省,无,比德文
2019-09-09,乐平镇迎宾路人民医院西南100米,昔阳县,晋中市,113.706265,37.602859,比德文电动车(鑫源堡南),山西省,18903441236,比德文
2019-09-09,006乡道西50米,夏县,运城市,111.231835,35.140798,电动车维修,山西省,13834949505,比德文
2019-09-09,新建北路与237省道交叉口南150米,万荣县,运城市,110.841491,35.419560,比德文电动车,山西省,无,比德文
2019-09-09,禹都市场一区东楼20号比德文专卖店,盐湖区,运城市,111.024486,35.051167,比德文电动车(盐湖店),山西省,无,比德文
2019-09-09,正平街,新绛县,运城市,111.215836,35.616469,比德文电动车,山西省,13111292696,比德文
2019-09-09,振兴街,稷山县,运城市,110.912351,35.500478,比德文电动车,山西省,无,比德文
2019-09-09,向阳路与城南街交叉口西北100米,繁峙县,忻州市,113.270673,39.186010,比德文电动车(向阳路店),山西省,无,比德文
2019-09-09,中国银行东南50米,霍州市,临汾市,111.708198,36.505064,比德文电动车,山西省,13835376961,比德文
2019-09-09,529县道北50米,尧都区,临汾市,111.632156,36.117292,比德文电动车,山西省,18535721362,比德文
2019-09-09,五一路与平阳南街交叉口西50米,尧都区,临汾市,111.519608,36.069636,比德文电动车,山西省,无,比德文
2019-09-09,尧山东路与朝阳巷交叉口东150米,浮山县,临汾市,111.856011,35.972321,比德文电动车,山西省,13835732086,比德文
2019-09-09,则天大街与320省道交叉口西100米,文水县,吕梁市,112.076118,37.431975,比德文电动车,山西省,无,比德文
2019-09-09,南熏街道四季花城f区旁,汾阳市,吕梁市,111.785003,37.259467,比德文电动车专卖店,山西省,15534315298,比德文
2019-09-09,肖家庄镇222省道好百年家具城,汾阳市,吕梁市,111.880683,37.248559,比德文电动车,山西省,无,比德文
2019-09-09,新义东街楼东大酒店对面,孝义市,吕梁市,111.795745,37.142562,比德文电动车(新义街店),山西省,无,比德文
2019-09-09,汾酒大道南200米,汾阳市,吕梁市,111.848551,37.323548,比德文电动车,山西省,13593364914,比德文
2019-09-09,城关镇新民街新恒美购物中心,和林格尔县,呼和浩特市,111.817318,40.379028,秦豆比德文电动车,内蒙古自治区,无,比德文
2019-09-09,西顺城街万隆大厦底店1号商铺,玉泉区,呼和浩特市,111.653672,40.808312,比德文电动车(西顺城街店),内蒙古自治区,0471-6306782,比德文
2019-09-09,安泰巷与新华东街交叉口东北150米,新城区,呼和浩特市,111.703838,40.830232,比德文电动车(新华东街),内蒙古自治区,无,比德文
2019-09-09,011县道,土默特左旗,呼和浩特市,111.551590,40.668767,比德文电动车(白庙子店),内蒙古自治区,13847124302,比德文
2019-09-09,207乡道北50米,赛罕区,呼和浩特市,111.788760,40.836299,比德文电动自行车,内蒙古自治区,无,比德文
2019-09-09,萨拉齐镇大众苑小区比德文电动车行,土默特右旗,包头市,110.519452,40.550130,比德文电动车(土默特右旗店),内蒙古自治区,13848535082,比德文
2019-09-09,白云路26街坊附近,昆都仑区,包头市,109.817879,40.664525,比德文电动车,内蒙古自治区,无,比德文
2019-09-09,人民南路公路工程楼下,海勃湾区,乌海市,106.820079,39.665436,比德文电动车,内蒙古自治区,无,比德文
2019-09-09,宝老线与玉四线交叉口东北100米,敖汉旗,赤峰市,120.091967,41.827893,比德文,内蒙古自治区,无,比德文
2019-09-09,内环西路北50米,元宝山区,赤峰市,119.295370,42.037471,比德文电动车(内环西路店),内蒙古自治区,无,比德文
2019-09-09,111国道北50米,松山区,赤峰市,119.348051,42.434700,比德文电动车,内蒙古自治区,无,比德文
2019-09-09,内兴元路与宝山街交叉口西南150米,元宝山区,赤峰市,119.294038,42.304268,比德文电动车,内蒙古自治区,无,比德文
2019-09-09,111国道东50米,松山区,赤峰市,119.250319,42.398889,比德文电动车,内蒙古自治区,无,比德文
2019-09-09,三道街与火花路交叉口西南150米,红山区,赤峰市,118.962415,42.279396,比德文电动车(赤峰旗舰店),内蒙古自治区,0476-8234188,比德文
2019-09-09,交通路与新建大街交叉口北150米,科尔沁区,通辽市,122.258231,43.607557,比德文电动车,内蒙古自治区,无,比德文
2019-09-09,463县道南50米,科尔沁左翼中旗,通辽市,122.749200,44.019173,比德文电动车,内蒙古自治区,13284868277,比德文
2019-09-09,205乡道南50米,开鲁县,通辽市,120.755190,43.497095,比德文电动车专卖,内蒙古自治区,15204857677,比德文
2019-09-09,树林召大街与长胜路交叉口西南50米,达拉特旗,鄂尔多斯市,110.033340,40.403069,比德文电动车,内蒙古自治区,无,比德文
2019-09-09,杭锦南路18号附5号,东胜区,鄂尔多斯市,110.000409,39.804976,比德文电动车,内蒙古自治区,无,比德文
2019-09-09,锡尼镇林荫南路15栋底商三完校斜对面,杭锦旗,鄂尔多斯市,108.733334,39.827736,比德文电动车,内蒙古自治区,15047736156,比德文
2019-09-09,中蒙医院(邮政街南),扎赉诺尔区,呼伦贝尔市,117.714858,49.455437,比德文电动车,内蒙古自治区,无,比德文
2019-09-09,林城路与通河东街交叉口东南50米,牙克石市,呼伦贝尔市,120.737584,49.283201,比德文高端电动车,内蒙古自治区,无,比德文
2019-09-09,中央北路与繁荣街交叉口南100米,扎兰屯市,呼伦贝尔市,122.746888,48.000029,比德文电动车,内蒙古自治区,无,比德文
2019-09-09,前进路与工商巷交叉口南100米,五原县,巴彦淖尔市,108.276417,41.090623,比德文电动车5C产品体验店,内蒙古自治区,无,比德文
2019-09-09,固查线南50米,乌拉特中旗,巴彦淖尔市,108.079900,41.292168,比德文电动车,内蒙古自治区,无,比德文
2019-09-09,乌兰大街与建设路交叉口西150米附近,乌拉特中旗,巴彦淖尔市,108.516677,41.565171,比德文电动车,内蒙古自治区,无,比德文
2019-09-09,教育路与红卫中路交叉口东南50米,乌拉特前旗,巴彦淖尔市,108.653399,40.726898,比德文电动车(乌拉特前旗店),内蒙古自治区,15804781566,比德文
2019-09-09,东风街与和平路交叉口北150米,磴口县,巴彦淖尔市,107.012252,40.330867,比德文电动三轮车,内蒙古自治区,0478-7966329,比德文
2019-09-09,中山北路与隆兴昌东街交叉口西南100米,五原县,巴彦淖尔市,108.276382,41.090705,比德文电动车,内蒙古自治区,15148803621,比德文
2019-09-09,新华街与红卫街交叉口北150米,察哈尔右翼前旗,乌兰察布市,113.217085,40.782023,比德文电动车,内蒙古自治区,无,比德文
2019-09-09,文卫南路西50米,察哈尔右翼后旗,乌兰察布市,113.192260,41.442391,比德文,内蒙古自治区,无,比德文
2019-09-09,复兴西街江南商居贸易广场东200米,乌兰浩特市,兴安盟,122.076185,46.071859,比德文(复兴西街店),内蒙古自治区,无,比德文
2019-09-09,恩格尔街与达来路交叉口东150米,苏尼特左旗,锡林郭勒盟,113.655988,43.850752,比德文电动车,内蒙古自治区,13947968310,比德文
2019-09-09,敖东聚小区西门北100米商铺,锡林浩特市,锡林郭勒盟,116.071750,43.958475,比德文电动车,内蒙古自治区,无,比德文
2019-09-09,向阳路158号,多伦县,锡林郭勒盟,116.475620,42.197330,比德文电动车,内蒙古自治区,15047953859,比德文
2019-09-09,上都镇门口,正蓝旗,锡林郭勒盟,115.996123,42.245899,比德文电动车,内蒙古自治区,无,比德文
2019-09-09,经济技术开发区沈辽西路107号(福隆雅居小区),铁西区,沈阳市,123.253779,41.744735,比德文双动力电动车,辽宁省,无,比德文
2019-09-09,白山立交桥与黄河北大街交叉口北100米,皇姑区,沈阳市,123.417998,41.862357,比德文电动车(三台子店),辽宁省,无,比德文
2019-09-09,重工街道重工南街8号1门,铁西区,沈阳市,123.326369,41.801836,比德文电动车(花苑社区卫生服务站东北),辽宁省,无,比德文
2019-09-09,中心街与政法路交叉口西50米,康平县,沈阳市,123.353204,42.742628,比德文电动车,辽宁省,无,比德文
2019-09-09,造化街道西江北街造化市场公交站南,于洪区,沈阳市,123.359744,41.888769,比德文电动车(造化店),辽宁省,无,比德文
2019-09-09,团结街东50米,法库县,沈阳市,123.421085,42.498139,比德文低碳交通馆,辽宁省,无,比德文
2019-09-09,法哈牛,新民市,沈阳市,123.068768,41.784581,比德文电动车(东星家园西),辽宁省,无,比德文
2019-09-09,东二台街5号甲附近,大东区,沈阳市,123.511923,41.840565,比德文电动车(联合路),辽宁省,无,比德文
2019-09-09,四法线北50米,新民市,沈阳市,122.689229,41.788285,比德文电动车,辽宁省,15997163007,比德文
2019-09-09,仙女河北路(南阳湖街11-61门比德文电动车),于洪区,沈阳市,123.321249,41.763612,比德文电动车(仙女河北路),辽宁省,15840089894;13940505741,比德文
2019-09-09,辽中区商业街52附近,辽中区,沈阳市,122.735117,41.515583,比德文电动车(辽中服务中心),辽宁省,024-87881792;18204028889,比德文
2019-09-09,昆山西路小白楼39号比德文电动车,皇姑区,沈阳市,123.392375,41.824084,比德文电动自行车,辽宁省,15904011908,比德文
2019-09-09,东五线与106省道交叉口西南100米,法库县,沈阳市,123.294184,42.451299,比德文电动车(东五线),辽宁省,15940546952;18948277758,比德文
2019-09-09,南京南街119-8号楼附近,和平区,沈阳市,123.391217,41.769315,比德文电动车(和平店),辽宁省,无,比德文
2019-09-09,迎宾路高架15号附近,于洪区,沈阳市,123.311206,41.801459,比德文电动车,辽宁省,无,比德文
2019-09-09,黄河南大街47号,皇姑区,沈阳市,123.421569,41.826208,比德文电动车专卖店,辽宁省,无,比德文
2019-09-09,S102(沈辽路),铁西区,沈阳市,123.254001,41.744552,比德文电动车,辽宁省,无,比德文
2019-09-09,北大营东路与沈铁路交叉口西南100米,大东区,沈阳市,123.490229,41.836386,比德文电动自行车,辽宁省,无,比德文
2019-09-09,天山路与珠江桥交叉口东北50米,皇姑区,沈阳市,123.402774,41.813798,比德文电动车(珠江桥店),辽宁省,无,比德文
2019-09-09,邓陈线与202国道交叉口东南100米,金州区,大连市,121.834674,39.461616,比德文电动车,辽宁省,无,比德文
2019-09-09,青堆镇201国道龙缘阁对面,庄河市,大连市,123.256646,39.828187,比德文电动车,辽宁省,无,比德文
2019-09-09,五一路一段与大宽街三段交叉口东北50米,瓦房店市,大连市,122.003382,39.618059,比德文电动车(大宽街三段),辽宁省,无,比德文
2019-09-09,铁山镇中鸦村盐北路252号,旅顺口区,大连市,121.186816,38.797384,电动车经销,辽宁省,13019485057,比德文
2019-09-09,旅顺北路552号附近,旅顺口区,大连市,121.271527,38.913500,比德文电动车,辽宁省,无,比德文
2019-09-09,钢城街与铁东二道街交叉口西南100米,铁东区,鞍山市,122.993952,41.119019,比德文电动车,辽宁省,无,比德文
2019-09-09,中街路与筢头街交叉口西南50米,海城市,鞍山市,122.750870,40.847129,比德文电动车(海城旗舰店),辽宁省,13464339989,比德文
2019-09-09,河南路东100米,海城市,鞍山市,122.699473,40.794470,比德文电动车专卖,辽宁省,无,比德文
2019-09-09,322省道南50米,海城市,鞍山市,122.556603,40.816971,比德文电动车,辽宁省,13464429531,比德文
2019-09-09,东方红路与站前路交叉口西南150米海城市人民法院牛庄人民法庭附近,海城市,鞍山市,122.524470,40.948949,王军车行,辽宁省,无,比德文
2019-09-09,黄金走廊59号楼附近,海城市,鞍山市,122.636977,40.853425,比德文电动车(黄金走廊),辽宁省,0412-3822582;13050013028,比德文
2019-09-09,保安街与大西门里街交叉口东南100米,海城市,鞍山市,122.824640,41.078373,比德文电动车,辽宁省,无,比德文
2019-09-09,南台镇邮局斜对过,海城市,鞍山市,122.806416,40.923839,比德文电动车(议文专卖店),辽宁省,无,比德文
2019-09-09,西柳镇动物园正门,海城市,鞍山市,122.636996,40.853518,捷马自行车(黄金走廊),辽宁省,0412-3822582,比德文
2019-09-09,站前路$沈营线,海城市,鞍山市,122.524377,40.949060,比德文电动车,辽宁省,无,比德文
2019-09-09,201国道(博鳌商务宾馆),桓仁满族自治县,本溪市,125.165939,41.181497,比德文电动车专卖店,辽宁省,无,比德文
2019-09-09,一洞桥街南50米,平山区,本溪市,123.756641,41.298511,比德文电动三轮车(一洞桥街店),辽宁省,13050282288,比德文
2019-09-09,宽甸镇西环路隆成家园22号楼,宽甸满族自治县,丹东市,124.778422,40.728402,比德文电动车,辽宁省,无,比德文
2019-09-09,209省道西50米,凌海市,锦州市,121.142469,41.213225,比德文电动车,辽宁省,无,比德文
2019-09-09,天宇手机大卖场东北(102国道北),北镇市,锦州市,121.961021,41.603936,比德文电动车(北镇中安店),辽宁省,无,比德文
2019-09-09,东街与鱼市胡同交叉口西南50米,义县,锦州市,121.246335,41.543103,比德文电动车(义县旗舰店),辽宁省,13898377646,比德文
2019-09-09,102国道与209省道交叉口西100米,太和区,锦州市,121.182306,41.044318,比德文电动车(大岭旗舰店),辽宁省,15724449993,比德文
2019-09-09,G102(京哈线),凌海市,锦州市,121.515967,41.263741,比德文电动车,辽宁省,无,比德文
2019-09-09,710县道东50米附近,义县,锦州市,121.458139,41.518296,比德文电动车,辽宁省,无,比德文
2019-09-09,滨城大道与辽南大街交叉口北100米,鲅鱼圈区,营口市,122.132672,40.183896,建国电动车商行,辽宁省,17090466646,比德文
2019-09-09,东城街道大清河桥北头,盖州市,营口市,122.367790,40.409170,比德文电动车(二部鸣禹电动车商行),辽宁省,无,比德文
2019-09-09,,盖州市,营口市,122.117200,40.095973,比德文电动三轮车,辽宁省,15009846840,比德文
2019-09-09,305国道西50米,盖州市,营口市,122.550478,40.146265,比德文电动三轮车,辽宁省,13050650571,比德文
2019-09-09,沈半线南50米,灯塔市,辽阳市,123.200203,41.478908,比德文电动三轮车(柳条店),辽宁省,无,比德文
2019-09-09,旭日路306号附近,盘山县,盘锦市,121.670855,41.180234,比德文电动车,辽宁省,无,比德文
2019-09-09,303省道南50米,开原市,铁岭市,123.851390,42.555294,比德文(庆云店),辽宁省,无,比德文
2019-09-09,老城镇陈家饭店对过,昌图县,铁岭市,123.996483,42.787925,比德文,辽宁省,无,比德文
2019-09-09,满四线东50米,昌图县,铁岭市,123.997865,42.935467,比德文电动车(满四线),辽宁省,无,比德文
2019-09-09,诸吴线与331省道交叉口东北150米,铁岭县,铁岭市,123.604747,42.129759,比德文电动车,辽宁省,无,比德文
2019-09-09,柴河街南段149号附近,银州区,铁岭市,123.822728,42.258957,比德文电动车专卖,辽宁省,无,比德文
2019-09-09,,昌图县,铁岭市,123.641483,42.757742,比德文电动三轮车,辽宁省,13464169724,比德文
2019-09-09,十两线附近,昌图县,铁岭市,123.676588,42.684691,比德文电动三轮车,辽宁省,13065235959,比德文
2019-09-09,昌盛路南50米,昌图县,铁岭市,124.110598,42.777930,比德文电动自行车,辽宁省,无,比德文
2019-09-09,文化路3-8号附近,龙城区,朝阳市,120.426777,41.574270,比德文,辽宁省,无,比德文
2019-09-09,朝大线西50米,朝阳县,朝阳市,120.048065,41.353927,比德文电动车(朝大线),辽宁省,无,比德文
2019-09-09,红旗街与西河路交叉口西南50米,建昌县,葫芦岛市,119.800143,40.816938,比德文电动车(建昌店),辽宁省,无,比德文
2019-09-09,前吕线附近,绥中县,葫芦岛市,120.105586,40.187422,比德文电动三轮车(前卫店),辽宁省,13050993555,比德文
2019-09-09,双朝线与西外环线交叉口西50米,双阳区,长春市,125.734735,43.307675,比德文电动车,吉林省,无,比德文
2019-09-09,榆树大街101附近,榆树市,长春市,126.562979,44.830436,比德文电动车(榆树大街),吉林省,无,比德文
2019-09-09,向阳街5号西北方向72米,桦甸市,吉林市,126.740082,42.966923,比德文电动车(金城路店),吉林省,无,比德文
2019-09-09,茂林镇站前路与四洮路交汇南行200米,双辽市,四平市,123.420572,43.969920,比德文电动车,吉林省,无,比德文
2019-09-09,东交大街340号附近,东辽县,辽源市,125.004606,42.922752,比德文电动车(东交大街辅路店),吉林省,13843750035,比德文
2019-09-09,柳河大街与069县道交叉口西南50米,柳河县,通化市,125.723272,42.273275,比德文电动车,吉林省,无,比德文
2019-09-09,中国移动海龙镇铁通指定专营店东,梅河口市,通化市,125.860112,42.652607,比德文电动三轮车(海龙专卖店),吉林省,无,比德文
2019-09-09,302国道西50米,前郭尔罗斯蒙古族自治县,松原市,124.471434,45.313049,比德文电动车(长山经销处),吉林省,无,比德文
2019-09-09,妇幼保健院南50米(光明北街西),洮南市,白城市,122.784752,45.343899,比德文电动车,吉林省,无,比德文
2019-09-09,建文街29号,平房区,哈尔滨市,126.634610,45.601649,比德文电动车直销部,黑龙江省,13703639918,比德文
2019-09-09,108乡道与302省道交叉口东100米,富拉尔基区,齐齐哈尔市,123.555654,47.228969,比德文电动车专卖(108乡道店),黑龙江省,无,比德文
2019-09-09,镇府街四合药店旁,龙江县,齐齐哈尔市,123.185526,47.330762,比德文电动车,黑龙江省,无,比德文
2019-09-09,新华路橡胶厂综合楼4门市(近北方摩托车商店),富拉尔基区,齐齐哈尔市,123.647140,47.206680,比德文电动车,黑龙江省,无,比德文
2019-09-09,东市场小区37号,建华区,齐齐哈尔市,123.969254,47.350532,比德文电动汽车齐齐哈尔专卖,黑龙江省,无,比德文
2019-09-09,凤翔镇二五金楼下,萝北县,鹤岗市,130.828163,47.575016,比德文电动车,黑龙江省,0468-6833555,比德文
2019-09-09,尚志路4-1,萝北县,鹤岗市,130.546218,47.434922,祥隆比德文电动车(萝北店),黑龙江省,15545904555,比德文
2019-09-09,同心街与邮政路交叉口东50米附近,林甸县,大庆市,124.881934,47.185314,比德文电动车,黑龙江省,13936935387,比德文
2019-09-09,乘风大街584-18安装公司站牌,让胡路区,大庆市,124.878764,46.565985,玉松比德文电动车,黑龙江省,无,比德文
2019-09-09,繁荣街88号,伊春区,伊春市,128.910781,47.728507,小鸟电动车,黑龙江省,0458-8858999,比德文
2019-09-09,哈肇路与胜利街交叉口东南150米,汤原县,佳木斯市,129.908590,46.732873,比德文电动车(胜利街店),黑龙江省,无,比德文
2019-09-09,志兴巷与长安西路交叉口西南50米,向阳区,佳木斯市,130.350618,46.807229,比德文电动车,黑龙江省,18946443559,比德文
2019-09-09,007乡道东郊殡仪馆旁,郊区,佳木斯市,130.457987,46.744266,比德文电动车,黑龙江省,15245495511,比德文
2019-09-09,新海路胜利街-华泰商城南门(海林市第一小学东北),海林市,牡丹江市,129.386081,44.571107,比德文电动车5c产品体验店,黑龙江省,无,比德文
2019-09-09,交通大街269号,孙吴县,黑河市,127.329346,49.425842,比德文电动车(东三路),黑龙江省,无,比德文
2019-09-09,中直大街北路178号,北林区,绥化市,126.987327,46.642620,比德文电动车智慧产品体验店(绥化店),黑龙江省,15184504088,比德文
2019-09-09,菏泽路7号(靠近菏泽路利津路交叉口),浦东新区,上海市,121.590326,31.273972,比德文电动车/小付车行,上海市,无,比德文
2019-09-09,双柏路与虹梅南路高架交叉口东北150米,闵行区,上海市,121.438197,31.089247,比德文电动车(曹行店),上海市,021-64972155,比德文
2019-09-09,朱家角祥凝浜路46号东大门,青浦区,上海市,121.066668,31.108654,比德文电动车(朱家角专卖店),上海市,13918178283,比德文
2019-09-09,中心路140号,金山区,上海市,121.238100,30.891307,比德文电动车(中心路店),上海市,无,比德文
2019-09-09,青峰路华骥苑(一区)(梦丹苑南100米),青浦区,上海市,121.132279,31.144727,比德文电动车,上海市,021-69730591;18918692491,比德文
2019-09-09,顾新路18号,宝山区,上海市,121.395973,31.348060,小余车行(顾村店),上海市,13671813658,比德文
2019-09-09,,松江区,上海市,121.259752,31.017064,比德文电动车,上海市,无,比德文
2019-09-09,永旺路280号附近,浦东新区,上海市,121.752933,30.973739,比德文电动车,上海市,无,比德文
2019-09-09,迎园中路494号附近,嘉定区,上海市,121.269138,31.384362,比德文电动车,上海市,无,比德文
2019-09-09,民春路227-229号附近,浦东新区,上海市,121.661935,31.274040,比德文电动车,上海市,无,比德文
2019-09-09,"新南街387号,乐家购物中心",松江区,上海市,121.314277,31.061758,比德文电动车,上海市,无,比德文
2019-09-09,安亭镇新源路923号,嘉定区,上海市,121.153157,31.300464,比德文电动车店,上海市,无,比德文
2019-09-09,康宁巷与茅亭路交叉口西100米,江宁区,南京市,118.860875,31.777664,比德文电动车,江苏省,无,比德文
2019-09-09,清水亭西路9号加油站对面,江宁区,南京市,118.826539,31.916604,比德文电动车,江苏省,13776556049,比德文
2019-09-09,中圣南街80号,浦口区,南京市,118.627333,32.054619,比德文(中圣南街店),江苏省,无,比德文
2019-09-09,古雄大厦西北50米(板桥街东),雨花台区,南京市,118.664680,31.919438,比德文电动车(宁谷路店),江苏省,无,比德文
2019-09-09,金桂苑(宁芜大道西),江宁区,南京市,118.550610,31.785664,严诚车业,江苏省,13913345276;13851633490,比德文
2019-09-09,悦民路28-9号附近,江宁区,南京市,118.923503,32.051297,比德文电动车(悦民路),江苏省,无,比德文
2019-09-09,东新南路220号附近,江宁区,南京市,118.853232,31.951958,比德文电动车,江苏省,无,比德文
2019-09-09,观金山路94号,江阴市,无锡市,120.342494,31.919636,比德文电动车(山观店),江苏省,13179443531,比德文
2019-09-09,蒲桥路128-1号,江阴市,无锡市,120.290078,31.904126,比德文电动车(蒲桥路店),江苏省,13915236859,比德文
2019-09-09,长寿云顾路283号,江阴市,无锡市,120.477782,31.747511,比德文电动车(长泾旗舰店),江苏省,无,比德文
2019-09-09,云顾路与永安路交叉口东北50米,江阴市,无锡市,120.378523,31.807916,比德文电动车(云顾路),江苏省,13337911215,比德文
2019-09-09,官湖镇白埠街,邳州市,徐州市,118.025587,34.476306,比德文电动车,江苏省,无,比德文
2019-09-09,现彩街与陶河街交叉口西50米,睢宁县,徐州市,117.958893,34.025421,比德文电动车,江苏省,无,比德文
2019-09-09,赵倪线北50米,邳州市,徐州市,117.843254,34.395065,比德文电动车,江苏省,无,比德文
2019-09-09,邱双线与324省道交叉口西南50米,睢宁县,徐州市,118.002090,33.902984,比德文电动车,江苏省,无,比德文
2019-09-09,炮陆线与炮陈线交叉口西50米,邳州市,徐州市,118.052678,34.337470,比德文电动车,江苏省,无,比德文
2019-09-09,商业街与253省道交叉口东50米,铜山区,徐州市,117.038672,34.439625,比德文电动车,江苏省,无,比德文
2019-09-09,王孚路与205县道交叉口南200米,沛县,徐州市,116.804950,34.903523,比德文电动车龙固专卖店,江苏省,无,比德文
2019-09-09,G2513淮徐高速早一点营养早餐旁,贾汪区,徐州市,117.319424,34.260144,比德文电动车,江苏省,无,比德文
2019-09-09,大屯镇郝寨医院路口南100米,沛县,徐州市,116.910200,34.794256,比德文电动车,江苏省,13913493761,比德文
2019-09-09,府前东街61号附近,睢宁县,徐州市,117.796228,33.767620,比德文电动车旗舰店,江苏省,18361707016,比德文
2019-09-09,中国农业银行,睢宁县,徐州市,117.961150,33.900057,比德文电动车5c产品体验店,江苏省,13921780727,比德文
2019-09-09,204县道西50米,睢宁县,徐州市,117.966877,33.828320,比德文电动车,江苏省,无,比德文
2019-09-09,王集镇敬一中学斜对面,睢宁县,徐州市,117.747307,33.996883,比德文电动车,江苏省,无,比德文
2019-09-09,柳新镇柳中线中口镇公交站西北,铜山区,徐州市,117.190639,34.367204,比德文电动车,江苏省,18115255164,比德文
2019-09-09,323省道北50米,铜山区,徐州市,117.613109,34.300312,比德文电动车,江苏省,无,比德文
2019-09-09,桃李路东50米,睢宁县,徐州市,117.783849,33.855231,比德文电动车,江苏省,无,比德文
2019-09-09,戴邢线附近,邳州市,徐州市,117.831915,34.565359,比德文电动车邢楼专卖店(金彭电动三轮车邢楼专卖店),江苏省,无,比德文
2019-09-09,古城路北50米,邳州市,徐州市,117.962298,34.468067,比德文电动车,江苏省,15162024906,比德文
2019-09-09,前委路中安市场南门,贾汪区,徐州市,117.444830,34.443286,比德文低碳交通馆(贾汪旗舰店),江苏省,无,比德文
2019-09-09,青山路与青年路交叉口西150米,邳州市,徐州市,117.764934,34.393001,比德文电动车,江苏省,无,比德文
2019-09-09,311国道草桥汽车客运站东100米,新沂市,徐州市,118.105612,34.337862,比德文电动车,江苏省,无,比德文
2019-09-09,凌城镇蔡凌线易得润生活广场南200米,睢宁县,徐州市,118.126770,33.820370,比德文电动车,江苏省,无,比德文
2019-09-09,瓦双线,新沂市,徐州市,118.169390,34.253530,比德文(堰头专卖店),江苏省,无,比德文
2019-09-09,马场湖西路徐州水处理研究所对面,鼓楼区,徐州市,117.178729,34.289969,比德文电动车(阳光军旅店),江苏省,无,比德文
2019-09-09,251省道西50米,邳州市,徐州市,117.756530,34.472490,比德文电动三轮车,江苏省,无,比德文
2019-09-09,瓦窑镇瓦双线顺发商城,新沂市,徐州市,118.236374,34.385471,比德文电动车,江苏省,无,比德文
2019-09-09,淮海路4号附近,邳州市,徐州市,117.863979,34.510096,比德文电动车,江苏省,无,比德文
2019-09-09,港头镇瓦双线港头中心幼儿园西300米,新沂市,徐州市,118.213039,34.318873,比德文电动车(港头专卖店),江苏省,13952286726,比德文
2019-09-09,南京路与步行街交叉口东南100米,新沂市,徐州市,118.351663,34.378010,比德文低碳交通馆(新沂旗舰店),江苏省,无,比德文
2019-09-09,邳铁线与310国道交叉口东200米,邳州市,徐州市,117.996648,34.528989,比德文电动二轮车(连防专卖店),江苏省,无,比德文
2019-09-09,沛城镇苏果超市东门(盛昊电动车),沛县,徐州市,116.936033,34.733123,比德文电动车(沛县店),江苏省,13952132999,比德文
2019-09-09,果中路与303县道交叉口东100米,邳州市,徐州市,118.044148,34.390499,比德文电动三轮车,江苏省,13395291389,比德文
2019-09-09,岔河镇淮海路016号,邳州市,徐州市,117.782592,34.303170,比德文电动车(碾庄专卖店),江苏省,无,比德文
2019-09-09,敬安镇紧鞍路敬安社区服务站北100米,沛县,徐州市,116.923979,34.495385,比德文电动车敬安春雷车行,江苏省,无,比德文
2019-09-09,天虹大道4号附近,睢宁县,徐州市,117.961917,33.899959,比德文电动车(睢宁店),江苏省,13921780727,比德文
2019-09-09,,铜山区,徐州市,117.162443,34.161873,比德文电动车,江苏省,无,比德文
2019-09-09,前委路中安市场南门,贾汪区,徐州市,117.444919,34.443370,比德文电动车(贾汪旗舰店),江苏省,无,比德文
2019-09-09,港炮线附近,邳州市,徐州市,118.101812,34.535473,比德文电动三轮车,江苏省,15195480532,比德文
2019-09-09,公园路39-2号附近,新沂市,徐州市,118.346916,34.375517,比德文电动三轮车,江苏省,无,比德文
2019-09-09,X203(双邵线),新沂市,徐州市,118.527649,34.310405,比德文电动自行车,江苏省,无,比德文
2019-09-09,德政路鸿雁美业专业烫染旁,邳州市,徐州市,117.938959,34.409559,比德文电动自行车,江苏省,无,比德文
2019-09-09,新华街与清凉路交叉口西南50米,睢宁县,徐州市,117.587073,34.038568,比德文电动自行车,江苏省,无,比德文
2019-09-09,206县道,邳州市,徐州市,117.986348,34.186897,比德文低碳交通馆(旗舰店),江苏省,18751643529,比德文
2019-09-09,人民中路与西园路交叉口南150米,武进区,常州市,119.925285,31.726550,比德文电动车,江苏省,无,比德文
2019-09-09,振兴西路与车站路交叉口西南50米,武进区,常州市,119.978234,31.517055,比德文电动车(凤凰电动车),江苏省,无,比德文
2019-09-09,,武进区,常州市,120.060983,31.713424,比德文电动车,江苏省,无,比德文
2019-09-09,S232(戚月路),武进区,常州市,120.096056,31.763063,比德文电动车,江苏省,无,比德文
2019-09-09,,武进区,常州市,119.894816,31.729109,比德文电动车,江苏省,无,比德文
2019-09-09,,新北区,常州市,119.927299,31.850212,比德文电动车,江苏省,无,比德文
2019-09-09,,钟楼区,常州市,119.941020,31.788663,比德文电动车,江苏省,无,比德文
2019-09-09,湖塘镇鸣凰武宜中路61号,武进区,常州市,119.935652,31.677737,比德文电动车,江苏省,13092555221;18136916887,比德文
2019-09-09,芙蓉大桥头501号,武进区,常州市,120.144537,31.754460,小海比德文电动车,江苏省,无,比德文
2019-09-09,开发区朝阳中路518号大润发内,昆山市,苏州市,120.968588,31.373174,比德文电动车,江苏省,无,比德文
2019-09-09,盛泽镇西环路钻石华庭北50米,吴江区,苏州市,120.642247,30.902408,比德文电动车,江苏省,无,比德文
2019-09-09,长江东路318号附近,张家港市,苏州市,120.491504,31.999491,比德文电动车,江苏省,无,比德文
2019-09-09,甪直镇甪胜路21号,吴中区,苏州市,120.821324,31.284920,比德文电动车(胜浦店),江苏省,无,比德文
2019-09-09,金港镇天福南路50号乙,张家港市,苏州市,120.414999,31.952624,比德文电动车,江苏省,0512-58332425;15962379379,比德文
2019-09-09,西环路1127号,吴江区,苏州市,120.643453,30.905287,比德文电动汽车专卖店,江苏省,无,比德文
2019-09-09,巴城镇中华路石牌卫生院,昆山市,苏州市,120.912259,31.500849,电动车行,江苏省,无,比德文
2019-09-09,栈泾东路南50米,昆山市,苏州市,121.089236,31.379355,比德文电动车5C产品体验店,江苏省,18796852998,比德文
2019-09-09,玉山镇环庆路1423号,昆山市,苏州市,120.933975,31.413147,比德文电动车(旗舰店),江苏省,无,比德文
2019-09-09,石牌南街天成丽景花园,昆山市,苏州市,120.907578,31.500551,比德文电动车(天成丽景花园店),江苏省,无,比德文
2019-09-09,人民路与西环路交叉口东100米,张家港市,苏州市,120.629002,31.814532,比德文电动车(东海华庭店),江苏省,13915692971,比德文
2019-09-09,君子亭东路中国农业银行东100米,昆山市,苏州市,120.859398,31.372261,比德文电动车(君子亭东路),江苏省,无,比德文
2019-09-09,兴浦街307号,昆山市,苏州市,121.055053,31.250285,金方车行,江苏省,13962446970,比德文
2019-09-09,浮桥镇乃德路纳威斯酒店红绿灯路口100米,太仓市,苏州市,121.218113,31.601114,比德文电动车,江苏省,15995588269,比德文
2019-09-09,西环路69号附近,昆山市,苏州市,121.076871,31.305707,比德文电动车,江苏省,无,比德文
2019-09-09,栈泾东路16号,昆山市,苏州市,121.089214,31.379268,比德文电动车(蓬朗店),江苏省,18796852998,比德文
2019-09-09,古城北路西50米,昆山市,苏州市,120.872017,31.453087,比德文电动车(古城北路店),江苏省,无,比德文
2019-09-09,浒浦浦江路71号,常熟市,苏州市,120.907209,31.745752,比德文电动车,江苏省,无,比德文
2019-09-09,王邓路,常熟市,苏州市,120.583687,31.686719,比德文电动车,江苏省,无,比德文
2019-09-09,青墩塘路200附近,常熟市,苏州市,120.801695,31.635190,比德文电动车,江苏省,无,比德文
2019-09-09,常兴路4区-30号东70米,常熟市,苏州市,120.743900,31.617450,比德文电动自行车,江苏省,无,比德文
2019-09-09,星晨路6号4-3-10号西南60米,常熟市,苏州市,120.934747,31.642350,欧派比德文电动车,江苏省,无,比德文
2019-09-09,庆爻路附近,通州区,南通市,121.155891,32.152599,比德文电动车,江苏省,无,比德文
2019-09-09,X214(搬石线),如皋市,南通市,120.480402,32.192509,比德文电动车,江苏省,13626293222,比德文
2019-09-09,丁堰镇鬼头街红绿灯向东688米,如皋市,南通市,120.696090,32.355622,比德文电动车,江苏省,18934517899,比德文
2019-09-09,振兴西路80号附近,海门市,南通市,121.102480,31.925037,比德文电动车天补旗舰店,江苏省,13101986400,比德文
2019-09-09,021县道与198乡道交叉口东南150米,如东县,南通市,121.293701,32.407627,比德文电动车,江苏省,无,比德文
2019-09-09,南凌村5组,如皋市,南通市,120.622334,32.442780,比德文电动车,江苏省,13584690372,比德文
2019-09-09,纬五路延伸线与龙丝路交叉口东北150米,如皋市,南通市,120.687212,32.139282,比德文电动车,江苏省,15262787394,比德文
2019-09-09,迎宾北路与203县道交叉口东100米,如东县,南通市,121.090364,32.448637,比德文电动车,江苏省,无,比德文
2019-09-09,018县道东50米,如东县,南通市,120.932976,32.484584,比德文电动车(洋口镇周新庄社区卫生服务站南),江苏省,无,比德文
2019-09-09,振兴路18号,如皋市,南通市,120.643418,32.405942,比德文电动车(东陈店),江苏省,13813782895,比德文
2019-09-09,314县道与Z01县道交叉口东100米,如皋市,南通市,120.621836,32.256423,比德文电动车(花园店),江苏省,15189441485,比德文
2019-09-09,208县道与336省道交叉口东南100米附近,如皋市,南通市,120.442504,32.120877,比德文电动车(高葛线),江苏省,无,比德文
2019-09-09,315县道南50米,海安市,南通市,120.596972,32.520309,比德文电动车(西场旗舰店),江苏省,无,比德文
2019-09-09,007乡道北100米,通州区,南通市,120.939912,32.105579,比德文电动车(阚家庵旗舰店),江苏省,无,比德文
2019-09-09,岔马线振河路东200米,如东县,南通市,120.953109,32.399400,比德文电动车,江苏省,无,比德文
2019-09-09,花果山北路西50米,海州区,连云港市,119.248675,34.649178,比德文,江苏省,无,比德文
2019-09-09,永富路北50米,海州区,连云港市,119.162514,34.590926,比德文电动车,江苏省,无,比德文
2019-09-09,人民路与城泰路交叉口西100米,赣榆区,连云港市,118.933211,34.881197,比德文电动车,江苏省,无,比德文
2019-09-09,八里欢路西50米,东海县,连云港市,118.927401,34.703640,黄川文龙烟酒,江苏省,18360662939;13815647529,比德文
2019-09-09,新安镇常州北路乔庄新村,灌南县,连云港市,119.329601,34.102548,比德文电动车(乔庄新村店),江苏省,无,比德文
2019-09-09,海陵东路116-1号东南50米,东海县,连云港市,118.785417,34.527779,比德文电动车,江苏省,无,比德文
2019-09-09,青年路56-14号,海州区,连云港市,119.177352,34.597849,比德文电动车,江苏省,15961309029;15252821888,比德文
2019-09-09,双拥路106号附近,东海县,连云港市,118.935879,34.576769,比德文电动车(大超电动车白塔总代理),江苏省,13401265998,比德文
2019-09-09,纬三路与经八路交叉口北100米,海州区,连云港市,119.122493,34.592660,比德文电动车,江苏省,15252821888,比德文
2019-09-09,中心路与镇西路交叉口东150米,海州区,连云港市,119.110996,34.641315,比德文电动车,江苏省,15861286719,比德文
2019-09-09,朝阳西路71-3号,海州区,连云港市,119.153818,34.588603,比德文电动车(朝阳麒麟专卖店),江苏省,0518-85028838,比德文
2019-09-09,产业大道106号附近,灌南县,连云港市,119.753349,34.354336,比德文电动车,江苏省,13655122695,比德文
2019-09-09,杨界线与长赵路交叉口东50米,灌云县,连云港市,119.452622,34.346008,比德文电动三轮车,江苏省,0518-88721258,比德文
2019-09-09,236省道附近,东海县,连云港市,118.640773,34.571837,比德文电动三轮车(双店专卖店),江苏省,0518-87829561,比德文
2019-09-09,达宁路与迎马泉路交叉口东南50米,东海县,连云港市,118.848508,34.453178,比德文电动三轮车(房山专卖店),江苏省,13675285019,比德文
2019-09-09,振兴北路,东海县,连云港市,118.749659,34.533592,比德文,江苏省,无,比德文
2019-09-09,洪金东路与洪金路交叉口东100米,金湖县,淮安市,119.035095,33.071903,比德文电动车,江苏省,无,比德文
2019-09-09,楚州大道139-3号,淮安区,淮安市,119.155710,33.505301,比德文电动车,江苏省,无,比德文
2019-09-09,楚州大道519-59号附近,淮安区,淮安市,119.154332,33.541191,苏腾比德文电动三轮车(楚州总经销),江苏省,15380667715;15952303287,比德文
2019-09-09,兴冈西路37附近,建湖县,盐城市,120.021314,33.534096,比德文电动车,江苏省,无,比德文
2019-09-09,伯森路253附近,射阳县,盐城市,120.036865,33.717654,比德文电动车5C产品体验店,江苏省,无,比德文
2019-09-09,大港线与307县道交叉口西北100米,大丰区,盐城市,120.638625,32.987374,比德文电动车(大桥店),江苏省,无,比德文
2019-09-09,润海路29号附近,盐都区,盐城市,120.196146,33.285128,比德文电动车(柏润花园店),江苏省,无,比德文
2019-09-09,弘文路与朝阳东路交叉口西北50米,盐都区,盐城市,119.980495,33.252094,比德文电动车,江苏省,18021809188,比德文
2019-09-09,北林路与黄山路交叉口西南150米,亭湖区,盐城市,120.204916,33.398849,比德文电动车,江苏省,15298556706,比德文
2019-09-09,花园北路春天家纺旁,亭湖区,盐城市,120.267754,33.256337,比德文电动车长旺车业,江苏省,13236290999,比德文
2019-09-09,北庄线与226省道交叉口西北50米,射阳县,盐城市,120.229348,33.712120,比德文电动车,江苏省,无,比德文
2019-09-09,达阳路6-13号,射阳县,盐城市,120.255999,33.762107,比德文电动车(达阳路),江苏省,无,比德文
2019-09-09,益林公兴镇公兴派出所附近,阜宁县,盐城市,119.692015,33.554764,比德文电动车,江苏省,无,比德文
2019-09-09,曙光大道西150米,亭湖区,盐城市,120.246655,33.445328,比德文电动车(南洋店),江苏省,无,比德文
2019-09-09,四包路,东台市,盐城市,120.464687,32.847572,比德文电动车,江苏省,15151090868,比德文
2019-09-09,尧舜路尧舜路8号23幢附近,盐都区,盐城市,120.156642,33.340743,比德文电动车(新区店),江苏省,无,比德文
2019-09-09,近湖镇向阳路73号,建湖县,盐城市,119.797306,33.473316,比德文电动车(向阳东路店),江苏省,13770205609,比德文
2019-09-09,毓龙街道黄海中路53号鼎盛王朝大酒店比德文电动车,亭湖区,盐城市,120.138502,33.395000,比德文电动车黄海路旗舰店,江苏省,17352300999,比德文
2019-09-09,斗沙线,亭湖区,盐城市,120.352892,33.354445,比德文电动车(三龙村店),江苏省,无,比德文
2019-09-09,中兴路与302县道交叉口西南50米,盐都区,盐城市,119.915286,33.341716,比德文电动车孙二车业,江苏省,无,比德文
2019-09-09,南新河商业街兴业路168号,亭湖区,盐城市,120.181167,33.356731,比德文电动车(商业街店),江苏省,13770028091,比德文
2019-09-09,府前路16号附近,射阳县,盐城市,120.113160,33.543171,比德文电动车(长荡店),江苏省,无,比德文
2019-09-09,盐读路与解放路交界路北向西350米恒荣世家小区南门良友车业,盐都区,盐城市,120.167569,33.329779,比德文电动车,江苏省,13515135360,比德文
2019-09-09,东仓路105号附近,盐都区,盐城市,120.105856,33.392782,比德文电动车(东仓路店),江苏省,无,比德文
2019-09-09,省属灌东盐场化工路,滨海县,盐城市,120.241588,34.108079,比德文电动车,江苏省,无,比德文
2019-09-09,盐海路193附近,亭湖区,盐城市,120.369419,33.476595,比德文(盐东店),江苏省,无,比德文
2019-09-09,城南新区(文港南路高成金水湾花园综合楼111号),亭湖区,盐城市,120.176298,33.368292,比德文电动车(文港路),江苏省,无,比德文
2019-09-09,惠民路与知青南路交叉口东南150米,射阳县,盐城市,120.092298,33.652236,比德文电动车,江苏省,13813215226,比德文
2019-09-09,兴建西路与太平路交叉口南100米,建湖县,盐城市,119.782719,33.472131,比德文电动车,江苏省,无,比德文
2019-09-09,近湖镇建宝路与明珠西路交叉口西南100米,建湖县,盐城市,119.778485,33.488073,比德文电动车,江苏省,15851147561,比德文
2019-09-09,南洋镇新民商业街富康路59号,亭湖区,盐城市,120.179395,33.404490,比德文电动车杰文车业门市部,江苏省,15371105222,比德文
2019-09-09,人民西路98号西南方向173米,盐都区,盐城市,119.920670,33.258591,比德文电动车,江苏省,无,比德文
2019-09-09,五汛镇东花园,滨海县,盐城市,120.104009,33.949762,比德文电动车专卖店,江苏省,无,比德文
2019-09-09,西溪商业街,东台市,盐城市,120.287420,32.837015,比德文电动车,江苏省,无,比德文
2019-09-09,斗沙线盐都区通榆河堤防所西南300米,亭湖区,盐城市,120.247079,33.302170,比德文电动车,江苏省,无,比德文
2019-09-09,渠星路与黄海路交叉口东南50米,射阳县,盐城市,120.249133,34.082384,比德文电动车(淮海农场专卖店),江苏省,13962042153,比德文
2019-09-09,三仓镇华联超市对面,东台市,盐城市,120.677835,32.765179,比德文电动车,江苏省,13222325156,比德文
2019-09-09,盘湾镇人民东路22号,射阳县,盐城市,120.203608,33.539641,比德文,江苏省,无,比德文
2019-09-09,盐特线北50米,亭湖区,盐城市,120.156613,33.463848,比德文电动车(青墩店),江苏省,无,比德文
2019-09-09,永新公路与406乡道交叉口东南200米,亭湖区,盐城市,120.082814,33.447736,比德文电动车(新兴店),江苏省,18936312089,比德文
2019-09-09,冠华东路1333号附近,建湖县,盐城市,119.827242,33.469278,比德文电动车(杨庄社区卫生服务站西北),江苏省,13770210038,比德文
2019-09-09,东台镇范公南路217号,东台市,盐城市,120.333247,32.842945,比德文电动汽车(东台店),江苏省,13655112969,比德文
2019-09-09,卧龙路与开元路交叉口西南50米,盐都区,盐城市,120.111506,33.187917,比德文电动车,江苏省,无,比德文
2019-09-09,荣阳驾校西50米(射黄线北),射阳县,盐城市,120.306335,33.744500,比德文电动车,江苏省,15151052823,比德文
2019-09-09,人民北路177号童家沟菜场向北路西,亭湖区,盐城市,120.109570,33.411797,比德文电动车,江苏省,无,比德文
2019-09-09,人民东街2号,阜宁县,盐城市,119.917826,33.766185,比德文电动车(吴滩店),江苏省,13770177140,比德文
2019-09-09,常新南路与育红路交叉口西100米,大丰区,盐城市,120.448413,33.192523,比德文电动车(育红路店),江苏省,18961951984,比德文
2019-09-09,园林路与镇中路交叉口南50米,盐都区,盐城市,120.137154,33.336096,比德文电动车(潘黄店),江苏省,0515-89895678;13515130004,比德文
2019-09-09,华茂大街与通榆路交叉口东南50米,阜宁县,盐城市,119.835381,33.746173,比德文电动车,江苏省,13651570992,比德文
2019-09-09,刘庄镇三圩村爱民医院旁,大丰区,盐城市,120.264430,33.168268,比德文电动车,江苏省,无,比德文
2019-09-09,双龙路12号附近,大丰区,盐城市,120.394753,33.103453,比德文电动车(大龙店),江苏省,18761213139,比德文
2019-09-09,园海路与方大线交叉口东南50米,大丰区,盐城市,120.479090,33.035735,比德文电动车旗舰店(小海店),江苏省,13770287578,比德文
2019-09-09,通庆路87号附近,大丰区,盐城市,120.596490,33.128047,比德文电动车(通商店),江苏省,0515-83332837,比德文
2019-09-09,通榆中路4104号大丰区白驹第二初级中学附近,大丰区,盐城市,120.392713,33.000155,比德文电动车(洋心洼店),江苏省,无,比德文
2019-09-09,特庸镇码中街7号,射阳县,盐城市,120.263684,33.509190,比德文电动车(特庸店),江苏省,13151366988,比德文
2019-09-09,汇文东路789号-108室,建湖县,盐城市,119.818347,33.460781,比德文电动车,江苏省,无,比德文
2019-09-09,致富路与226省道交叉口北150米,射阳县,盐城市,120.234403,33.873985,比德文电动车,江苏省,0515-82572162;13912558013,比德文
2019-09-09,陈家港镇307路122号,响水县,盐城市,119.817247,34.381791,比德文电动车,江苏省,15195194444,比德文
2019-09-09,新洋路与弶富线交叉口东,东台市,盐城市,120.753122,32.637016,比德文电动车,江苏省,0515-85762626;13401251668,比德文
2019-09-09,建阳镇丰西路50米,建湖县,盐城市,119.749991,33.492761,比德文电动车(建阳镇人民代表大会西),江苏省,15950301790,比德文
2019-09-09,人民路与文化路交汇处附近,建湖县,盐城市,119.657040,33.350901,大付比德文爱玛电动车,江苏省,15061668687,比德文
2019-09-09,芦沟镇裴刘学校旁,建湖县,盐城市,119.867526,33.359022,比德文电动车,江苏省,13390690386;18796543199,比德文
2019-09-09,新风路132号附近,盐都区,盐城市,119.824071,33.278139,比德文电动车,江苏省,18071635880,比德文
2019-09-09,文昌路116号,盐都区,盐城市,119.824116,33.278136,王二车业,江苏省,0515-88652833;13962001896,比德文
2019-09-09,步凤镇步强路103号,亭湖区,盐城市,120.304302,33.333892,比德文电动车(步凤店),江苏省,13626211466,比德文
2019-09-09,县经济开发区合德镇中心村村部一楼,射阳县,盐城市,120.204618,33.786010,比德文电动车(李五专卖),江苏省,0515-82345709,比德文
2019-09-09,建华中路与建华西路交叉口北50米,射阳县,盐城市,120.064108,33.885255,比德文三轮电动车(四明店),江苏省,0515-82556868;13914610580,比德文
2019-09-09,时堰镇三里东路13号,东台市,盐城市,120.189682,32.722391,比德文电动车(时堰三洋专卖店),江苏省,无,比德文
2019-09-09,迎宾大道北50米,亭湖区,盐城市,120.238442,33.435026,比德文电动车(南洋店),江苏省,无,比德文
2019-09-09,府前西路25号附近,东台市,盐城市,120.533573,32.781522,比德文电动车,江苏省,13016537660,比德文
2019-09-09,纬二路南100米,东台市,盐城市,120.311656,32.882497,比德文电动车,江苏省,13770293828,比德文
2019-09-09,宝塔镇人民路131号,建湖县,盐城市,119.812368,33.622069,比德文电动车,江苏省,13912536932,比德文
2019-09-09,沟墩镇人民北路14号,阜宁县,盐城市,119.892533,33.675759,比德文电动车,江苏省,13914658209,比德文
2019-09-09,向阳西路22号附近,阜宁县,盐城市,119.785856,33.789117,比德文电动车,江苏省,0515-87217634,比德文
2019-09-09,304县道北50米,响水县,盐城市,119.803480,34.115080,比德文电动车,江苏省,18912598939,比德文
2019-09-09,前进路188号附近,东台市,盐城市,120.850429,32.736972,比德文电动车(弶港专卖店),江苏省,15949105232,比德文
2019-09-09,坎振线附近,滨海县,盐城市,119.967970,34.034614,比德文电动三轮车,江苏省,无,比德文
2019-09-09,模范线附近,射阳县,盐城市,120.310294,33.744583,比德文电动自行车,江苏省,无,比德文
2019-09-09,226省道与302县道交叉口西50米,射阳县,盐城市,120.243367,33.941296,比德文电动三轮车(三区店),江苏省,15312866541,比德文
2019-09-09,朴树湾路126号,仪征市,扬州市,119.316300,32.291829,比德文电动车朴席专卖店,江苏省,13952716611,比德文
2019-09-09,振兴路77号,江都区,扬州市,119.793845,32.537459,比德文电动车(郭村专卖店),江苏省,13585253868,比德文
2019-09-09,大高公路北150米,江都区,扬州市,119.776270,32.395246,比德文电动车(昌松专卖店),江苏省,13151120891,比德文
2019-09-09,大桥镇336省道北(富乐大酒店东),江都区,扬州市,119.713148,32.371674,比徳文电动车,江苏省,13625209985,比德文
2019-09-09,嘶昌公路与长江公路交叉口东北50米,江都区,扬州市,119.777640,32.342377,比德文电动车(江都嘶马专卖店),江苏省,无,比德文
2019-09-09,X202(嘶华线),江都区,扬州市,119.794320,32.531154,比德文电动汽车(郭村专卖店),江苏省,无,比德文
2019-09-09,人民中路61号附近,江都区,扬州市,119.612022,32.513138,比德文,江苏省,无,比德文
2019-09-09,司徒镇西环路38号精艺缘车行金箭电动车,丹阳市,镇江市,119.557012,31.994018,比德文电动车,江苏省,无,比德文
2019-09-09,访仙镇金昌路,丹阳市,镇江市,119.738140,32.000626,比德文电动车(访仙专卖店),江苏省,无,比德文
2019-09-09,泰九路12号北90米,海陵区,泰州市,119.896218,32.483374,比德文电动车,江苏省,13641582731,比德文
2019-09-09,鲍九路2000-27号附近,海陵区,泰州市,119.888518,32.477340,比德文电动车,江苏省,无,比德文
2019-09-09,泰州大道140号附近,海陵区,泰州市,119.897923,32.407838,比德文电动车(寺巷店),江苏省,无,比德文
2019-09-09,张后路与通姜路交叉口西北50米,姜堰区,泰州市,120.050454,32.404023,比德文电动车,江苏省,无,比德文
2019-09-09,姜官东路与姜官路交叉口南100米,姜堰区,泰州市,120.153944,32.542542,比德文电动车官庄专卖店,江苏省,无,比德文
2019-09-09,永新路22号附近,高港区,泰州市,119.924250,32.236184,比德文电动车,江苏省,无,比德文
2019-09-09,鹏程路附近,姜堰区,泰州市,119.866053,32.604748,比德文电动车,江苏省,无,比德文
2019-09-09,G328(宁海线),海陵区,泰州市,119.823392,32.483046,比德文电动车,江苏省,无,比德文
2019-09-09,人民路263号,兴化市,泰州市,120.129424,32.723688,比德文电动车,江苏省,13376019513,比德文
2019-09-09,腾飞路41号附近,海陵区,泰州市,119.861874,32.540827,比德文电动车,江苏省,18994600446,比德文
2019-09-09,金诚街与锦尚铭苑商业街交叉口西北50米,姜堰区,泰州市,120.052083,32.406293,比德文电动车(张甸中心村卫生室东北),江苏省,无,比德文
2019-09-09,大伦镇兴伦路转盘向东100米,姜堰区,泰州市,120.247389,32.433268,比德文电动车(大伦专卖店),江苏省,无,比德文
2019-09-09,梁徐镇梁徐大道梁徐中心小学西150米,姜堰区,泰州市,120.122891,32.468920,比德文电动车,江苏省,13775675025,比德文
2019-09-09,中心大道与商务街交叉口西南150米,姜堰区,泰州市,120.094180,32.506203,比德文电动车,江苏省,15152966121,比德文
2019-09-09,大张线北50米,姜堰区,泰州市,120.210996,32.430104,比德文电动车,江苏省,13016714988,比德文
2019-09-09,206县道与302县道交叉口东北100米,泰兴市,泰州市,120.109784,32.334435,比德文电动车(新街店),江苏省,无,比德文
2019-09-09,振兴路与跃进北路交叉口南50米,泰兴市,泰州市,120.272903,32.310691,比德文电动车(横垛专卖),江苏省,15052876589,比德文
2019-09-09,分界镇中心小学东,泰兴市,泰州市,120.330730,32.272835,比德文电动车(分界专卖店),江苏省,无,比德文
2019-09-09,308县道北50米,泰兴市,泰州市,120.165755,32.099999,比德文电动车,江苏省,无,比德文
2019-09-09,振兴南路155号,高港区,泰州市,119.912920,32.289802,比德文电动车(田河专卖店),江苏省,15996008307,比德文
2019-09-09,建设路142号,兴化市,泰州市,119.842888,32.937557,比德文电动车(兴化专卖店),江苏省,无,比德文
2019-09-09,202县道附近,海陵区,泰州市,119.961682,32.442436,比德文电动车(202县道),江苏省,无,比德文
2019-09-09,,高港区,泰州市,119.881664,32.308899,比德文电动车,江苏省,无,比德文
2019-09-09,振兴大道,高港区,泰州市,119.912459,32.350139,金箭电动车许庄专卖,江苏省,无,比德文
2019-09-09,天一东路27附近,宿城区,宿迁市,118.243793,33.813313,比德文电动自行车,江苏省,无,比德文
2019-09-09,万家科技星城向西50米,泗阳县,宿迁市,118.683210,33.728157,比德文电动车,江苏省,无,比德文
2019-09-09,发展路与216乡道交叉口西南50米,泗洪县,宿迁市,118.261818,33.377206,比德文电动车,江苏省,18951065449,比德文
2019-09-09,宿蔡路8号东南80米,宿城区,宿迁市,118.168000,33.973650,比德文电动车,江苏省,无,比德文
2019-09-09,南果路南50米,宿城区,宿迁市,118.344069,33.790192,比德文电动车,江苏省,无,比德文
2019-09-09,001乡道西50米,宿城区,宿迁市,118.405368,33.704460,比德文电动车,江苏省,15261234130,比德文
2019-09-09,扎下镇街道中心小学西100米,沭阳县,宿迁市,118.740763,34.167993,金彭电动三轮车(扎下专卖店),江苏省,18360091777,比德文
2019-09-09,宿泗路146号附近,宿豫区,宿迁市,118.501510,33.899233,比德文电动车,江苏省,无,比德文
2019-09-09,南范路与231乡道交叉口北50米,宿城区,宿迁市,118.314273,33.841168,比德文电动车车行,江苏省,15996728769,比德文
2019-09-09,沭城街道光荣路信安家园北大门向东,沭阳县,宿迁市,118.773249,34.125450,比德文电动车,江苏省,无,比德文
2019-09-09,105县道与324省道交叉口东北150米,沭阳县,宿迁市,118.845856,34.192760,比德文电动车(龙庙店),江苏省,18251520733,比德文
2019-09-09,三三路与235国道交叉口南150米,宿城区,宿迁市,118.265880,33.871758,比德文电动车,江苏省,18251507172,比德文
2019-09-09,扎下镇沙西路顺丰快递西南50米,沭阳县,宿迁市,118.740973,34.169994,比德文电动车(扎下店),江苏省,18360091777,比德文
2019-09-09,十章公路与程圩路交叉口东100米,沭阳县,宿迁市,118.806678,34.063512,比德文电动车,江苏省,15151112580,比德文
2019-09-09,宿人民路与健康路交叉口西南150米,宿城区,宿迁市,118.243776,33.813249,比德文电动车埠子特约经销商,江苏省,15151154776,比德文
2019-09-09,人民东路44号,沭阳县,宿迁市,118.785138,34.126149,比德文电动车(沭阳店),江苏省,18261072918,比德文
2019-09-09,,宿豫区,宿迁市,118.345928,33.970205,比德文电动车,江苏省,无,比德文
2019-09-09,晓井线,宿豫区,宿迁市,118.368299,34.029793,比德文电动车,江苏省,无,比德文
2019-09-09,黄河路,泗阳县,宿迁市,118.742086,33.718416,比德文电动车,江苏省,13327857665,比德文
2019-09-09,杭州西路150号附近,沭阳县,宿迁市,118.777816,34.099485,比德文电动车,江苏省,无,比德文
2019-09-09,中共沭阳县张圩乡委员会(人民路北),沭阳县,宿迁市,118.997828,33.936291,比德文电动三轮车(张圩店),江苏省,13773944279,比德文
2019-09-09,东冠路726号附近,滨江区,杭州市,120.151235,30.159728,比德文电动车(浦沿街分店),浙江省,15868445435,比德文
2019-09-09,滨兴小区117号,滨江区,杭州市,120.200079,30.193333,比德文电动车,浙江省,13083996926,比德文
2019-09-09,滨兴路,滨江区,杭州市,120.223375,30.195211,东伟车行,浙江省,18458119355,比德文
2019-09-09,新街镇长山街工人路417号,萧山区,杭州市,120.298899,30.187829,比德文电动车(长山店),浙江省,13750825992,比德文
2019-09-09,浴美路与119县道交叉口西50米,萧山区,杭州市,120.258000,30.041026,比德文电动车(杭州萧山临浦店),浙江省,无,比德文
2019-09-09,高桥路219-225号,萧山区,杭州市,120.272218,30.152765,比德文电动车(杭州萧山高桥店),浙江省,18258403077,比德文
2019-09-09,丹枫路缤纷小区北苑48号农贸菜场对面,滨江区,杭州市,120.222593,30.217300,比德文电动车专卖维修电动车,浙江省,15068184229,比德文
2019-09-09,新街镇长山街工人路417号,萧山区,杭州市,120.298934,30.187769,皖K车行(长山店),浙江省,13750825992,比德文
2019-09-09,千岛湖镇环湖北路104号,淳安县,杭州市,119.062167,29.606494,比德文电动车(智慧产品体验店),浙江省,13968104660,比德文
2019-09-09,所前镇缪家桥东17号,萧山区,杭州市,120.284882,30.114107,比德文电动车(杭州萧山所前店),浙江省,无,比德文
2019-09-09,人民路21-1号附近,萧山区,杭州市,120.260331,30.160131,比德文电动车,浙江省,无,比德文
2019-09-09,秋韵苑2栋,拱墅区,杭州市,120.211451,30.360893,比德文电动车,浙江省,无,比德文
2019-09-09,三头村凌桥218号茶亭伤科医院向东20米,萧山区,杭州市,120.192587,30.010762,比德文电动车,浙江省,无,比德文
2019-09-09,靖江路288号附近,萧山区,杭州市,120.468981,30.229366,比德文电动自行车,浙江省,无,比德文
2019-09-09,迎春小区83号商铺,滨江区,杭州市,120.222463,30.195202,比德文电动车商行,浙江省,无,比德文
2019-09-09,兴岛南路与海港路交叉口西北50米,北仑区,宁波市,121.965712,29.900461,比德文电动车,浙江省,13028996987,比德文
2019-09-09,后所北街与乐成线交叉口西北50米,乐清市,温州市,120.979142,28.120213,比德文电动车,浙江省,13868747243,比德文
2019-09-09,汉帛路与环镇东路交叉口西南100米,海宁市,嘉兴市,120.458655,30.438611,比德文电动车,浙江省,无,比德文
2019-09-09,园区路92号附近,桐乡市,嘉兴市,120.450525,30.621605,比德文电动车,浙江省,无,比德文
2019-09-09,龙泉街道高富路63号比德文电动车,吴兴区,湖州市,120.118661,30.876834,比德文电动车,浙江省,无,比德文
2019-09-09,上峰路291号,诸暨市,绍兴市,120.160737,29.895285,比德文电动自行车,浙江省,无,比德文
2019-09-09,丰惠镇丰三路鸿运家园(丰惠镇中学西南),上虞区,绍兴市,120.975145,29.951501,比德文电动车,浙江省,无,比德文
2019-09-09,兴越路949号附近,柯桥区,绍兴市,120.514780,30.081031,比德文电动车(绍兴柯桥店),浙江省,17757560729,比德文
2019-09-09,阳光路143号,新昌县,绍兴市,120.911570,29.499726,比德文电动车(智慧产品体验店),浙江省,无,比德文
2019-09-09,解放南路1648号附近,越城区,绍兴市,120.578831,29.964781,比德文(城南动感体验店),浙江省,13625854536,比德文
2019-09-09,,上虞区,绍兴市,120.819714,30.086999,比德文电动车,浙江省,无,比德文
2019-09-09,小金龙幼儿园西(金山东路东),永康市,金华市,120.098857,28.900718,比德文电动车(永康专卖店),浙江省,15088231364,比德文
2019-09-09,205国道东50米,常山县,衢州市,118.437663,28.947496,比德文电动车,浙江省,无,比德文
2019-09-09,东海西路75号,普陀区,舟山市,122.273038,29.945897,比德文电动车,浙江省,无,比德文
2019-09-09,杜鹃路与柏叶西路交叉口西南50米,临海市,台州市,121.147018,28.850731,比德文电动车(智慧产品体验店),浙江省,无,比德文
2019-09-09,腊花路,庐阳区,合肥市,117.236405,31.897683,比德文电动车,安徽省,无,比德文
2019-09-09,水岸星城小区斜对面,鸠江区,芜湖市,118.443667,31.335068,比德文电动车,安徽省,无,比德文
2019-09-09,082县道南50米,南陵县,芜湖市,118.463919,30.975086,比德文电动车,安徽省,无,比德文
2019-09-09,汀棠公共服务中心源丰装饰城,镜湖区,芜湖市,118.374748,31.364840,比德文专卖店,安徽省,无,比德文
2019-09-09,041县道北50米,繁昌县,芜湖市,118.176240,31.188410,比德文电动车,安徽省,无,比德文
2019-09-09,横山中街与041县道交叉口北200米,繁昌县,芜湖市,118.185751,31.188981,小徐车行,安徽省,无,比德文
2019-09-09,清水镇清联路106号,鸠江区,芜湖市,118.488158,31.316294,比德文电动车(清水烟草管理所东南),安徽省,无,比德文
2019-09-09,鸠兹家苑157栋,鸠江区,芜湖市,118.404892,31.372855,比德文电动车小黄车行,安徽省,15922306486,比德文
2019-09-09,公路街181号元兴车行,三山区,芜湖市,118.231021,31.228778,比德文电动车,安徽省,无,比德文
2019-09-09,南阳路172号附近,鸠江区,芜湖市,118.407304,31.404156,比德文电动车,安徽省,无,比德文
2019-09-09,安康路与香缘路交叉口东南200米,鸠江区,芜湖市,118.234826,31.458592,比德文电动车(沈巷卫生院西南),安徽省,18355340588,比德文
2019-09-09,华山路与大桥新城商业街交叉口北50米,鸠江区,芜湖市,118.410875,31.466261,比德文(芜湖大桥镇店),安徽省,18755322688,比德文
2019-09-09,银湖中路50-8号,镜湖区,芜湖市,118.375183,31.352046,比德文电动车(芜湖店),安徽省,13956213369,比德文
2019-09-09,南翔中路170号,南陵县,芜湖市,118.347716,30.925609,小文车行(南陵专卖店),安徽省,13955322294,比德文
2019-09-09,光彩大市场三区一栋41-43号,蚌山区,蚌埠市,117.355298,32.917975,比德文电动车,安徽省,无,比德文
2019-09-09,中国邮政储蓄银行(魏庄镇委西北),怀远县,蚌埠市,117.236709,33.099337,比德文电动车(魏庄旗舰店),安徽省,无,比德文
2019-09-09,046县道西150米,怀远县,蚌埠市,116.874710,33.100758,比德文电动车(龙亢店),安徽省,无,比德文
2019-09-09,049县道,怀远县,蚌埠市,116.987938,32.945018,比德文电动车专卖店,安徽省,13505629662,比德文
2019-09-09,306省道五河县沫河口镇政府东南150米,淮上区,蚌埠市,117.548014,32.989908,比德文电动三轮车,安徽省,无,比德文
2019-09-09,043县道西50米,怀远县,蚌埠市,116.917791,33.249692,比德文电动车,安徽省,无,比德文
2019-09-09,石湖宾馆西100米(304省道北),固镇县,蚌埠市,117.430486,33.309705,比德文电动车,安徽省,18955266065,比德文
2019-09-09,禹王步行街854号附近,怀远县,蚌埠市,117.192969,32.959088,比德文电动车(怀远店),安徽省,0552-8591999;13505620749,比德文
2019-09-09,017县道与304省道交叉口西150米,固镇县,蚌埠市,117.483834,33.251695,比德文电动车,安徽省,无,比德文
2019-09-09,东风路与谷阳路交叉口南150米,固镇县,蚌埠市,117.324381,33.318043,比德文电动车(固镇店),安徽省,13695559600,比德文
2019-09-09,禹都大道乡村大酒店旁,怀远县,蚌埠市,117.208941,32.970106,比德文电动车(怀远店),安徽省,无,比德文
2019-09-09,禹王西路五妹酒店旁边,怀远县,蚌埠市,117.175331,32.966951,比德文电动三轮车,安徽省,13505620749,比德文
2019-09-09,225省道南50米,怀远县,蚌埠市,116.921857,32.863578,比德文电动三轮车(唐集镇中心卫生院东南),安徽省,无,比德文
2019-09-09,州来路与淮滨东路交叉口东北100米,凤台县,淮南市,116.719573,32.711990,比德文电动车,安徽省,无,比德文
2019-09-09,大顺路与紫金路交叉口东南100米,寿县,淮南市,116.805612,32.558883,比德文电动车,安徽省,无,比德文
2019-09-09,203省道西50米,寿县,淮南市,116.788207,32.504498,比德文(九龙专卖店),安徽省,无,比德文
2019-09-09,006乡道与310省道交叉口东北150米,寿县,淮南市,116.701978,32.490164,淮海车辆(双桥专卖店),安徽省,无,比德文
2019-09-09,窑口,寿县,淮南市,116.791749,32.450704,窑口比德文电动车,安徽省,13516456546,比德文
2019-09-09,083乡道与085乡道交叉口东南50米,凤台县,淮南市,116.668658,32.705685,比德文电动车,安徽省,无,比德文
2019-09-09,凤城大道西200米,凤台县,淮南市,116.660456,32.734233,比德文电动车齐冬名车馆,安徽省,15255406962,比德文
2019-09-09,夏集红绿灯南20米,凤台县,淮南市,116.552876,32.652918,夏集比德文电动车,安徽省,13855410303,比德文
2019-09-09,长江路与黄山路交叉口南50米,潘集区,淮南市,116.811682,32.785108,比德文电动自行车,安徽省,无,比德文
2019-09-09,寿蔡路与寿春路交叉口(老丁字路口)东行150米,寿县,淮南市,116.785900,32.566259,比德文电动车(寿县店),安徽省,13905646610,比德文
2019-09-09,017乡道与310省道交叉口北200米,寿县,淮南市,116.532969,32.474569,比德文电动车,安徽省,无,比德文
2019-09-09,卧龙山路南50米,谢家集区,淮南市,116.856444,32.593440,比德文电动三轮车(淮南旗舰店),安徽省,13955437487,比德文
2019-09-09,毛集镇004乡道西50米,凤台县,淮南市,116.673557,32.630379,比德文电动车(董岗专卖店),安徽省,0554-8231210,比德文
2019-09-09,州来路与淮滨东路交叉口南150米,凤台县,淮南市,116.719448,32.710316,比德文电动车(凤台店),安徽省,无,比德文
2019-09-09,寿蔡路北50米,寿县,淮南市,116.785821,32.566280,比德文电动车5C产品体验店(寿县店),安徽省,无,比德文
2019-09-09,,寿县,淮南市,116.870333,32.357063,比德文电动车,安徽省,无,比德文
2019-09-09,020县道南50米,寿县,淮南市,116.792224,32.383293,比德文电动三轮车,安徽省,无,比德文
2019-09-09,寿春路东50米,寿县,淮南市,116.784377,32.561065,比德文电动三轮车,安徽省,无,比德文
2019-09-09,清溪西街,含山县,马鞍山市,117.994605,31.654244,比德文电动车,安徽省,无,比德文
2019-09-09,新合路与新沙路交叉口南50米,博望区,马鞍山市,118.802124,31.556316,比德文,安徽省,无,比德文
2019-09-09,华阳东路与望梅路交叉口东南100米,含山县,马鞍山市,118.112649,31.725602,比德文电动车,安徽省,无,比德文
2019-09-09,丹阳镇河东路,博望区,马鞍山市,118.725818,31.625881,比德文电动车(河东路店),安徽省,无,比德文
2019-09-09,南大街19号木材加工处,雨山区,马鞍山市,118.533565,31.599632,比德文电动车,安徽省,无,比德文
2019-09-09,黄池镇附近,当涂县,马鞍山市,118.605097,31.301681,比德文电动车,安徽省,18755531999,比德文
2019-09-09,华阳东路与望梅路交叉口东南50米,含山县,马鞍山市,118.112274,31.725893,比德文电动车5C产品体验店,安徽省,无,比德文
2019-09-09,南环路南50米,博望区,马鞍山市,118.853685,31.559975,比德文电动车,安徽省,无,比德文
2019-09-09,012县道与020县道交叉口东50米,濉溪县,淮北市,116.695426,33.916553,比德文电动车,安徽省,无,比德文
2019-09-09,南坪镇,濉溪县,淮北市,116.873114,33.492473,比德文电动车,安徽省,无,比德文
2019-09-09,城隍庙街与林浍路交叉口南200米,濉溪县,淮北市,116.553000,33.684424,比德文电动车(临涣专卖店),安徽省,13965855192,比德文
2019-09-09,连城东路24号附近,枞阳县,铜陵市,117.243233,30.709497,枞阳县比德文电动车专卖店,安徽省,无,比德文
2019-09-09,029县道客运站南行50米,枞阳县,铜陵市,117.354813,30.872249,比德文电动车专卖店,安徽省,无,比德文
2019-09-09,228省道东50米,枞阳县,铜陵市,117.257543,30.825559,比德文电动车(会宫店),安徽省,无,比德文
2019-09-09,下枞阳长江路86号,枞阳县,铜陵市,117.246468,30.696641,比德文电动车,安徽省,13805564549,比德文
2019-09-09,稼先路10号,怀宁县,安庆市,116.836503,30.725679,比德文电动车(稼先路店),安徽省,无,比德文
2019-09-09,006县道南50米,桐城市,安庆市,116.773510,30.841332,比德文专卖店,安徽省,13696625710,比德文
2019-09-09,古塔路与皖国路交叉口东南50米,潜山市,安庆市,116.568312,30.650380,比德文电动车,安徽省,13865182793,比德文
2019-09-09,041县道东50米,潜山市,安庆市,116.493127,30.477631,比德文电动车,安徽省,无,比德文
2019-09-09,经二路与黄梅路交叉口东南150米,怀宁县,安庆市,116.843259,30.734539,比德文电动车(怀宁专卖),安徽省,无,比德文
2019-09-09,杨桥比德文专卖店,桐城市,安庆市,117.006302,31.104449,比德文电动车(桐城店),安徽省,13956559060,比德文
2019-09-09,建设西路127-1号,岳西县,安庆市,116.344857,30.847371,比德文电动车(岳西县农机安全监理所西),安徽省,无,比德文
2019-09-09,华阳镇雷阳路327号,望江县,安庆市,116.692265,30.130121,比德文电动车,安徽省,无,比德文
2019-09-09,206国道东50米,桐城市,安庆市,117.030262,31.177721,比德文电动车(卅铺卫生院南),安徽省,13855688610,比德文
2019-09-09,006县道北100米,桐城市,安庆市,116.771117,30.842731,青草比德文电动车,安徽省,无,比德文
2019-09-09,新园东路114号附近,屯溪区,黄山市,118.332149,29.714637,比德文电动自行车,安徽省,无,比德文
2019-09-09,太平西路与府东路交叉口西100米,黄山区,黄山市,118.135135,30.296108,比德文低碳交通馆电动自行车,安徽省,18955919610,比德文
2019-09-09,岩寺镇永佳大道468号,徽州区,黄山市,118.344538,29.819438,比德文电动车(小西天路),安徽省,18755938388,比德文
2019-09-09,324省道印象徽州32幢1003号,歙县,黄山市,118.430205,29.861492,比德文电动车(歙县店),安徽省,15056692631,比德文
2019-09-09,231省道西50米,祁门县,黄山市,117.355337,29.866711,小熊车行,安徽省,无,比德文
2019-09-09,碧阳镇翼然中路63号,黟县,黄山市,117.941889,29.920560,比德文电动车(黟县店),安徽省,0559-5521071,比德文
2019-09-09,文峰南路建工大厦1楼,祁门县,黄山市,117.714557,29.848471,比德文电动车(祁门县税务局征收管理所南),安徽省,无,比德文
2019-09-09,延安路74-9号附近,屯溪区,黄山市,118.307218,29.709357,比德文电动自行车,安徽省,无,比德文
2019-09-09,001县道与009县道交叉口东150米,南谯区,滁州市,118.306934,32.489604,比德文电动车,安徽省,无,比德文
2019-09-09,丰乐大道2160附近,南谯区,滁州市,118.308841,32.249587,比德文,安徽省,无,比德文
2019-09-09,东城路汽车站北侧劲风摩配,定远县,滁州市,117.687915,32.525550,比德文电动车(定远店),安徽省,15855032168,比德文
2019-09-09,迎宾东路69号附近,定远县,滁州市,117.240316,32.548342,比德文电动车,安徽省,0550-4342995,比德文
2019-09-09,襄河镇街心花园吴敬梓路,全椒县,滁州市,118.273421,32.096562,比德文,安徽省,无,比德文
2019-09-09,幸福东路天裕国际名城12号商西13,琅琊区,滁州市,118.310010,32.302966,比德文低碳交通馆(天长西路店),安徽省,15855032168,比德文
2019-09-09,开发区花山西路72号,南谯区,滁州市,118.260679,32.425156,比德文电动车,安徽省,13637046566,比德文
2019-09-09,梅园路美缔电动三轮车西100米,定远县,滁州市,117.695504,32.532198,比德文电动车,安徽省,无,比德文
2019-09-09,新安镇清流市场旁,来安县,滁州市,118.431346,32.449942,比德文电动车,安徽省,无,比德文
2019-09-09,龙山东路341号附近,南谯区,滁州市,118.342925,32.261338,比德文电动自行车,安徽省,无,比德文
2019-09-09,龙蟠街道文昌路124号比德文电动车,南谯区,滁州市,118.322739,32.255760,比德文电动自行车,安徽省,无,比德文
2019-09-09,068县道西50米,定远县,滁州市,117.333098,32.614679,能仁比德文电动车,安徽省,无,比德文
2019-09-09,阜王路华联大厦南50米路西,颍州区,阜阳市,115.811372,32.888740,比德文电动车,安徽省,13855804024,比德文
2019-09-09,纬三路富源不锈钢铁艺南30米,颍州区,阜阳市,115.860119,32.859993,比德文电动车,安徽省,15755869356,比德文
2019-09-09,瓦店镇,临泉县,阜阳市,115.090196,32.954353,比德文专卖店,安徽省,无,比德文
2019-09-09,061县道东150米,阜南县,阜阳市,115.398707,32.584375,比德文(方集专卖店),安徽省,无,比德文
2019-09-09,国泰路与105国道交叉口西南100米,太和县,阜阳市,115.612948,33.158293,比德文电动车(太和友好医院南),安徽省,无,比德文
2019-09-09,纬四路与经二路交叉口东南200米,颍州区,阜阳市,115.850448,32.862426,比德文电动车专卖店,安徽省,无,比德文
2019-09-09,国泰北路与007县道交叉口东北50米,太和县,阜阳市,115.602181,33.210878,比德文电动车(国泰北路),安徽省,无,比德文
2019-09-09,古城镇,颍上县,阜阳市,116.284503,32.782392,比德文电动车,安徽省,无,比德文
2019-09-09,建设路十字路口西比德文专卖店,太和县,阜阳市,115.622938,33.175520,比德文电动车(太和店),安徽省,13655652223,比德文
2019-09-09,中州路与迎祥街交叉口东北150米,界首市,阜阳市,115.353825,33.259717,比德文电动车(界首店),安徽省,13956790848,比德文
2019-09-09,102省道附近,临泉县,阜阳市,115.197836,33.068202,比德文电动车,安徽省,0558-6552249,比德文
2019-09-09,中心西路282号,颍上县,阜阳市,116.256687,32.632385,比德文电动自行车,安徽省,15555876811,比德文
2019-09-09,环城路西50米,临泉县,阜阳市,115.276089,33.050178,比德文电动车,安徽省,无,比德文
2019-09-09,,阜南县,阜阳市,115.570186,32.746272,比德文电动三轮车,安徽省,无,比德文
2019-09-09,065县道东50米,临泉县,阜阳市,115.197044,33.014191,比德文电动三轮车,安徽省,无,比德文
2019-09-09,328省道西50米,临泉县,阜阳市,115.447405,32.717458,比德文电动三轮车,安徽省,无,比德文
2019-09-09,059县道西50米,阜南县,阜阳市,115.569713,32.461883,比德文电动三轮车,安徽省,13956725627,比德文
2019-09-09,025县道南50米,颍东区,阜阳市,115.976170,32.919367,比德文电动三轮车,安徽省,4001500177;13866224470,比德文
2019-09-09,007县道与012县道交叉口东北50米,太和县,阜阳市,115.483185,33.308214,比德文电动三轮车,安徽省,15556366387,比德文
2019-09-09,,颍州区,阜阳市,115.546212,32.925919,比德文电动三轮车,安徽省,15856802832,比德文
2019-09-09,城关镇城东卫生院斜对面,太和县,阜阳市,115.631689,33.164509,比德文电动自行车,安徽省,无,比德文
2019-09-09,文庙商城C区1-25,泗县,宿州市,117.884992,33.480132,泗县比德文电动车,安徽省,15391872188;18056272727,比德文
2019-09-09,310国道北100米,砀山县,宿州市,116.410513,34.417736,比德文电动车,安徽省,无,比德文
2019-09-09,010县道南150米,砀山县,宿州市,116.572244,34.339629,比德文电动车,安徽省,无,比德文
2019-09-09,符离镇(原大邮电局对面),埇桥区,宿州市,116.982979,33.755722,比德文电动车符离专卖店,安徽省,无,比德文
2019-09-09,海信专卖店西北(010县道东),砀山县,宿州市,116.591178,34.383691,比德文电动车,安徽省,无,比德文
2019-09-09,008县道西50米,砀山县,宿州市,116.484787,34.396073,比德文电动二轮车李庄专卖店(欧派电动车),安徽省,无,比德文
2019-09-09,008县道西50米,砀山县,宿州市,116.484787,34.396073,比德文电动三轮车李庄专卖店(欧派电动车),安徽省,13955760959,比德文
2019-09-09,104国道东200米,泗县,宿州市,117.879002,33.703517,比德文电动车,安徽省,无,比德文
2019-09-09,027乡道与057县道交叉口西南200米,灵璧县,宿州市,117.561530,33.389468,陆洪标比德文电动车专卖,安徽省,无,比德文
2019-09-09,038县道西50米,埇桥区,宿州市,116.982361,33.758684,比德文电动车,安徽省,无,比德文
2019-09-09,砀城镇道北中路民族学校西150米,砀山县,宿州市,116.348240,34.418674,比德文(砀山体验店),安徽省,无,比德文
2019-09-09,,泗县,宿州市,118.016481,33.731839,比德文电动车,安徽省,无,比德文
2019-09-09,,泗县,宿州市,118.098813,33.691493,比德文电动车,安徽省,无,比德文
2019-09-09,,灵璧县,宿州市,117.649370,33.714578,比德文电动车,安徽省,无,比德文
2019-09-09,西昌南路1068号,埇桥区,宿州市,116.973653,33.635888,比德文电动三轮车,安徽省,0557-3708688;13955785079,比德文
2019-09-09,046县道与058县道交叉口北200米,灵璧县,宿州市,117.581043,33.462798,比德文电动三轮车,安徽省,18298083028,比德文
2019-09-09,078乡道西50米,泗县,宿州市,117.977647,33.413244,比德文电动三轮车,安徽省,15856225360,比德文
2019-09-09,031县道南150米,埇桥区,宿州市,117.170184,33.884884,比德文电动三轮车,安徽省,15556250084,比德文
2019-09-09,005乡道北50米,灵璧县,宿州市,117.702676,33.830513,比德文电动三轮车,安徽省,13721270991,比德文
2019-09-09,039县道与158乡道交叉口西150米,霍邱县,六安市,115.997406,32.508372,比德文电动车,安徽省,无,比德文
2019-09-09,310省道南50米,霍邱县,六安市,116.317296,32.375530,比德文电动车,安徽省,无,比德文
2019-09-09,上院小区11号楼修摩托车电动车处,裕安区,六安市,116.499464,31.769873,比德文电动车(光明路),安徽省,13084047003,比德文
2019-09-09,310省道东50米,霍邱县,六安市,116.142310,32.010304,比德文电动车专卖,安徽省,无,比德文
2019-09-09,312国道南50米,金安区,六安市,116.567464,31.752318,比德文电动车,安徽省,无,比德文
2019-09-09,城南皖西大市场21栋,裕安区,六安市,116.477519,31.712757,比德文店,安徽省,无,比德文
2019-09-09,光明大道166号,霍邱县,六安市,116.276710,32.339539,比德文电动车,安徽省,18052189580;15856466394;18052189520,比德文
2019-09-09,125乡道与310省道交叉口北100米,霍邱县,六安市,116.262402,32.291008,比德文电动车,安徽省,15955426567,比德文
2019-09-09,金太阳国际汽车城,金安区,六安市,116.527737,31.751983,比德文电动车,安徽省,18905641151,比德文
2019-09-09,星源北路东100米,涡阳县,亳州市,116.172229,33.520010,比德文电动车,安徽省,无,比德文
2019-09-09,034县道北50米,蒙城县,亳州市,116.428649,33.037808,比德文电动车,安徽省,无,比德文
2019-09-09,129乡道南50米,利辛县,亳州市,116.114957,33.018179,比德文电动车,安徽省,无,比德文
2019-09-09,034县道南50米,蒙城县,亳州市,116.486814,33.169293,比德文电动车,安徽省,13856785236,比德文
2019-09-09,101乡道与202省道交叉口东200米,涡阳县,亳州市,116.422323,33.706915,比德文电动车,安徽省,无,比德文
2019-09-09,120乡道南200米,利辛县,亳州市,116.271235,32.917873,比德文电动车,安徽省,13515684440,比德文
2019-09-09,漆园办事处牛群商贸城,蒙城县,亳州市,116.563176,33.250985,比德文电动车,安徽省,无,比德文
2019-09-09,向阳路与青年路交叉口东南50米,利辛县,亳州市,116.198945,33.140505,比德文电动车(向阳路店),安徽省,无,比德文
2019-09-09,119乡道与203省道交叉口西北150米,蒙城县,亳州市,116.600905,32.954555,比德文电动三轮车(楚村镇卫生院常兴分院东),安徽省,无,比德文
2019-09-09,038县道南100米,蒙城县,亳州市,116.699910,33.327041,比德文电动三轮车(板桥专卖),安徽省,15556723556,比德文
2019-09-09,观港花园,贵池区,池州市,117.616469,30.749578,比德文电动车,安徽省,无,比德文
2019-09-09,S215(广宜路),广德市,宣城市,119.526317,31.025074,比德文电动车,安徽省,13195342285,比德文
2019-09-09,073县道东150米,泾县,宣城市,118.556087,30.713650,比德文电动车(蔡村店),安徽省,15357534363;18098540859,比德文
2019-09-09,太极大道272号,广德市,宣城市,119.420734,30.896586,比德文电动车5C产品体验店,安徽省,0563-6059588,比德文
2019-09-09,桃州镇东关街东门宝塔向东一百米,广德市,宣城市,119.425602,30.891978,比德文电动车(东关街店),安徽省,无,比德文
2019-09-09,041县道与215省道交叉口西南150米,广德市,宣城市,119.509705,30.964298,比德文电动车(彭村专卖),安徽省,无,比德文
2019-09-09,太极大道272号,广德市,宣城市,119.420714,30.896431,比德文电动车(县农行住宅小区西北),安徽省,0563-6059588,比德文
2019-09-09,桃州镇开发区南塘新村旁,广德市,宣城市,119.454107,30.888704,比德文电动车,安徽省,15256307712,比德文
2019-09-09,状元北路213、215号,宣州区,宣城市,118.754606,30.951173,比德文电动车(宣城店),安徽省,0563-3398877;13305635859,比德文
2019-09-09,幕桥路与泾川大道交叉口东南50米,泾县,宣城市,118.420538,30.695159,比德文电动自行车,安徽省,无,比德文
2019-09-09,水岸御景1号14号,连江县,福州市,119.531298,26.212812,比德文电动车店,福建省,无,比德文
2019-09-09,妈祖前街与罗川中路交叉口西南50米,罗源县,福州市,119.557044,26.486482,比德文电动车,福建省,0591-38191019,比德文
2019-09-09,,福清市,福州市,119.521561,25.526869,比德文电动车,福建省,无,比德文
2019-09-09,福马路418之43-44附近,晋安区,福州市,119.336372,26.074691,比德文电动车,福建省,13317768677,比德文
2019-09-09,青口镇新城路戴斯酒店对面,闽侯县,福州市,119.375107,25.897357,比德文电动车,福建省,无,比德文
2019-09-09,马尾镇创新路36号双协佳园,马尾区,福州市,119.400351,26.024271,比德文,福建省,15806082456,比德文
2019-09-09,六一中路263号,台江区,福州市,119.320338,26.063977,比德文电动车旗舰店,福建省,无,比德文
2019-09-09,厦禾路508号101,思明区,厦门市,118.090474,24.462309,比德文电动车(厦禾路店),福建省,无,比德文
2019-09-09,高林村黄厝社106号,湖里区,厦门市,118.180769,24.510414,比德文电动车,福建省,无,比德文
2019-09-09,洪何线南50米,思明区,厦门市,118.167086,24.481475,比德文电动车,福建省,13376984109,比德文
2019-09-09,仙岳路4670-105号附近,湖里区,厦门市,118.172174,24.498638,比德文,福建省,无,比德文
2019-09-09,枋湖北二路828号-之3东北80米,湖里区,厦门市,118.154507,24.522719,比德文电动车,福建省,无,比德文
2019-09-09,翁角路新埯公交站东100米(悦实广场北),海沧区,厦门市,117.999932,24.520213,比德文电动车(新垵专卖店),福建省,13871322550,比德文
2019-09-09,前村埔路中国联通斜对面,思明区,厦门市,118.183876,24.479265,比德文电动车(岭兜专卖店),福建省,13696957323,比德文
2019-09-09,环城北路与街仔路交叉口东50米,同安区,厦门市,118.154101,24.736800,比德文电动车(街仔路店),福建省,0592-7100630,比德文
2019-09-09,西头社95号,湖里区,厦门市,118.187010,24.512231,比德文电动车(田头专卖店),福建省,13959233224,比德文
2019-09-09,江头街道双浦路71号,湖里区,厦门市,118.141129,24.493459,比德文(双浦路),福建省,13003905630,比德文
2019-09-09,新度镇厝柄村厝柄市场,荔城区,莆田市,119.051018,25.391119,比德文电动车行,福建省,无,比德文
2019-09-09,福昌路与茂盛路交叉口东南100米,南安市,泉州市,118.371271,25.009850,比德文电动车,福建省,无,比德文
2019-09-09,宋塘路91号,石狮市,泉州市,118.664637,24.742544,比德文电动车总代理,福建省,18250600587,比德文
2019-09-09,山城镇嘉盛路1-7号店面,南靖县,漳州市,117.372103,24.518496,比德文电动车,福建省,无,比德文
2019-09-09,九龙大道南50米,龙文区,漳州市,117.714762,24.533109,比德文电动车,福建省,无,比德文
2019-09-09,胜利西路东50米,芗城区,漳州市,117.630710,24.518435,比德文电动车,福建省,无,比德文
2019-09-09,东南商贸城东区13幢1层,芗城区,漳州市,117.671852,24.511492,比德文电动车(芗城店),福建省,0596-2931865;13605085555,比德文
2019-09-09,东南商贸城13幢1层,芗城区,漳州市,117.672554,24.512467,比德文电动车(丹霞路),福建省,0596-2931865,比德文
2019-09-09,南诏镇南仕路113号,诏安县,漳州市,117.188410,23.699810,比德文电动车,福建省,无,比德文
2019-09-09,人和北路与人和南路交叉口东200米,长泰县,漳州市,117.748872,24.619895,比德文电动车(长泰专卖店),福建省,13960095025,比德文
2019-09-09,蕉芗路,芗城区,漳州市,117.567402,24.586304,比德文电动车,福建省,无,比德文
2019-09-09,兴泰西路,长泰县,漳州市,117.788567,24.622558,比德文电动车,福建省,无,比德文
2019-09-09,宝城路42号附近,云霄县,漳州市,117.333847,23.949883,比德文电动车,福建省,无,比德文
2019-09-09,镇前路259号附近,龙海市,漳州市,117.916184,24.367540,比德文电动车,福建省,无,比德文
2019-09-09,绥安镇朝阳路256号,漳浦县,漳州市,117.626502,24.120190,比德文电动车,福建省,无,比德文
2019-09-09,漳华东路,龙文区,漳州市,117.730521,24.512417,比德文,福建省,无,比德文
2019-09-09,武林路83号,光泽县,南平市,117.327583,27.542192,比德文电动车店,福建省,无,比德文
2019-09-09,武夷大道242号,武夷山市,南平市,118.033114,27.749494,比德文电动车,福建省,无,比德文
2019-09-09,解放路348号,建瓯市,南平市,118.321396,27.032764,比德文电动车(通济街道社区卫生服务中心南),福建省,15029977387;13774636975,比德文
2019-09-09,曹溪中路22号,新罗区,龙岩市,117.027560,25.063500,比德文电动车(志辉车业),福建省,13859586741,比德文
2019-09-09,西安南路33号-2楼,新罗区,龙岩市,117.026608,25.087846,比德文电动车(龙岩店),福建省,13313923652,比德文
2019-09-09,北环西路554附近,上杭县,龙岩市,116.413299,25.053838,比德文电动车,福建省,无,比德文
2019-09-09,鳌阳镇解放街229-1号,寿宁县,宁德市,119.501695,27.453323,比德文电动车店,福建省,无,比德文
2019-09-09,河沿路天安小区48号,霞浦县,宁德市,120.012704,26.885564,比德文电动车(霞浦店),福建省,13859622673,比德文
2019-09-09,穆阳镇风情街9栋9隔壁,福安市,宁德市,119.540515,27.052755,比德文电动车,福建省,无,比德文
2019-09-09,三江南路与302省道交叉口西南50米,福安市,宁德市,119.670164,26.971543,比德文电动车(罗江店),福建省,18959431899,比德文
2019-09-09,,蕉城区,宁德市,119.522958,26.656688,比德文电动车,福建省,无,比德文
2019-09-09,G104(虹桥北路),福安市,宁德市,119.681489,26.965080,比德文电动自行车,福建省,无,比德文
2019-09-09,龙津镇人民路潦河上海湾,安义县,南昌市,115.548947,28.839880,比德文(安义旗舰店),江西省,无,比德文
2019-09-09,广场北路517号附近,珠山区,景德镇市,117.217768,29.310943,比德文电动车(梨树园店),江西省,无,比德文
2019-09-09,新村中路35号,珠山区,景德镇市,117.216033,29.303940,比德文专卖,江西省,无,比德文
2019-09-09,广兴西路与桃源路交叉口西南100米,莲花县,萍乡市,113.946826,27.129806,比德文电动车,江西省,无,比德文
2019-09-09,光明路西200米,上栗县,萍乡市,113.906130,27.705244,比德文电动车,江西省,无,比德文
2019-09-09,湘荷南路西50米,湘东区,萍乡市,113.722714,27.653649,比德文(湘东专卖),江西省,无,比德文
2019-09-09,163县道东50米,芦溪县,萍乡市,114.123775,27.692283,比德文电动车,江西省,无,比德文
2019-09-09,平安北路83附近,上栗县,萍乡市,113.797374,27.881583,比德文电动车(上栗专卖店),江西省,15979209630,比德文
2019-09-09,豫宁大道国税局(武宁广播电视台南50米),武宁县,九江市,115.107002,29.259982,比德文电动车,江西省,无,比德文
2019-09-09,濂溪区慧龙新城(德化路南),濂溪区,九江市,115.985328,29.685066,比德文(德化路),江西省,无,比德文
2019-09-09,城北社区阳光地中海北峰路102号,共青城市,九江市,115.809147,29.250317,比德文电动车,江西省,13207025182,比德文
2019-09-09,秀峰大道269附近,庐山市,九江市,116.027680,29.463871,比德文电动车(星子县旗舰店),江西省,无,比德文
2019-09-09,262县道与S20彭湖高速交叉口西北100米,湖口县,九江市,116.389136,29.745843,比德文电动车大垅乡旗舰店,江西省,无,比德文
2019-09-09,仁义路21号,修水县,九江市,114.105732,28.955485,比德文电动车,江西省,18379266606,比德文
2019-09-09,272县道北50米,修水县,九江市,114.446570,29.106600,比德文电动车(上杭分店),江西省,18179225089,比德文
2019-09-09,劳动北路与观府西路交叉口西50米,渝水区,新余市,114.870640,27.881008,比德文电动车,江西省,无,比德文
2019-09-09,龙潭洲路东50米,渝水区,新余市,114.952171,27.831259,比德文电动车(龙潭洲专卖店),江西省,18979039825,比德文
2019-09-09,三角线,月湖区,鹰潭市,117.040387,28.234758,鹰潭比德文电动车旗舰店,江西省,无,比德文
2019-09-09,238省道西150米,南康区,赣州市,114.729967,25.755665,比德文电动车旗舰店,江西省,15970867185,比德文
2019-09-09,圆山路与滨江路交叉口东南100米,全南县,赣州市,114.543883,24.746804,比德文电动车,江西省,13870746291,比德文
2019-09-09,琴江镇西华北路石城中学北100米,石城县,赣州市,116.350406,26.339219,比德文电动车,江西省,13766353540,比德文
2019-09-09,章源大道840号,崇义县,赣州市,114.305014,25.690460,比德文电动车(农贸路),江西省,13766336159,比德文
2019-09-09,永安大道与771乡道交叉口西200米附近,安福县,吉安市,114.405577,27.133635,比德文,江西省,无,比德文
2019-09-09,吉阳路与龙华北大道交叉口西北150米,吉水县,吉安市,115.136675,27.225593,比德文低碳交通馆,江西省,15807966699,比德文
2019-09-09,下街与川江路交叉口南50米,遂川县,吉安市,114.521339,26.319703,比德文电动车,江西省,13755485337,比德文
2019-09-09,恩江大道39号-1号,永丰县,吉安市,115.434291,27.314806,比德文电动车,江西省,13879690140,比德文
2019-09-09,冯川镇龙山北大道318号,奉新县,宜春市,115.381232,28.703540,比德文电动车5C产品体验店,江西省,13879581112,比德文
2019-09-09,大桥街道药市路9号,樟树市,宜春市,115.535620,28.054211,比德文电动汽车(樟树店),江西省,无,比德文
2019-09-09,扬公路与杨公路交叉口南150米,樟树市,宜春市,115.398071,28.001106,比德文电动车,江西省,无,比德文
2019-09-09,536县道南50米,奉新县,宜春市,115.340252,28.622411,比德文电动车专卖(二部),江西省,无,比德文
2019-09-09,建昌镇九鼎商贸城,南城县,抚州市,116.645556,27.563803,比德文电动车,江西省,无,比德文
2019-09-09,建材市场圆盘旁,崇仁县,抚州市,116.069423,27.763728,比德文电动车(崇仁专卖),江西省,无,比德文
2019-09-09,光明路15号附近,广丰区,上饶市,118.188082,28.439475,比德文电动自行车,江西省,无,比德文
2019-09-09,人民大道与迎宾大道交叉口东北50米,横峰县,上饶市,117.607504,28.404354,比德文电动车,江西省,无,比德文
2019-09-09,203省道西50米,横峰县,上饶市,117.606339,28.466798,比德文电动车,江西省,无,比德文
2019-09-09,人民大道与虹桥东路交叉口东南50米,横峰县,上饶市,117.608549,28.410893,比德文电动车,江西省,15170397039,比德文
2019-09-09,广信区广信区桐花段东50米,广信区,上饶市,118.092614,28.291734,比德文电动车,江西省,无,比德文
2019-09-09,709县道北50米,余干县,上饶市,116.588796,28.629181,比德文电动车,江西省,无,比德文
2019-09-09,206国道与336乡道交叉口西南50米,万年县,上饶市,117.002486,28.834327,比德文电动车(老人桥专卖店),江西省,无,比德文
2019-09-09,698县道西50米,鄱阳县,上饶市,116.698926,29.072915,比德文电动车专卖,江西省,无,比德文
2019-09-09,715县道与716县道交叉口西150米,万年县,上饶市,116.867023,28.848735,比德文电动车(梓埠专卖店),江西省,无,比德文
2019-09-09,干越大道161号,余干县,上饶市,116.697262,28.685060,比德文电动车(余干县中西医结合医院西北),江西省,18970327036,比德文
2019-09-09,芝阳路128号正东方向64米,鄱阳县,上饶市,116.676270,28.998105,比德文电动车(鄱阳县卫生局东),江西省,15946881309,比德文
2019-09-09,茶香路,婺源县,上饶市,117.862936,29.257571,比德文电动车,江西省,18279364555,比德文
2019-09-09,335乡道与709县道交叉口西北200米,万年县,上饶市,116.813396,28.885033,安琪儿比德文电动车,江西省,无,比德文
2019-09-09,丰源路与丰茂路交叉口东北50米,济阳区,济南市,117.372113,37.162871,比德文电动车,山东省,无,比德文
2019-09-09,烈士山北路北50米,历城区,济南市,117.159761,36.709459,比德文电动车,山东省,无,比德文
2019-09-09,024乡道与258县道交叉口西北50米,商河县,济南市,117.337301,37.380069,比德文电动车,山东省,无,比德文
2019-09-09,明堂街与芙蓉大道交叉口西北100米,章丘区,济南市,117.522394,36.671873,比德文,山东省,无,比德文
2019-09-09,龙泉路东50米,历城区,济南市,117.296540,36.801739,比德文电动车(唐王店),山东省,无,比德文
2019-09-09,港西路神武小区17-1-1601,历城区,济南市,117.228723,36.654450,比德文电动车(神武店),山东省,18764187808,比德文
2019-09-09,鲁宏大道中段实验二中北门往西一百米路北,章丘区,济南市,117.538935,36.699706,比德文电动车,山东省,无,比德文
2019-09-09,北外环路与双泉路交叉口东150米,钢城区,济南市,117.810224,36.124567,比德文电动车,山东省,无,比德文
2019-09-09,华山珑城A109号,历城区,济南市,117.064331,36.737923,比德文电动自行车(华山珑城店),山东省,无,比德文
2019-09-09,潘王路5610号附近,章丘区,济南市,117.428548,36.678190,比德文电动车,山东省,无,比德文
2019-09-09,龙海路182号附近,济阳区,济南市,117.181198,36.966749,比德文电动车,山东省,无,比德文
2019-09-09,四号路东50米,章丘区,济南市,117.382277,36.690430,比德文电动车,山东省,无,比德文
2019-09-09,北外环路与205国道交叉口东北200米,钢城区,济南市,117.775097,36.127020,比德文电动车,山东省,13616342343,比德文
2019-09-09,北园大街11号附近,历城区,济南市,117.060637,36.701434,比德文电动车(全福店),山东省,0531-88607221,比德文
2019-09-09,吐丝口东路与吐丝口西路交叉口西100米,莱芜区,济南市,117.618513,36.317819,比德文电动车(口镇店),山东省,无,比德文
2019-09-09,莱鹏泉西大街118号,莱芜区,济南市,117.664643,36.208301,比德文电动车(莱芜旗舰店),山东省,无,比德文
2019-09-09,华龙路710号附近,历城区,济南市,117.086697,36.681127,比德文电动车(济南店),山东省,无,比德文
2019-09-09,经十路辅路南100米,历城区,济南市,117.185575,36.669351,比德文电动车(经十东路田庄西专卖店),山东省,15069194616,比德文
2019-09-09,016乡道西200米,章丘区,济南市,117.370951,36.822931,比德文电动车,山东省,无,比德文
2019-09-09,吉山街与327省道交叉口北200米,莱芜区,济南市,117.692047,36.487769,比德文电动车(茶叶专卖店),山东省,无,比德文
2019-09-09,平普路与绣源路交叉口东150米,章丘区,济南市,117.539176,36.764138,比德文电动车,山东省,无,比德文
2019-09-09,G205(山深线),钢城区,济南市,117.723507,36.154196,比德文电动车,山东省,无,比德文
2019-09-09,330省道北50米,莱芜区,济南市,117.490124,36.218948,比德文电动车,山东省,无,比德文
2019-09-09,富华路刘姑小学旁边,历城区,济南市,117.111279,36.777864,比德文电动车(刘姑店),山东省,13953156440,比德文
2019-09-09,329省道北50米,钢城区,济南市,117.758150,36.196820,比德文电动车,山东省,无,比德文
2019-09-09,府村路与春博路交叉口西北100米,历城区,济南市,117.306553,36.691784,比德文电动车(春博路店),山东省,无,比德文
2019-09-09,二环北路7199号摩托车大世界,天桥区,济南市,116.968400,36.717689,比德文电动车(北外环店),山东省,0531-88801001,比德文
2019-09-09,将军路102号黄台电动车市场比德文电动车,天桥区,济南市,117.060420,36.711800,比德文电动车(历城店),山东省,0531-88888777;0531-88801005,比德文
2019-09-09,区汶河大道344号附近,莱芜区,济南市,117.683147,36.197562,比德文电动车,山东省,无,比德文
2019-09-09,张庄路东100米,槐荫区,济南市,116.920951,36.653370,比德文锂电车,山东省,无,比德文
2019-09-09,府前街与303县道交叉口东50米,章丘区,济南市,117.376819,36.776894,比德文电动车(党家专卖店),山东省,无,比德文
2019-09-09,文馨街与244省道交叉口南150米,莱芜区,济南市,117.490272,36.303928,比德文电动车(寨里专卖店),山东省,无,比德文
2019-09-09,文明路79号附近,章丘区,济南市,117.434959,36.819982,比德文电动车(宁家埠宝华专卖店),山东省,无,比德文
2019-09-09,东湖大街与洛梨路交叉口东南100米,章丘区,济南市,117.325779,36.916534,比德文电动车,山东省,15550428038,比德文
2019-09-09,钢都大街77号,钢城区,济南市,117.814154,36.067149,比德文电动车,山东省,13563495836,比德文
2019-09-09,历董家镇谢家屯机场路与温梁路交叉口东100米路北,历城区,济南市,117.210058,36.755030,比德文电动车(谢家屯专卖店),山东省,15264128606,比德文
2019-09-09,建委路,历城区,济南市,117.142601,36.724415,比德文电动车,山东省,无,比德文
2019-09-09,257县道为民大药店附近,商河县,济南市,117.053965,37.403091,比德文电动三轮车,山东省,无,比德文
2019-09-09,316省道西50米,商河县,济南市,117.252058,37.372215,比德文电动三轮车,山东省,无,比德文
2019-09-09,254县道与255县道交叉口西100米,商河县,济南市,117.268191,37.288975,比德文电动三轮车,山东省,无,比德文
2019-09-09,府前街与玉皇路交叉口北200米,商河县,济南市,117.107924,37.187529,比德文电动三轮车,山东省,无,比德文
2019-09-09,248省道西150米,商河县,济南市,117.165510,37.241744,比德文电动三轮车,山东省,0531-84800184,比德文
2019-09-09,商中路与长青路交叉口西北150米,商河县,济南市,117.156397,37.305303,比德文电动自行车,山东省,无,比德文
2019-09-09,长安大街与0九路交叉口东北50米,章丘区,济南市,117.462030,36.633073,比德文电动自行车,山东省,无,比德文
2019-09-09,汇商路与科源街交叉口北100米,商河县,济南市,117.157885,37.155154,比德文电动三轮车(开发区建军专卖店),山东省,13626405853,比德文
2019-09-09,浴城厨房用具专卖东北(217省道),胶州市,青岛市,119.727698,36.128633,铺集批发中心,山东省,0532-86251630;0532-86250237,比德文
2019-09-09,中国邮政(吉林路北),莱西市,青岛市,120.550390,36.920309,比德文电动车(周格庄专卖),山东省,无,比德文
2019-09-09,崔侯路1-15号侯家站红绿灯南50米路东,平度市,青岛市,119.945951,36.738420,同和比德文专卖店,山东省,13708975123,比德文
2019-09-09,,平度市,青岛市,119.953313,36.996066,比德文电动车(大泽山分店),山东省,无,比德文
2019-09-09,仁兆路与603省道交叉口西南150米,平度市,青岛市,120.192665,36.638130,比德文电动车三轮车,山东省,18300234181,比德文
2019-09-09,泰光路与018县道交叉口西50米,莱西市,青岛市,120.590753,36.663310,比德文电动车,山东省,无,比德文
2019-09-09,三城路与青官路交叉口东南50米,平度市,青岛市,119.869767,36.900863,比德文电动车,山东省,无,比德文
2019-09-09,华中路与纬二路交叉口北150米,平度市,青岛市,119.814458,36.739662,比德文电动车(白埠分店),山东省,无,比德文
2019-09-09,018县道西50米,莱西市,青岛市,120.578614,36.716687,比德文电动车,山东省,无,比德文
2019-09-09,吉利河路与334省道交叉口西南150米,黄岛区,青岛市,119.642845,35.674550,比德文,山东省,无,比德文
2019-09-09,威海中路与长平街交叉口西南50米,莱西市,青岛市,120.516190,36.860777,比德文电动车(莱西旗舰店),山东省,无,比德文
2019-09-09,泰安街336附近,即墨区,青岛市,120.674193,36.366840,比德文电动车(岙山专卖店),山东省,无,比德文
2019-09-09,周口路120号,市北区,青岛市,120.395278,36.142616,比德文电动车(周口路),山东省,13001696332,比德文
2019-09-09,经济技术开发区黄河中路291号,黄岛区,青岛市,120.143844,36.019297,比德文电动车(创业路),山东省,0532-66695888,比德文
2019-09-09,威海中路25之9-10,莱西市,青岛市,120.515732,36.861014,比德文低碳交通馆(威海中路店),山东省,无,比德文
2019-09-09,浴城厨房用具专卖东北(217省道)(西关茶庄正对面),胶州市,青岛市,119.724654,36.129952,铺集茶庄(中心街店),山东省,0532-86250237,比德文
2019-09-09,沽河路70号附近,平度市,青岛市,120.228447,36.734135,小史摩托车商场,山东省,0532-83361150,比德文
2019-09-09,通济街道兰岙路652号宝龙广场对面,即墨区,青岛市,120.457336,36.392816,比德文电动车(青岛市公路管理局即墨分局东),山东省,0532-88881649,比德文
2019-09-09,,平度市,青岛市,119.765444,36.970891,比德文电动车,山东省,无,比德文
2019-09-09,昆明路与091县道交叉口北150米,莱西市,青岛市,120.517388,36.793996,比德文电动三轮车,山东省,无,比德文
2019-09-09,,即墨区,青岛市,120.607598,36.531618,比德文电动自行车,山东省,无,比德文
2019-09-09,兴店路店埠镇中心幼儿园东北400米,莱西市,青岛市,120.347975,36.701848,比德文电动三轮车(店埠经销店),山东省,无,比德文
2019-09-09,309国道北50米,平度市,青岛市,120.150849,36.810023,比德文电动三轮车(洪山经销店),山东省,0532-83338887,比德文
2019-09-09,华丰路与建设大街交叉口南200米,莱西市,青岛市,120.431011,36.689350,比德文电动三轮车(夏格庄经销店),山东省,0532-86432178,比德文
2019-09-09,旭日路107号附近,平度市,青岛市,119.617588,36.805405,比德文电动三轮车(马戈庄专卖),山东省,0532-86331256,比德文
2019-09-09,中心路与田北路交叉口东北150米附近,高青县,淄博市,117.833672,37.172772,比德文电动车(5C产品体验店),山东省,无,比德文
2019-09-09,寿济路北50米,临淄区,淄博市,118.370348,36.936630,比德文电动车,山东省,无,比德文
2019-09-09,裕民路65号附近,张店区,淄博市,118.033361,36.865710,比德文电动车,山东省,无,比德文
2019-09-09,燕崖镇南崔线牛郎织女景区安乐家电城,沂源县,淄博市,118.266399,36.114506,比德文电动车(安乐专卖店),山东省,无,比德文
2019-09-09,富民路与朝阳中路交叉口西北50米西里镇社会综合治税办公室附近,沂源县,淄博市,118.329051,36.036928,比德文电动车(西里专卖店),山东省,无,比德文
2019-09-09,东四路与电厂路交叉口东50米,张店区,淄博市,118.077457,36.748461,比德文电动车专卖店,山东省,无,比德文
2019-09-09,大成路与工业路交叉口南50米,桓台县,淄博市,117.900473,37.047279,比德文,山东省,无,比德文
2019-09-09,,张店区,淄博市,118.146465,36.868962,比德文电动车卫固旗舰店,山东省,无,比德文
2019-09-09,东二路27号-45,张店区,淄博市,118.068771,36.801134,比德文电动车(东二路店),山东省,0533-2154589,比德文
2019-09-09,S323(潍高路),高青县,淄博市,118.001053,37.186360,比德文电动车,山东省,无,比德文
2019-09-09,张南路东50米,张店区,淄博市,118.049705,36.773298,比德文电动车(张南路店),山东省,无,比德文
2019-09-09,南西四路133号建强车行,张店区,淄博市,118.040390,36.790524,比德文电动车(王舍店),山东省,15963312843;13969328362,比德文
2019-09-09,蟠龙山东路北100米,张店区,淄博市,118.147266,36.877067,比德文电动车专卖店,山东省,无,比德文
2019-09-09,临淄大道124号附近,临淄区,淄博市,118.382791,36.799786,比德文电动车,山东省,无,比德文
2019-09-09,四宝山街道赵王路中德·奥林新城,张店区,淄博市,118.070947,36.873253,比德文电动车(智慧产品体验店),山东省,13864320723,比德文
2019-09-09,洪沟路25甲15号,张店区,淄博市,118.076290,36.790883,比德文电动车(洪沟路店),山东省,0533-8628002,比德文
2019-09-09,华福大道北50米,张店区,淄博市,117.989459,36.763141,比德文电动车(华福大道),山东省,无,比德文
2019-09-09,117乡道与340县道交叉口西北100米,张店区,淄博市,118.039324,36.886174,比德文电动车专卖,山东省,无,比德文
2019-09-09,中心路与朝阳路交叉口东100米,沂源县,淄博市,118.254522,36.206512,比德文电动车(中心路),山东省,无,比德文
2019-09-09,泉庄镇332省道九州购物中心旁,沂源县,淄博市,118.428364,35.978997,比德文电动车(韩旺专卖店),山东省,无,比德文
2019-09-09,南一街三巷与张南路交叉口南100米,张店区,淄博市,118.045637,36.746393,比德文电动车(南定店),山东省,13181912931,比德文
2019-09-09,叠阳路与沿河西路交叉口南100米路西,博山区,淄博市,117.862808,36.498916,比德文电动车(叠阳路),山东省,无,比德文
2019-09-09,荆家镇利客隆电器行西南50米,桓台县,淄博市,117.985930,37.049152,比德文电动车(荆家专卖店),山东省,无,比德文
2019-09-09,唐山镇人民政府附近,桓台县,淄博市,118.051449,36.962757,比德文电动车(唐山镇人民代表大会东),山东省,无,比德文
2019-09-09,寿济路24088号附近,桓台县,淄博市,117.951318,36.956211,比德文电动三轮车(中共新城镇委员会西),山东省,无,比德文
2019-09-09,镇中路北50米,高青县,淄博市,117.665397,37.107760,小崔专卖比德文电动车,山东省,无,比德文
2019-09-09,天齐路西50米,桓台县,淄博市,117.987860,36.995151,比德文电动汽车(桓台田庄店),山东省,无,比德文
2019-09-09,官邢线与文化路交叉口东北100米,台儿庄区,枣庄市,117.755222,34.565774,比德文电动车,山东省,无,比德文
2019-09-09,345省道北50米,滕州市,枣庄市,116.988526,35.123489,比德文电动车(兴民专卖店),山东省,无,比德文
2019-09-09,南立交与枣台路交叉口西北100米,峄城区,枣庄市,117.632857,34.732293,比德文电动三轮车,山东省,无,比德文
2019-09-09,府前路与206国道交叉口西北150米,峄城区,枣庄市,117.549475,34.636526,比德文电动三轮车(古邵店),山东省,15863232596,比德文
2019-09-09,运河路与金洲路交叉口西北50米,东营区,东营市,118.677063,37.427702,比德文,山东省,无,比德文
2019-09-09,县城社区管理委员会利一路津三路路口西丽苑小区北门,利津县,东营市,118.242176,37.488784,比德文电动车,山东省,无,比德文
2019-09-09,镇前街与231省道交叉口西150米,东营区,东营市,118.473077,37.340459,比德文电动车,山东省,无,比德文
2019-09-09,潍高路108号,广饶县,东营市,118.518603,36.984864,比德文电动车(智慧产品体验店),山东省,无,比德文
2019-09-09,八分场盛大商场附近北二路与东二路交叉口往东200米路北,东营区,东营市,118.648986,37.470353,比德文电动车,山东省,15254469668;13665467733,比德文
2019-09-09,兴盛街与黄河路交汇处北行50米,河口区,东营市,118.535709,37.886436,比德文电动车(步行街),山东省,无,比德文
2019-09-09,兵圣路191号,广饶县,东营市,118.408097,37.049416,比德文电动车(广饶店),山东省,13275465588,比德文
2019-09-09,幸福街与芦头街交叉口北150米,龙口市,烟台市,120.465876,37.612804,比德文电动车(心悦车行专卖店),山东省,无,比德文
2019-09-09,幸福南路西26号同三钢材市场东边路口往北300米,芝罘区,烟台市,121.308665,37.559800,比德文电动车,山东省,无,比德文
2019-09-09,玉泰西路南50米,莱州市,烟台市,119.934239,37.215621,比德文电动车专卖店,山东省,无,比德文
2019-09-09,岚丁线与131县道交叉口东北150米,海阳市,烟台市,121.117086,36.744196,比德文电动车(里店店),山东省,无,比德文
2019-09-09,八角大街南50米,福山区,烟台市,121.129652,37.637605,比德文电动车,山东省,无,比德文
2019-09-09,昌阳路与梨苑路交叉口南100米,莱阳市,烟台市,120.750018,36.910841,比德文电动车电动三轮车(万水专卖店),山东省,无,比德文
2019-09-09,308省道中国移动旁,莱州市,烟台市,119.908833,37.012182,比德文电动车,山东省,13964506458,比德文
2019-09-09,幸福街道幸福路35号,芝罘区,烟台市,121.358176,37.570643,比德文电动车专卖,山东省,13606380318,比德文
2019-09-09,金城大街南50米,莱州市,烟台市,120.105092,37.420162,比德文电动车,山东省,无,比德文
2019-09-09,大宋线与210省道交叉口北150米,栖霞市,烟台市,121.150788,37.299513,比德文电动车,山东省,无,比德文
2019-09-09,东关街与河西路交叉口南100米,招远市,烟台市,120.409682,37.360464,比德文,山东省,无,比德文
2019-09-09,南阳河南街南150米,莱州市,烟台市,119.944377,37.163008,比德文电动汽车(莱州店),山东省,无,比德文
2019-09-09,迎春大街192号,莱山区,烟台市,121.435301,37.454209,比德文低碳交通馆,山东省,无,比德文
2019-09-09,摩托车市场一楼,福山区,烟台市,121.258229,37.494026,比德文电动车(福海路店),山东省,无,比德文
2019-09-09,三山岛街道西由府前街家家悦北50米,莱州市,烟台市,120.001930,37.361092,比德文电动车,山东省,无,比德文
2019-09-09,观府街南50米,牟平区,烟台市,121.260100,37.216268,比德文电动车(观水国土资源所西),山东省,无,比德文
2019-09-09,朱桥镇河间正宗驴肉火烧旁,莱州市,烟台市,120.104228,37.369677,比德文电动自行车,山东省,无,比德文
2019-09-09,辛安镇育行线阳光幼儿园西150米,海阳市,烟台市,120.996516,36.661186,比德文电动车(辛安店),山东省,13053500778,比德文
2019-09-09,岚丁线与131县道交叉口东北150米,海阳市,烟台市,121.117653,36.745872,里店(宏伟专卖店),山东省,0535-3511315;18863818891,比德文
2019-09-09,平京路1468号附近,莱州市,烟台市,120.020014,37.292576,比德文电动车(平里店分店),山东省,无,比德文
2019-09-09,218省道东50米,莱州市,烟台市,119.937354,37.053202,比德文,山东省,无,比德文
2019-09-09,218省道海村东南,莱州市,烟台市,119.937338,37.285911,比德文电动车(朱由分店),山东省,13963893579,比德文
2019-09-09,莱山镇河北村集贸市场北200米,莱山区,烟台市,121.383381,37.396683,比德文电动车,山东省,15552203696,比德文
2019-09-09,,莱州市,烟台市,119.943558,37.060646,比德文电动车,山东省,无,比德文
2019-09-09,县府街与福海路交叉口西北50米,福山区,烟台市,121.258832,37.497233,比德文电动自行车,山东省,无,比德文
2019-09-09,工商大街与通海路交叉口西北50米,牟平区,烟台市,121.597048,37.379950,德文电动,山东省,无,比德文
2019-09-09,云门山北路与夏庄北巷交叉口西北50米,青州市,潍坊市,118.485191,36.702983,比德文,山东省,无,比德文
2019-09-09,虞河路玉清街北200米路东,奎文区,潍坊市,119.122376,36.701593,比德文电动车(民生街店),山东省,无,比德文
2019-09-09,百汇路西150米,寒亭区,潍坊市,119.173125,36.758595,比德文电动车生活馆,山东省,无,比德文
2019-09-09,经济开发区红星家园A区西门北200米,诸城市,潍坊市,119.394821,36.025429,比德文电动车,山东省,无,比德文
2019-09-09,民生街与潍州路交叉口往东88米比德文低碳交通馆,奎文区,潍坊市,119.126289,36.701330,比德文电动自行车,山东省,0536-2108675,比德文
2019-09-09,峡山医院对面峡山双语小学沿街,坊子区,潍坊市,119.418016,36.519578,比德文电动车(峡山店),山东省,无,比德文
2019-09-09,217省道北50米,诸城市,潍坊市,119.548466,36.049029,比德文电动车(辛兴烟草管理处南),山东省,18353671558,比德文
2019-09-09,行政街南50米,潍城区,潍坊市,119.042326,36.654836,比德文(望留专卖店),山东省,13964725267,比德文
2019-09-09,五井镇327省道吉利购物商场西150米,临朐县,潍坊市,118.408240,36.442230,比德文电动车,山东省,0536-3612809,比德文
2019-09-09,纽约路2971号附近,青州市,潍坊市,118.511036,36.754796,比德文电动车,山东省,无,比德文
2019-09-09,通亭街文化路北宫街佳乐家1楼,奎文区,潍坊市,119.140442,36.703564,比德文电动车,山东省,17753630659,比德文
2019-09-09,文昌路与222省道交叉口西南50米潍坊市国土资源局寒亭分局固堤所附近,寒亭区,潍坊市,119.178645,36.849161,比德文电动车,山东省,无,比德文
2019-09-09,,昌乐县,潍坊市,118.811545,36.689717,比德文电动车,山东省,无,比德文
2019-09-09,朐山路5831号,临朐县,潍坊市,118.532578,36.505761,比德文电动车(临朐直营店),山东省,15095161888,比德文
2019-09-09,阜康街北50米,安丘市,潍坊市,119.395684,36.302970,比德文电动车喜来专卖店,山东省,无,比德文
2019-09-09,325省道南50米,高密市,潍坊市,119.803114,36.227866,比德文电动三轮车,山东省,无,比德文
2019-09-09,青云山路口西200米路南,安丘市,潍坊市,119.228866,36.440407,比德文电动车汽车(安丘店),山东省,无,比德文
2019-09-09,新东方商务酒店(潍州南路西),坊子区,潍坊市,119.131695,36.595858,比德文电动汽车(坊子店),山东省,无,比德文
2019-09-09,金马路东150米,奎文区,潍坊市,119.177456,36.693467,比德文电动车(十甲花园东区西),山东省,18364675959,比德文
2019-09-09,孙板村路与G33县道交叉口南50米,青州市,潍坊市,118.599759,36.805521,比德文电动车,山东省,15244442044,比德文
2019-09-09,东五路西50米,临朐县,潍坊市,118.600093,36.510792,比德文电动车,山东省,无,比德文
2019-09-09,224省道与323省道交叉口西南150米,寿光市,潍坊市,118.904412,36.830957,比德文电动汽车(稻田专卖店),山东省,无,比德文
2019-09-09,行政街104号,奎文区,潍坊市,119.121163,36.704114,比德文电动车6S服务中心,山东省,无,比德文
2019-09-09,水库路6188号军埠口派出所附近,潍城区,潍坊市,119.090073,36.634433,比德文电动车,山东省,无,比德文
2019-09-09,农村商业银行西南100米,坊子区,潍坊市,119.308366,36.596744,比德文电动车(坊安南流专卖店),山东省,15853649212,比德文
2019-09-09,GU6乡道北50米,青州市,潍坊市,118.389907,36.556674,比德文电动车(王坟专卖店),山东省,0536-3731161,比德文
2019-09-09,状元路4678号附近,青州市,潍坊市,118.689118,36.636051,比德文电动车,山东省,15095122788,比德文
2019-09-09,004县道附近,寒亭区,潍坊市,119.288782,36.774817,比德文电动车(河滩专卖店),山东省,0536-7589387,比德文
2019-09-09,新城街道玉清东街玉清嘉苑北区惠城超市旁,奎文区,潍坊市,119.180452,36.739910,比德文电动车(玉清店),山东省,0536-8729618,比德文
2019-09-09,024县道与030乡道交叉口北100米,昌乐县,潍坊市,118.873497,36.354679,比德文电动车专卖(包庄店),山东省,15264626767,比德文
2019-09-09,团结路与潍昌路交叉口东50米,昌乐县,潍坊市,118.931461,36.700733,比德文电动车5C产品体验店,山东省,无,比德文
2019-09-09,夏庄大街604号附近,高密市,潍坊市,119.841466,36.449815,比德文电动车(夏庄专卖店),山东省,15863276405,比德文
2019-09-09,律南路与023县道交叉口东北50米,安丘市,潍坊市,118.942270,36.263498,比德文电动车(温泉专卖),山东省,13562632699,比德文
2019-09-09,230省道西50米,青州市,潍坊市,118.500998,36.825897,比德文(高冯凤春专卖店),山东省,无,比德文
2019-09-09,温圈王府迎宾大道红满天客房东100米,青州市,潍坊市,118.432573,36.677189,比德文电动车(五里专卖店),山东省,13562637682;13562637685,比德文
2019-09-09,327省道南50米,临朐县,潍坊市,118.480681,36.490274,永昌车业(纸坊旗舰店),山东省,无,比德文
2019-09-09,凤凰西街南50米,高密市,潍坊市,119.533002,36.371433,比德文电动车(双羊专卖店),山东省,0536-2835893,比德文
2019-09-09,文昌南路121之2-5,昌邑市,潍坊市,119.404068,36.848913,豪爵电动车服务中心,山东省,0536-7224267,比德文
2019-09-09,新区北路青龙湖风景区西北500米,安丘市,潍坊市,119.212038,36.517921,比德文电动车(刘家尧其发专卖店),山东省,15965035222;15965355222,比德文
2019-09-09,221省道与309国道交叉口东150米,昌邑市,潍坊市,119.472312,36.737399,比德文电动车(政府街),山东省,0536-7709019,比德文
2019-09-09,019乡道与G76县道交叉口东150米,青州市,潍坊市,118.580448,36.890025,比德文电动车(何官专卖店),山东省,0536-3571673,比德文
2019-09-09,金光街4927号,寿光市,潍坊市,118.733274,36.881704,比德文电动车(金光街店),山东省,15763012769,比德文
2019-09-09,双拥路与027县道交叉口东北100米,潍城区,潍坊市,118.981341,36.781233,比德文电动车,山东省,无,比德文
2019-09-09,325省道南50米,高密市,潍坊市,119.492765,36.226330,比德文电动车(基海车业注沟专卖店),山东省,13685366768,比德文
2019-09-09,新兴街306-1号,昌邑市,潍坊市,119.403500,36.848670,比德文低碳交通馆电动自行车(昌邑旗舰店),山东省,15866155968,比德文
2019-09-09,227省道(辛寨镇行政审批服务中心东),临朐县,潍坊市,118.620392,36.382167,比德文电动车专卖店(辛寨镇行政审批服务中心东),山东省,0536-2192601;15864332726,比德文
2019-09-09,太公路与325省道交叉口西150米,昌乐县,潍坊市,118.995005,36.526647,唐祥车业,山东省,0536-6921302;13626365258,比德文
2019-09-09,水库路6068号,潍城区,潍坊市,119.090103,36.634414,宝友车业,山东省,无,比德文
2019-09-09,醴泉街道北大王庄新新家园西门南150米,高密市,潍坊市,119.759276,36.399233,比德文电动车(新新家园店),山东省,无,比德文
2019-09-09,224省道与227省道交叉口西北150米,临朐县,潍坊市,118.696623,36.300354,比德文电动三轮车,山东省,无,比德文
2019-09-09,224省道东50米,寿光市,潍坊市,118.967991,36.996521,比德文电动三轮车,山东省,无,比德文
2019-09-09,冶源路与223省道交叉口南150米,临朐县,潍坊市,118.499475,36.397227,比德文电动三轮车,山东省,无,比德文
2019-09-09,双拥路与027县道交叉口东北100米,潍城区,潍坊市,118.981209,36.782744,比德文电动三轮车,山东省,无,比德文
2019-09-09,,昌乐县,潍坊市,118.914517,36.644824,比德文电动三轮车,山东省,无,比德文
2019-09-09,224省道北50米,寿光市,潍坊市,118.909300,36.833726,比德文电动三轮车(稻田经销店),山东省,无,比德文
2019-09-09,325省道南50米,昌乐县,潍坊市,119.077530,36.490649,比德文电动三轮车(阿陀卫生院北),山东省,无,比德文
2019-09-09,石坊街与072县道交叉口北100米,安丘市,潍坊市,119.121940,36.172283,比德文电动三轮车(庵上专卖店),山东省,0536-4691978,比德文
2019-09-09,冶伦路64号,临朐县,潍坊市,118.649093,36.422634,盘阳比德文电动车,山东省,无,比德文
2019-09-09,朐山路5831号,临朐县,潍坊市,118.532526,36.505878,比德文电动车5c产品体验店,山东省,15095161888,比德文
2019-09-09,南口埠村,青州市,潍坊市,118.629446,36.791699,口埠金捷车业《福田五星比德文电动车》,山东省,无,比德文
2019-09-09,密水街道凤凰大街梨园路口西20米,高密市,潍坊市,119.748993,36.371984,比德文电动汽车(高密店),山东省,无,比德文
2019-09-09,004乡道北50米,潍城区,潍坊市,118.979641,36.615544,比德文低碳交通馆电动自行车,山东省,无,比德文
2019-09-09,224省道北50米,寿光市,潍坊市,118.908840,36.833522,比德文低碳交通馆(稻田店),山东省,无,比德文
2019-09-09,民生东街37附近,奎文区,潍坊市,119.124228,36.701403,比德文低碳交通馆,山东省,无,比德文
2019-09-09,潍州南路与潍州路交叉口南100米,奎文区,潍坊市,119.122607,36.670954,比德文电动汽车,山东省,无,比德文
2019-09-09,友谊路32号,寒亭区,潍坊市,119.199442,36.761512,比德文电动汽车(寒亭店),山东省,无,比德文
2019-09-09,006乡道西50米,寿光市,潍坊市,118.913010,36.833400,比德文电动汽车(稻田专卖店),山东省,15964578880,比德文
2019-09-09,民生街向西100米路南,奎文区,潍坊市,119.133490,36.694388,比德文低碳交通馆(虞河路),山东省,无,比德文
2019-09-09,福寿西街1146号,潍城区,潍坊市,119.100142,36.719852,福寿街比德文旗舰店,山东省,无,比德文
2019-09-09,王庙农村信用社西邻,鱼台县,济宁市,116.566903,34.969677,比德文电动车,山东省,无,比德文
2019-09-09,,汶上县,济宁市,116.540442,35.831981,比德文,山东省,无,比德文
2019-09-09,金兴商贸城,金乡县,济宁市,116.292084,35.070326,比德文电动车专卖店,山东省,无,比德文
2019-09-09,兴业路南首(邹城汽车站北)附近,邹城市,济宁市,116.944750,35.375839,邹城市比德文电动车销售部,山东省,18653746673,比德文
2019-09-09,古亭北路与鱼新一路交叉口东南50米,鱼台县,济宁市,116.664739,34.997543,比德文电动车,山东省,无,比德文
2019-09-09,小路口镇委西150米,梁山县,济宁市,115.948221,35.911807,比德文电动车,山东省,无,比德文
2019-09-09,348省道北50米,鱼台县,济宁市,116.765190,34.938130,比德文电动车,山东省,无,比德文
2019-09-09,鑫星街北50米,邹城市,济宁市,116.916147,35.382708,比德文电动车东(丁村专卖店),山东省,无,比德文
2019-09-09,运河路22-11号,任城区,济宁市,116.589035,35.403579,比德文电动车锂电车,山东省,18265863021,比德文
2019-09-09,马营镇马营加油站西50米路北,梁山县,济宁市,116.015848,35.792879,比德文电动车,山东省,无,比德文
2019-09-09,唐村镇杨春庄迎宾大道唐兴小区南50米,邹城市,济宁市,116.947616,35.327975,比德文电动车,山东省,无,比德文
2019-09-09,337省道西200米,梁山县,济宁市,116.209683,35.687744,徐集比德文电动车专卖店,山东省,无,比德文
2019-09-09,105国道东50米,汶上县,济宁市,116.502284,35.626450,树朋车行,山东省,无,比德文
2019-09-09,金庄镇,泗水县,济宁市,117.177081,35.634257,比德文电动车(中共金庄镇委东),山东省,15106782226,比德文
2019-09-09,水泊街道,梁山县,济宁市,116.297838,35.665034,比德文电动车,山东省,无,比德文
2019-09-09,林黄大街与益民路交叉口东北50米,汶上县,济宁市,116.400213,35.784035,比德文电动车(郭楼专卖店),山东省,无,比德文
2019-09-09,,汶上县,济宁市,116.644928,35.802368,比德文电动车,山东省,无,比德文
2019-09-09,中心街2号附近,嘉祥县,济宁市,116.263940,35.536434,比德文电动三轮车,山东省,无,比德文
2019-09-09,泉张线与327国道交叉口东南150米,泗水县,济宁市,117.508360,35.625578,比德文电动三轮车,山东省,无,比德文
2019-09-09,迎宾路与338省道交叉口西北50米,嘉祥县,济宁市,116.400709,35.420649,比德文电动三轮车(迎宾路),山东省,无,比德文
2019-09-09,X006附近,梁山县,济宁市,116.205699,35.688348,徐集比德文电动车专卖店,山东省,无,比德文
2019-09-09,103省道南50米,岱岳区,泰安市,117.338510,36.207432,比德文电动车,山东省,无,比德文
2019-09-09,通天街南50米,东平县,泰安市,116.282634,35.967263,比德文电动车,山东省,无,比德文
2019-09-09,稻香街与须昌路交叉口西150米,东平县,泰安市,116.437607,35.922097,比德文电动车,山东省,无,比德文
2019-09-09,,宁阳县,泰安市,117.173798,35.842637,比德文电动车利达车行,山东省,无,比德文
2019-09-09,015县道东50米,岱岳区,泰安市,117.342811,36.243122,比德文电动车,山东省,无,比德文
2019-09-09,东原路与稻香街交叉口北200米,东平县,泰安市,116.458494,35.922697,比德文电动自行车,山东省,无,比德文
2019-09-09,039乡道与103省道交叉口南200米,岱岳区,泰安市,117.272222,36.239022,比德文电动车,山东省,无,比德文
2019-09-09,华兴大街西50米,宁阳县,泰安市,116.761800,35.729555,比德文电动车,山东省,无,比德文
2019-09-09,富华小区南100米(晟泰路南),宁阳县,泰安市,117.152585,35.850885,比德文电动车,山东省,无,比德文
2019-09-09,333省道北100米,宁阳县,泰安市,117.200199,35.858900,比德文电动车,山东省,无,比德文
2019-09-09,036县道北50米附近,宁阳县,泰安市,116.669387,35.842945,比德文电动车专卖,山东省,无,比德文
2019-09-09,老城路东50米,肥城市,泰安市,116.778761,36.227146,鑫佳车业,山东省,无,比德文
2019-09-09,满庄镇中淳于,岱岳区,泰安市,117.054218,36.069875,比德文,山东省,无,比德文
2019-09-09,035县道与333省道交叉口东100米,宁阳县,泰安市,116.715881,35.748619,比德文电动车,山东省,15853806945;18254892348,比德文
2019-09-09,244省道南50米,新泰市,泰安市,117.314994,35.859525,比德文电动车(瑞嘉花苑西),山东省,无,比德文
2019-09-09,财源街道青年路16号,泰山区,泰安市,117.129776,36.185431,比德文电动车,山东省,无,比德文
2019-09-09,东周路38号,新泰市,泰安市,117.769127,35.902298,比德文电动车(新泰店),山东省,13954817189,比德文
2019-09-09,府前街比德文低碳交通馆北30米,宁阳县,泰安市,116.873793,35.715998,比德文电动车,山东省,无,比德文
2019-09-09,满庄镇泰星大街165号,岱岳区,泰安市,117.061885,36.068620,比德文电动车,山东省,无,比德文
2019-09-09,331省道北50米,东平县,泰安市,116.306521,35.912375,比德文电动车(州城店),山东省,无,比德文
2019-09-09,032县道与801省道交叉口东北50米,宁阳县,泰安市,117.084559,35.858461,比德文电动车(磁窑镇南驿卫生院西),山东省,无,比德文
2019-09-09,104省道东50米,肥城市,泰安市,116.776308,35.961037,比德文电动车(御苑小区东),山东省,无,比德文
2019-09-09,龙山路55号-11,肥城市,泰安市,116.747028,36.180698,比德文电动车,山东省,13562882857,比德文
2019-09-09,兴华路与330省道交叉口西150米,岱岳区,泰安市,116.929925,36.204632,比德文(道朗指定专营店),山东省,无,比德文
2019-09-09,北京路与016县道交叉口西100米,岱岳区,泰安市,117.280921,36.106507,比德文,山东省,无,比德文
2019-09-09,光彩大市场三区二栋2号,岱岳区,泰安市,117.054030,36.180860,比德文电动车(泰安总代理),山东省,无,比德文
2019-09-09,青年路8-8号,泰山区,泰安市,117.129699,36.185356,比德文电动车(泰安旗舰店),山东省,0538-8511088;15253851777,比德文
2019-09-09,泰临路065号农机公司沿街楼,肥城市,泰安市,116.772329,36.188951,比德文低碳交通馆(肥城市地方建筑材料结算中心南),山东省,0538-3219829,比德文
2019-09-09,220国道西50米,东平县,泰安市,116.177774,36.109693,比德文电动车(斑鸠店),山东省,无,比德文
2019-09-09,矿业大街西50米,肥城市,泰安市,116.693212,36.206011,比德文电动车,山东省,13655489479,比德文
2019-09-09,220国道与255省道交叉口东南50米,东平县,泰安市,116.237552,36.119688,比德文电动车,山东省,无,比德文
2019-09-09,后梯线与250省道交叉口西50米,东平县,泰安市,116.379400,36.030899,比德文电动三轮车,山东省,无,比德文
2019-09-09,张村镇昌华路华辉东方城,环翠区,威海市,122.028580,37.472212,比德文电动车,山东省,无,比德文
2019-09-09,东海路26-1-2号附近,乳山市,威海市,121.617610,36.813087,比德文电动车,山东省,无,比德文
2019-09-09,成大东路与成大中路交叉口西150米,荣成市,威海市,122.549303,37.368412,比德文电动车专卖店,山东省,无,比德文
2019-09-09,27县道南50米,乳山市,威海市,121.754816,36.912151,比德文电动车,山东省,无,比德文
2019-09-09,沈阳中路与里口山路交叉口东北100米,环翠区,威海市,122.032547,37.477955,比德文电动自行车,山东省,0631-5750067,比德文
2019-09-09,苘山镇中韩路甲10-13号,环翠区,威海市,122.068011,37.293412,比德文电动车(中韩路店),山东省,无,比德文
2019-09-09,201省道美家乐超市西40米,环翠区,威海市,122.168197,37.375054,比德文电动车,山东省,无,比德文
2019-09-09,日夏线北50米,莒县,日照市,118.763837,35.412907,比德文电动车,山东省,无,比德文
2019-09-09,潮河凌云购物中心十字路口南路东,五莲县,日照市,119.501272,35.643324,比德文电动车,山东省,13863389852,比德文
2019-09-09,利民路与祥龙路交叉口西北50米,莒县,日照市,118.937941,35.645069,比德文电动车,山东省,无,比德文
2019-09-09,利民路与永兴路交叉口东南50米,莒县,日照市,118.824243,35.746581,比德文电动车,山东省,无,比德文
2019-09-09,滨州路44号附近,东港区,日照市,119.508662,35.444687,比德文电动车,山东省,无,比德文
2019-09-09,城阳街道青年路11号,莒县,日照市,118.832053,35.588314,比德文(5C产品体验店),山东省,13906332113,比德文
2019-09-09,利民路附近,莒县,日照市,118.882548,35.654748,比德文电动车王增车城,山东省,0633-2915131;15666619368,比德文
2019-09-09,高泽村泰安路高泽镇政府西北350米,五莲县,日照市,119.199788,35.824740,比德文电动车(高泽专卖店),山东省,无,比德文
2019-09-09,龙山一路与204国道交叉口南100米,东港区,日照市,119.571546,35.570514,宏达家电家具电动车城,山东省,0633-8511988,比德文
2019-09-09,于里镇顺昌路润林购物中心南150米,五莲县,日照市,118.992469,35.800106,比德文电动车,山东省,无,比德文
2019-09-09,振兴西路8号,莒县,日照市,118.794576,35.590832,比德文电动车(浮来专卖店),山东省,无,比德文
2019-09-09,225省道东50米,莒县,日照市,118.807641,35.420419,福田五星三轮电动车(小店专卖店),山东省,15666109168,比德文
2019-09-09,第一加油站对过,五莲县,日照市,119.200748,35.762621,比德文电动车(五莲旗舰店),山东省,13066086778,比德文
2019-09-09,滨海二路与341省道交叉口西100米,东港区,日照市,119.394001,35.273392,比德文电动车(小葛车行),山东省,无,比德文
2019-09-09,源棋线北50米,莒县,日照市,118.887671,35.864888,比德文电动三轮车,山东省,无,比德文
2019-09-09,335省道南100米,蒙阴县,临沂市,118.223747,35.799564,比德文电动车,山东省,无,比德文
2019-09-09,兴水路28号附近,平邑县,临沂市,117.621838,35.504594,比德文电动车(兴蒙店),山东省,无,比德文
2019-09-09,绮云路与335省道交叉口东50米,沂水县,临沂市,118.718920,35.684597,比德文电动车,山东省,无,比德文
2019-09-09,葛岸线南50米,沂南县,临沂市,118.339398,35.518966,比德文电动车(孙祖店),山东省,无,比德文
2019-09-09,盛庄镇通达路与清河南路交汇北68米路东,罗庄区,临沂市,118.318634,35.024290,比德文电动车(罗庄区店),山东省,13563924799,比德文
2019-09-09,S225(莒新路),莒南县,临沂市,118.781125,35.261018,比德文电动车,山东省,无,比德文
2019-09-09,华苑宾馆北100米(丹阳路西),沂南县,临沂市,118.464693,35.534914,比德文电动车,山东省,15263945444,比德文
2019-09-09,莲花山路与通圣路交叉口南100米,平邑县,临沂市,117.626922,35.514573,比德文低碳交通馆,山东省,15563636478,比德文
2019-09-09,汶河一路与336省道交叉口西50米,沂南县,临沂市,118.345795,35.612047,比德文电动车,山东省,无,比德文
2019-09-09,莒新路西50米,莒南县,临沂市,118.781091,35.261191,比德文低碳交通馆,山东省,无,比德文
2019-09-09,中心南街与中心街交叉口东南50米,沂水县,临沂市,118.624121,35.759547,比德文电动车专卖店,山东省,无,比德文
2019-09-09,双堠镇西梭庄,沂南县,临沂市,118.194558,35.491057,西梭庄比德文电动车专卖店,山东省,15205490070,比德文
2019-09-09,汶泗公路北50米,费县,临沂市,118.070540,35.356282,比德文电动车,山东省,无,比德文
2019-09-09,亿钢路与227省道交叉口北200米,沂南县,临沂市,118.528207,35.468024,比德文电动车(大庄店),山东省,无,比德文
2019-09-09,平邑街道南马小博士幼儿园东100米,平邑县,临沂市,117.686757,35.473867,比德文电动车,山东省,无,比德文
2019-09-09,朱兴线与费梁公路交叉口东100米,费县,临沂市,117.833491,35.265555,比德文电动车,山东省,15965798885,比德文
2019-09-09,新育才幼儿园西50米(戈九路东),兰山区,临沂市,118.192958,35.147398,比德文电动车(朱保店),山东省,无,比德文
2019-09-09,上冶镇汶泗公路鑫鑫车行,费县,临沂市,117.951233,35.400204,比德文电动车(费县二店),山东省,15605398127,比德文
2019-09-09,团山路8号,沂南县,临沂市,118.450982,35.556506,比德文电动车(沂南一店),山东省,18653557676,比德文
2019-09-09,团山路与澳柯玛路交叉口北150米,沂南县,临沂市,118.449522,35.534430,比德文低碳交通馆,山东省,无,比德文
2019-09-09,大山路377号附近,兰山区,临沂市,118.239089,35.106556,比德文电动车(庙上专卖店),山东省,无,比德文
2019-09-09,229省道金源浴池宾馆旁,兰陵县,临沂市,118.062942,34.915224,比德文电动车,山东省,无,比德文
2019-09-09,崔家峪镇委对过,沂水县,临沂市,118.441705,35.838397,比德文电动车,山东省,无,比德文
2019-09-09,费马公路与342省道交叉口东北50米,兰陵县,临沂市,118.015271,35.071650,比德文电动车(费马公路),山东省,无,比德文
2019-09-09,227省道东50米,沂南县,临沂市,118.588861,35.612557,比德文电动车,山东省,无,比德文
2019-09-09,张湖线与昌平路交叉口西南100米,沂南县,临沂市,118.655238,35.585379,比德文电动车(湖头专卖店),山东省,13468155470,比德文
2019-09-09,蒙西线东50米,平邑县,临沂市,117.712202,35.548723,比德文电动车(保太万庄李府车辆商场专卖),山东省,0539-4480345,比德文
2019-09-09,336省道南100米,沂南县,临沂市,118.523501,35.587300,比德文电动车,山东省,13954924134,比德文
2019-09-09,蒙阳路119号,平邑县,临沂市,117.647870,35.498844,比德文电动车,山东省,无,比德文
2019-09-09,新庄镇红绿灯十字路口南50米路西,费县,临沂市,117.870646,35.095232,比德文电动车(新宜佳购物中心南),山东省,无,比德文
2019-09-09,西外环西100米,兰山区,临沂市,118.265607,35.186089,比德文电动车,山东省,无,比德文
2019-09-09,武台镇初级中学北150米,平邑县,临沂市,117.704498,35.652893,比德文电动车(武台专卖店),山东省,无,比德文
2019-09-09,铜红路与241省道交叉口西南50米,平邑县,临沂市,117.504026,35.470343,比德文电动车(丰阳明明专卖),山东省,无,比德文
2019-09-09,板团路东50米,莒南县,临沂市,119.129528,35.120107,比德文电动车,山东省,13082650293,比德文
2019-09-09,浚河路与通圣路交叉口北100米,平邑县,临沂市,117.630854,35.509867,比德文电动车(平邑一店),山东省,15563634678,比德文
2019-09-09,博沂路15-19号附近,沂水县,临沂市,118.564977,35.984364,比德文电动车,山东省,无,比德文
2019-09-09,汶泗公路窗帘布艺西50米,费县,临沂市,118.003426,35.383430,比德文电动车(张庄店),山东省,无,比德文
2019-09-09,琅琊王路电动车市场30号,兰山区,临沂市,118.300229,35.080153,比德文电动车,山东省,0539-8658509;13082666408,比德文
2019-09-09,万平线东50米,平邑县,临沂市,117.744416,35.466939,比德文电动车(温水郭强专卖),山东省,无,比德文
2019-09-09,通达南路与南外环交汇北20米路西,罗庄区,临沂市,118.283884,34.950751,比德文电动车(南外环路),山东省,0539-8277604;13969954786,比德文
2019-09-09,双桥路附近,河东区,临沂市,118.390532,35.058611,比德文电动车(九曲专卖店),山东省,18706371217,比德文
2019-09-09,店头镇官庄小学东,临沭县,临沂市,118.620946,34.786726,比德文电动三轮车,山东省,无,比德文
2019-09-09,,沂水县,临沂市,118.592228,35.853585,比德文电动自行车,山东省,无,比德文
2019-09-09,蒙西线柏林镇政府,平邑县,临沂市,117.766762,35.523911,比德文电动三轮车(柏林君祥专卖),山东省,15065926787,比德文
2019-09-09,342省道北50米,兰山区,临沂市,118.140726,35.070854,比德文电动三轮车(武德经销店),山东省,无,比德文
2019-09-09,程梅线,河东区,临沂市,118.558654,35.086039,比德文电动三轮车(汤河旗舰店),山东省,13280597513;15553976306,比德文
2019-09-09,友谊东路与汤大线交叉口西南50米,河东区,临沂市,118.584402,35.241252,比德文电动三轮车(刘店子专卖),山东省,无,比德文
2019-09-09,205国道附近,兰山区,临沂市,118.312467,35.258588,比德文电动三轮车(半程专卖店),山东省,0539-7026983,比德文
2019-09-09,振兴路6-4号附近,沂水县,临沂市,118.616374,35.767577,金辉比德文电动车(南湖庄园店),山东省,无,比德文
2019-09-09,万信服饰北门路西十八米路南,沂水县,临沂市,118.625136,35.787406,比德文电动三轮车沂水店,山东省,无,比德文
2019-09-09,227省道苏村镇政府东北450米,沂南县,临沂市,118.580012,35.602843,比德文电动三轮车专卖(苏村专卖店),山东省,无,比德文
2019-09-09,新华路640号附近,德城区,德州市,116.306987,37.439469,比德文电动自行车,山东省,无,比德文
2019-09-09,富源大街1472附近,德城区,德州市,116.285620,37.440019,比德文电动车,山东省,无,比德文
2019-09-09,宏海路49号附近,武城县,德州市,116.065152,37.327597,比德文电动车,山东省,无,比德文
2019-09-09,孔镇张桥附近,乐陵市,德州市,117.090256,37.633504,比德文电动车,山东省,无,比德文
2019-09-09,富民路与振兴东路交叉口东南50米,乐陵市,德州市,117.221056,37.728064,比德文电动车(乐陵总代理),山东省,18653438808,比德文
2019-09-09,纺织大街357号附近,德城区,德州市,116.275137,37.455059,比德文电动自行车,山东省,无,比德文
2019-09-09,,乐陵市,德州市,117.222678,37.644268,比德文电动车(寨头堡店),山东省,13853422380,比德文
2019-09-09,,平原县,德州市,116.260225,37.028653,比德文电动车,山东省,无,比德文
2019-09-09,三八西路与商贸大道交汇口运河家具广场南50米路西,德城区,德州市,116.283788,37.452630,比德文,山东省,18753467663,比德文
2019-09-09,105国道西50米,德城区,德州市,116.304420,37.401294,比德文电动车,山东省,无,比德文
2019-09-09,义乌商贸城二期比德文专卖店,乐陵市,德州市,117.191660,37.715238,比德文电动车(乐陵店),山东省,13465159848,比德文
2019-09-09,富民路与振兴东路交叉口南50米,乐陵市,德州市,117.220858,37.728089,比德文低碳交通馆,山东省,无,比德文
2019-09-09,249省道西50米,陵城区,德州市,116.844116,37.490359,比德文电动车,山东省,13053403322,比德文
2019-09-09,正阳路西50米,宁津县,德州市,116.793441,37.654554,比德文电动车,山东省,无,比德文
2019-09-09,249省道东50米,宁津县,德州市,116.933088,37.806425,比德文电动车,山东省,无,比德文
2019-09-09,046县道南50米,宁津县,德州市,116.941123,37.609257,比德文电动车(尤集体验店),山东省,无,比德文
2019-09-09,赵虎镇中心幼儿园附近,德城区,德州市,116.497854,37.508250,比德文电动车专卖,山东省,13406892961,比德文
2019-09-09,运河大道南50米,武城县,德州市,115.897837,37.145745,比德文电动车,山东省,无,比德文
2019-09-09,,武城县,德州市,116.036748,37.304129,比德文电动车,山东省,无,比德文
2019-09-09,通达路与248省道交叉口东南150米,乐陵市,德州市,117.145734,37.811571,比德文电动三轮车,山东省,无,比德文
2019-09-09,贵和东路北50米,乐陵市,德州市,117.140879,37.503038,比德文电动车(郑店),山东省,无,比德文
2019-09-09,三八中路534附近,德城区,德州市,116.322012,37.454364,比德文电动自行车,山东省,无,比德文
2019-09-09,德德惠街275号西南60米,德城区,德州市,116.314326,37.466517,比德文电动自行车,山东省,无,比德文
2019-09-09,中山中路与新兴街交叉口南150米,夏津县,德州市,116.006416,36.968047,比德文电动三轮车(夏津专卖店),山东省,15069210861,比德文
2019-09-09,共青团路与滨河路交叉口东50米,平原县,德州市,116.433923,37.170272,比德文电动汽车服务中心(平原店),山东省,15863327999,比德文
2019-09-09,032县道东50米,莘县,聊城市,115.563454,36.104429,比德文电动车专卖店(兆敏车行),山东省,无,比德文
2019-09-09,于沙路与沙任路交叉口西南50米,东昌府区,聊城市,115.797297,36.335409,比德文电动车专卖店,山东省,无,比德文
2019-09-09,青年路,临清市,聊城市,115.708189,36.837757,比德文电动车,山东省,无,比德文
2019-09-09,316省道西50米,高唐县,聊城市,116.212169,36.839055,比德文电动车,山东省,无,比德文
2019-09-09,和谐路北50米,冠县,聊城市,115.520561,36.492515,比德文电动车,山东省,无,比德文
2019-09-09,,阳谷县,聊城市,115.895354,36.130898,比德文电动车,山东省,无,比德文
2019-09-09,振兴路与朝阳路交叉口西南50米,东昌府区,聊城市,115.727951,36.417829,比德文电动车(郑家专卖店),山东省,无,比德文
2019-09-09,王古路附近,莘县,聊城市,115.646807,35.988027,比德文电动车,山东省,无,比德文
2019-09-09,254省道西50米,阳谷县,聊城市,115.833989,36.163993,江苏宗申,山东省,无,比德文
2019-09-09,利民路与324省道交叉口南150米,东阿县,聊城市,116.129760,36.214641,比德文电动车专卖店,山东省,无,比德文
2019-09-09,兴隆街与新华路交叉口东北100米,莘县,聊城市,115.668549,36.248217,比德文汽车专卖店(莘县店),山东省,无,比德文
2019-09-09,利民东路10号西50米,东昌府区,聊城市,115.992586,36.450544,比德文低碳交通馆电动自行车,山东省,13706350891,比德文
2019-09-09,环球路西150米,东阿县,聊城市,116.232691,36.331308,比德文电动车5C产品体验店,山东省,18365988986,比德文
2019-09-09,315省道北50米,临清市,聊城市,115.862574,36.898654,比德文电动车(松林旗舰店),山东省,18663520508,比德文
2019-09-09,333省道南(燕店镇中心小学西北300米),莘县,聊城市,115.606361,36.314970,比德文电动车(燕店专卖店),山东省,0635-7556777,比德文
2019-09-09,王韩路与316省道交叉口西北50米,茌平区,聊城市,116.146760,36.671435,比德文电动车,山东省,13562011697,比德文
2019-09-09,古云路与府前街交叉口西50米,莘县,聊城市,115.393494,35.811646,比德文电动车(古云专卖店),山东省,18963540788,比德文
2019-09-09,文化路与324省道交叉口西北50米,莘县,聊城市,115.631109,36.076459,比德文电动车(徐庄通顺车行),山东省,13562007928,比德文
2019-09-09,齐南路南50米,莘县,聊城市,115.501435,36.062270,比德文电动车(政府街店),山东省,无,比德文
2019-09-09,闫梁路,东昌府区,聊城市,115.891460,36.518682,比德文电动车(闫寺专卖店),山东省,无,比德文
2019-09-09,太和路附近,茌平区,聊城市,116.260558,36.594226,比德文电动车(茌平旗舰店),山东省,0635-2983158,比德文
2019-09-09,067县道北50米,高唐县,聊城市,116.360963,36.760889,比德文电动三轮车,山东省,无,比德文
2019-09-09,大众路232号,临清市,聊城市,115.705785,36.848179,比德文电动车(临清专卖店),山东省,13561292762,比德文
2019-09-09,聊郑路南50米,东昌府区,聊城市,115.795618,36.423051,比德文电动自行车,山东省,无,比德文
2019-09-09,,莘县,聊城市,115.643380,36.172692,比德文电动三轮车(十八里专卖店),山东省,无,比德文
2019-09-09,青年路西50米,冠县,聊城市,115.466853,36.404651,比德文电动三轮车(梁堂专卖店),山东省,18365791978,比德文
2019-09-09,博陵大街与清华路交叉口西南200米,茌平区,聊城市,116.114428,36.591827,比德文电动三轮车(博平5C专卖店),山东省,13963562534,比德文
2019-09-09,024县道与254省道交叉口东南50米,阳谷县,聊城市,115.846839,36.016021,比德文小岛电动车,山东省,无,比德文
2019-09-09,中天路与和谐路交叉口东100米,冠县,聊城市,115.523151,36.492268,二强爱玛比德文电动车,山东省,13963516341,比德文
2019-09-09,315省道北50米,沾化区,滨州市,117.971025,37.701461,比德文电动车,山东省,无,比德文
2019-09-09,青田路与319省道交叉口东北100米,滨城区,滨州市,117.998015,37.252974,比德文电动车,山东省,无,比德文
2019-09-09,黄河二路727-1号,滨城区,滨州市,118.021898,37.371210,比德文电动车(滨州店),山东省,无,比德文
2019-09-09,联华超市西200米421号,邹平市,滨州市,117.802528,36.815762,比德文电动自行车,山东省,无,比德文
2019-09-09,黄河二路渤海七路以东200米路北,滨城区,滨州市,118.022149,37.371130,比德文汽车(滨州店),山东省,0543-3350253,比德文
2019-09-09,会仙二路390号附近,邹平市,滨州市,117.812258,36.880497,比德文电动车,山东省,无,比德文
2019-09-09,237省道东50米,沾化区,滨州市,117.923088,37.619312,比德文电动车专卖店,山东省,无,比德文
2019-09-09,冯利路与202乡道交叉口西南50米,沾化区,滨州市,117.966608,37.787019,比德文电动车(冯家店),山东省,无,比德文
2019-09-09,319省道南50米,博兴县,滨州市,118.216749,37.256046,比德文电动车,山东省,无,比德文
2019-09-09,李庄镇兴业路与金冠路交叉口北150米,惠民县,滨州市,117.595056,37.263294,比德文电动车(新大洲本田),山东省,无,比德文
2019-09-09,乐安大街西50米,博兴县,滨州市,118.117122,37.172132,比德文(淮海车辆博兴王木专卖店),山东省,无,比德文
2019-09-09,枣乡三路27号,沾化区,滨州市,117.889927,37.704631,比德文电动车,山东省,13645432040,比德文
2019-09-09,齐东六路1150号附近,邹平市,滨州市,117.481681,37.031484,比德文电动二轮三轮车,山东省,无,比德文
2019-09-09,黄河二路渤海七路与八路之间路南,滨城区,滨州市,118.018075,37.370483,比德文电动车(滨城店),山东省,13305432855,比德文
2019-09-09,316省道南50米,滨城区,滨州市,117.830764,37.508394,比德文电动车,山东省,无,比德文
2019-09-09,南外环282号附近,邹平市,滨州市,117.747976,36.810791,比德文电动车,山东省,无,比德文
2019-09-09,321省道附近,邹平市,滨州市,117.611333,36.869049,比德文电动车(青阳旗舰店),山东省,0543-4507267,比德文
2019-09-09,黛溪三路140号附近,邹平市,滨州市,117.739256,36.886500,比德文电动三轮车,山东省,无,比德文
2019-09-09,235乡道北100米,博兴县,滨州市,118.134583,37.107074,比德文电动车,山东省,18206596641,比德文
2019-09-09,博城四路91号,博兴县,滨州市,118.135520,37.145184,比德文(博城四路店),山东省,无,比德文
2019-09-09,中心街,惠民县,滨州市,117.587585,37.361199,比德文电动三轮车,山东省,无,比德文
2019-09-09,明旺路213号附近,邹平市,滨州市,117.629617,36.927298,比德文电动三轮车,山东省,无,比德文
2019-09-09,033县道北50米,邹平市,滨州市,117.861534,36.950948,比德文电动三轮车,山东省,无,比德文
2019-09-09,建设五路与319省道交叉口西150米,博兴县,滨州市,118.279799,37.259546,比德文电动三轮车,山东省,无,比德文
2019-09-09,239省道东50米,阳信县,滨州市,117.556034,37.584154,比德文电动三轮车,山东省,无,比德文
2019-09-09,阳城四路麦克斯西餐厅,阳信县,滨州市,117.588513,37.641525,比德文电动三轮车,山东省,无,比德文
2019-09-09,幸福一路与阳城三路交叉口南100米路西,阳信县,滨州市,117.588258,37.643314,比德文电动自行车,山东省,无,比德文
2019-09-09,中心路与205国道交叉口北50米,博兴县,滨州市,118.157669,37.022139,比德文电动三轮车(曹王大连专卖店),山东省,无,比德文
2019-09-09,321省道北50米,邹平市,滨州市,117.671453,36.893545,比德文电动三轮车(韩坊专卖店),山东省,无,比德文
2019-09-09,231乡道与312省道交叉口西南150米,沾化区,滨州市,118.288524,37.829616,比德文电动三轮车(下河经销店),山东省,15866653555,比德文
2019-09-09,醴泉路与321省道交叉口东100米,邹平市,滨州市,117.628338,36.871318,顺意车行,山东省,无,比德文
2019-09-09,,郓城县,菏泽市,115.897274,35.676435,比德文电动车,山东省,无,比德文
2019-09-09,金河路西段汽车六队向东100米路北,郓城县,菏泽市,115.934024,35.591829,比德文电动车(郓城店),山东省,13346215959;13475306688,比德文
2019-09-09,G327(连菏线),牡丹区,菏泽市,115.752347,35.271931,比德文电动车(沙土店),山东省,无,比德文
2019-09-09,105国道东100米,曹县,菏泽市,115.752567,34.614878,比德文电动车,山东省,无,比德文
2019-09-09,五四路与富强路交叉口东北50米,东明县,菏泽市,115.102850,35.292564,比德文电动车(五四路店),山东省,无,比德文
