add_time,address,area,city,lat,lng,name,province,tel,topic
2019-09-09,南二环开阳里八区九号楼底商,丰台区,北京市,116.373417,39.864244,立马电动车,北京市,无,立马
2019-09-09,运河西大街30号院28号楼附近,通州区,北京市,116.637078,39.888699,立马电动车,北京市,无,立马
2019-09-09,西环路74号,昌平区,北京市,116.227228,40.218236,立马电动车,北京市,无,立马
2019-09-09,延庆镇日上批发市场商厦一楼,延庆区,北京市,116.002554,40.460887,立马电动车,北京市,无,立马
2019-09-09,雁栖小中富乐实验小学对面,怀柔区,北京市,116.638134,40.338479,立马电动车,北京市,无,立马
2019-09-09,赵登禹路与金果胡同交叉口北50米,西城区,北京市,116.367972,39.933744,立马电动车(赵登禹路),北京市,无,立马
2019-09-09,马驹桥镇马桥北街214号,通州区,北京市,116.547266,39.763006,立马电动车(北五村小区外环路),北京市,无,立马
2019-09-09,龙泉三家店东街48号,门头沟区,北京市,116.109590,39.961843,立马电动车(三家店南街店),北京市,无,立马
2019-09-09,长辛店镇北岗洼53号,丰台区,北京市,116.192858,39.794281,立马电动车(周口店路),北京市,无,立马
2019-09-09,良乡东路56号院45幢60号,房山区,北京市,116.157926,39.730638,立马电动车(良乡东路56号院店),北京市,13366435176;18911887338,立马
2019-09-09,南苑三营门东路168号,丰台区,北京市,116.403461,39.804693,立马电动车(南苑路店),北京市,13240044800,立马
2019-09-09,西绦胡同与鼓楼西大街交叉口西50米,西城区,北京市,116.380655,39.947949,立马电动车(鼓楼西大街),北京市,18511093526,立马
2019-09-09,王佐镇南宫新市场,丰台区,北京市,116.148758,39.803950,立马电动车(南宫路),北京市,无,立马
2019-09-09,兴坊路与阎河路交叉口南100米,房山区,北京市,116.055679,39.737165,立马电动车(房山专卖店),北京市,13811460989,立马
2019-09-09,龙禧二街龙禧苑二区1号楼1-16底商,昌平区,北京市,116.341850,40.086195,立马电动车(回龙观旗舰店),北京市,无,立马
2019-09-09,南庭新苑南区底商(龙腾治宇车行)B17-11,丰台区,北京市,116.367425,39.802329,立马电动车(龙腾治宇车行),北京市,15601095068,立马
2019-09-09,黑山扈路与黑龙潭路交叉口西北100米,海淀区,北京市,116.256932,40.042976,立马电动车(西北旺旗舰店),北京市,13661341064,立马
2019-09-09,黄鹅路21号附近,大兴区,北京市,116.299071,39.748829,立马电动车(黄鹅路店),北京市,无,立马
2019-09-09,长安东区3号楼,密云区,北京市,116.843401,40.369926,立马电动车(檀洲家园东区店),北京市,010-89086323,立马
2019-09-09,月华南大街19号附近,房山区,北京市,116.118698,39.730487,立马电动车(东沿村南街),北京市,无,立马
2019-09-09,城关街道农林路6号,房山区,北京市,115.984728,39.688523,立马电动车(祺兴缘家园南),北京市,无,立马
2019-09-09,黄徐路55附近,大兴区,北京市,116.345203,39.715557,立马电动车(黄徐路),北京市,无,立马
2019-09-09,渔阳新平东路86号(百迪宾馆旁边),平谷区,北京市,117.124033,40.136008,立马电动车(建设街),北京市,18611377357,立马
2019-09-09,西外街辅路北150米,顺义区,北京市,116.645144,40.138291,立马电动车(顺义西门专卖店),北京市,无,立马
2019-09-09,石榴园南里7号楼底商,丰台区,北京市,116.416709,39.845553,立马电动车(石榴庄路),北京市,无,立马
2019-09-09,欣荣北大街与黄陈路交叉口东北150米,丰台区,北京市,116.335119,39.802976,立马电动车(黄陈路),北京市,无,立马
2019-09-09,麻峪东街与麻峪村路交叉口东南100米,石景山区,北京市,116.128552,39.936356,立马电动车(麻峪东街店),北京市,13011012150,立马
2019-09-09,顺沙路与秦上路交汇处西60米,昌平区,北京市,116.391453,40.176084,立马电动车商城(顺沙路辅路店),北京市,18911787116,立马
2019-09-09,盛嘉华苑,大兴区,北京市,116.353830,39.736476,踏浪电动车(团河路),北京市,18911667182,立马
2019-09-09,内环东路与昌崔路交叉口南100米路东,昌平区,北京市,116.288318,40.219103,立马电动车维修(内环东路店),北京市,13051515197,立马
2019-09-09,德胜门内大街169号,西城区,北京市,116.378997,39.942132,宝岛电动车(德胜门内大街),北京市,18810066525,立马
2019-09-09,瑞蚨春酒楼北90米(密三路西),平谷区,北京市,117.014984,40.188180,小雨电动车,北京市,010-61902762,立马
2019-09-09,水磨中街新区21号(立马电动车对面),海淀区,北京市,116.315469,40.003134,哈哈镜(中关村店),北京市,13366328693;4000175886,立马
2019-09-09,新开口十全饰美(新开口路南),宝坻区,天津市,117.195606,39.679600,立马电动车,天津市,无,立马
2019-09-09,黑豆窝开发区顺发路9号,宝坻区,天津市,117.280585,39.704256,立马电动车,天津市,无,立马
2019-09-09,蓟州区安裕新村(四正街东),蓟州区,天津市,117.413183,40.037236,立马电动车(四正街),天津市,无,立马
2019-09-09,南城路与纪家园路交叉口西南50米,宝坻区,天津市,117.304619,39.723286,树栢商城,天津市,无,立马
2019-09-09,四正街立马电动车旁,蓟州区,天津市,117.413598,40.038001,董记熟食笨鸡,天津市,13032298848,立马
2019-09-09,建明北路与煤机街交叉口北100米,长安区,石家庄市,114.550353,38.041426,立马电动车,河北省,无,立马
2019-09-09,裕华东路167号,长安区,石家庄市,114.562765,38.036928,立马电动车,河北省,无,立马
2019-09-09,,无极县,石家庄市,114.956768,38.127026,立马电动车,河北省,无,立马
2019-09-09,藁城区,藁城区,石家庄市,114.715046,38.153237,立马电动车,河北省,无,立马
2019-09-09,胜利南街353东北100米,裕华区,石家庄市,114.495204,37.990581,立马电动车,河北省,无,立马
2019-09-09,时光街90附近,桥西区,石家庄市,114.428534,38.030503,立马电动车,河北省,无,立马
2019-09-09,市庄路与电大街交叉口东北50米,新华区,石家庄市,114.458085,38.063135,立马电动车,河北省,无,立马
2019-09-09,小康路45附近,栾城区,石家庄市,114.587178,37.832414,立马电动车,河北省,无,立马
2019-09-09,联盟路兄弟车行357号,新华区,石家庄市,114.472601,38.079288,立马电动车,河北省,15233618858;15833217163,立马
2019-09-09,井元公路与红旗北大街交叉口北150米,元氏县,石家庄市,114.476429,37.835378,立马电动车,河北省,无,立马
2019-09-09,008县道东50米,正定县,石家庄市,114.676023,38.209448,立马电动车,河北省,无,立马
2019-09-09,藁城区006县道与392省道交叉口南150米,藁城区,石家庄市,114.822947,37.895892,立马电动车,河北省,无,立马
2019-09-09,政府路与201省道交叉口西南50米,灵寿县,石家庄市,114.325568,38.450790,立马电动车,河北省,无,立马
2019-09-09,652乡道西50米,新乐市,石家庄市,114.798490,38.473160,立马电动车,河北省,无,立马
2019-09-09,方兴路66号西70米,裕华区,石家庄市,114.569478,37.990184,立马电动车,河北省,无,立马
2019-09-09,054县道与234省道交叉口东150米,无极县,石家庄市,114.972978,38.242947,立马电动车,河北省,无,立马
2019-09-09,汇平路与红旗大街交叉口北150米,桥西区,石家庄市,114.460077,37.998106,立马电动车,河北省,无,立马
2019-09-09,南甸镇敬业商城南,平山县,石家庄市,114.127243,38.386673,立马电动车,河北省,无,立马
2019-09-09,705乡道东50米,无极县,石家庄市,114.879121,38.130541,立马电动车,河北省,无,立马
2019-09-09,向阳街与205省道交叉口西80米,鹿泉区,石家庄市,114.282048,38.191658,立马电动车,河北省,13073116742,立马
2019-09-09,六顺街与商贸路交叉口东北50米,新华区,石家庄市,114.470741,38.112247,立马电动车,河北省,13081082939,立马
2019-09-09,010县道东50米,高邑县,石家庄市,114.540445,37.649194,立马电动车,河北省,13231132213,立马
2019-09-09,703乡道与956县道交叉口南150米,无极县,石家庄市,114.923225,38.095949,立马电动车,河北省,无,立马
2019-09-09,新开路与107国道交叉口东南50米,元氏县,石家庄市,114.523741,37.860116,立马电动车,河北省,无,立马
2019-09-09,依山花园南区公交站(大寨路东),鹿泉区,石家庄市,114.424949,37.984031,立马电动车,河北省,18833158821,立马
2019-09-09,宝联商城平山店1楼东南方向25米,平山县,石家庄市,114.204637,38.257007,立马电动车,河北省,无,立马
2019-09-09,机场路与303省道交叉口东南50米,正定县,石家庄市,114.685691,38.259316,立马电动车,河北省,15103219616,立马
2019-09-09,建华南大街与东岗路交口南行1000米路西(立马电动车),裕华区,石家庄市,114.546630,38.010161,立马电动车(建华南大街),河北省,无,立马
2019-09-09,和平西路135-5号,新华区,石家庄市,114.487750,38.055983,立马电动车(和平家园东南),河北省,无,立马
2019-09-09,光华路民心河西行100米,长安区,石家庄市,114.538369,38.059235,立马电动车(光华路),河北省,无,立马
2019-09-09,无极镇无极路36号红绿灯往西走100米路南,无极县,石家庄市,114.970766,38.176918,立马电动车(无极县商务局南),河北省,13483165891,立马
2019-09-09,302省道南面,无极县,石家庄市,115.052373,38.182279,立马电动车(七级店),河北省,13930425430,立马
2019-09-09,鲜虞巷与鲜虞街交叉口北100米,新乐市,石家庄市,114.691599,38.344996,立马电动车(鲜虞街),河北省,无,立马
2019-09-09,107国道与392省道交叉口东北100米,栾城区,石家庄市,114.515287,37.899595,立马电动车(商贸路店),河北省,无,立马
2019-09-09,人民东路132(近正南南大街),灵寿县,石家庄市,114.389503,38.308937,立马电动车(人民东路店),河北省,无,立马
2019-09-09,微水镇河边西路12号,井陉县,石家庄市,114.140065,38.032364,立马电动车(河边西路店),河北省,无,立马
2019-09-09,火神庙街与镇宁路交叉口西南50米,鹿泉区,石家庄市,114.317314,38.086811,立马电动车(镇宁路),河北省,13363845381,立马
2019-09-09,栾城区天元通讯南50米(新开大街西),栾城区,石家庄市,114.656205,37.882322,立马电动车(新开大街店),河北省,无,立马
2019-09-09,蟠龙路52-4号,元氏县,石家庄市,114.536376,37.758658,立马电动车(蟠龙路店),河北省,无,立马
2019-09-09,中山西路与兴华街交叉口东南150米,鹿泉区,石家庄市,114.384839,38.036134,立马电动车(兴华街店),河北省,无,立马
2019-09-09,建设东大街与文昌路交叉口东100米,辛集市,石家庄市,115.226156,37.918128,立马电动车(建设东大街店),河北省,无,立马
2019-09-09,藁城区,藁城区,石家庄市,114.696573,38.041706,立马电动车(富强大街),河北省,无,立马
2019-09-09,龙州镇香港路133号,行唐县,石家庄市,114.563622,38.441604,立马电动车(香港路),河北省,13832173982,立马
2019-09-09,开泰街与三简路交叉口南行200米路东,桥西区,石家庄市,114.431869,38.059241,立马电动车(留营店),河北省,13780414580,立马
2019-09-09,建北街道胜利北大街267号一层门市,长安区,石家庄市,114.514665,38.078575,立马电动车(胜利店),河北省,无,立马
2019-09-09,西二环槐安路交叉口东行100米路南,桥西区,石家庄市,114.477703,38.032460,立马电动车(中华南大街),河北省,无,立马
2019-09-09,槐安西路246号振岗小区底商(如家快捷酒店东200米),桥西区,石家庄市,114.439345,38.024160,上海立马电动车,河北省,无,立马
2019-09-09,南村镇石丰路董家庄公交站西北50米,长安区,石家庄市,114.647141,38.075712,上海立马电动车(石丰路),河北省,无,立马
2019-09-09,石丰路与石兆街交叉口西100米,长安区,石家庄市,114.598346,38.075276,上海立马电动车(石丰路),河北省,无,立马
2019-09-09,德裕商务宾馆西南80米(唐相北街东),赞皇县,石家庄市,114.389552,37.664406,上海立马电动车(赞皇县交通运输局西南),河北省,无,立马
2019-09-09,204省道东50米,藁城区,石家庄市,114.743637,38.254558,上海立马电动车(藁城市国土资源局增村国土所南),河北省,无,立马
2019-09-09,"跃进路与谈固大街交口西行100米路南,西红柿KTV斜对面",长安区,石家庄市,114.560775,38.049580,立马电动车行,河北省,无,立马
2019-09-09,槐安路1号华夏电动车市场,桥西区,石家庄市,114.495214,38.023153,上海立马电动车(槐安东路),河北省,无,立马
2019-09-09,谈固街道中山东路658号上海立马电动车专卖,长安区,石家庄市,114.581825,38.043859,上海立马电动车专卖(中山东路店),河北省,无,立马
2019-09-09,新开西路247号,新乐市,石家庄市,114.678502,38.346274,电动车专卖,河北省,无,立马
2019-09-09,008县道东50米,正定县,石家庄市,114.676019,38.209530,金鹏电动三轮车,河北省,无,立马
2019-09-09,果岭湾28号楼对过立马电动车车,鹿泉区,石家庄市,114.361438,38.063201,小甄电动车行,河北省,无,立马
2019-09-09,槐泉东路(上海立马电动车东侧30米),赞皇县,石家庄市,114.390090,37.664014,雅迪电动车(赞皇县交通运输局西南),河北省,13784392017,立马
2019-09-09,开泰街与三简路交叉口南行200米路东,桥西区,石家庄市,114.431712,38.059275,上海凤凰自行车,河北省,13780414580,立马
2019-09-09,栾窦公路与017县道交叉口东100米路北,栾城区,石家庄市,114.573717,37.882494,上海立马,河北省,13630825302,立马
2019-09-09,红旗北大街399号附近,元氏县,石家庄市,114.476420,37.835477,因村盛达,河北省,无,立马
2019-09-09,井改县城育才街16号(立马电动车附近),井陉县,石家庄市,114.139868,38.032511,鼎缘火锅,河北省,15030186517,立马
2019-09-09,槐阳镇蟠龙路38号(蟠龙佳苑立马电动车对面),元氏县,石家庄市,114.536134,37.759032,陶记老北京特色烧饼,河北省,15175680088,立马
2019-09-09,榛子镇迁曹线石郎庄站东400米,滦州市,唐山市,118.364130,39.863645,立马电动车,河北省,无,立马
2019-09-09,喜峰中路与林茂街交叉口东南100米,迁西县,唐山市,118.305563,40.151805,立马电动车,河北省,无,立马
2019-09-09,迁唐公路西50米,滦州市,唐山市,118.384096,39.919195,立马电动车,河北省,无,立马
2019-09-09,迁安镇青大路东侧万嘉商贸园1-4-9,迁安市,唐山市,118.722800,40.026708,立马电动车店,河北省,无,立马
2019-09-09,034乡道与205国道交叉口西150米,卢龙县,秦皇岛市,118.849501,39.730105,上海立马电动车,河北省,无,立马
2019-09-09,康乾街与都阳路交叉口西100米,青龙满族自治县,秦皇岛市,118.948349,40.400631,上海立马电动车(康乾街),河北省,无,立马
2019-09-09,青龙镇旅游桥与都阳路金天马沐浴西100米,青龙满族自治县,秦皇岛市,118.948275,40.400717,五星里马电动车,河北省,无,立马
2019-09-09,194乡道附近,武安市,邯郸市,114.247952,36.780328,立马电动车,河北省,无,立马
2019-09-09,163乡道西100米,峰峰矿区,邯郸市,114.268086,36.475641,立马电动车,河北省,无,立马
2019-09-09,小海路与龙山大街交叉口南50米,涉县,邯郸市,113.669969,36.556817,立马电动车,河北省,无,立马
2019-09-09,龙井大街东50米,涉县,邯郸市,113.743601,36.615793,立马电动车,河北省,无,立马
2019-09-09,,鸡泽县,邯郸市,114.780861,36.886614,立马电动车,河北省,无,立马
2019-09-09,和村香醋街与邢峰公路交叉口南150米,峰峰矿区,邯郸市,114.125784,36.538347,立马电动车,河北省,无,立马
2019-09-09,城东街与城南街交叉口西北50米,丛台区,邯郸市,114.488061,36.605779,立马电动车,河北省,无,立马
2019-09-09,鸡泽镇人民西路156号,鸡泽县,邯郸市,114.872931,36.909723,立马电动车,河北省,无,立马
2019-09-09,广平镇长春大道北段广平汽车公交站南,广平县,邯郸市,114.949442,36.464996,立马电动车,河北省,无,立马
2019-09-09,临水镇通安路,峰峰矿区,邯郸市,114.212072,36.413145,立马电动车,河北省,15232809309,立马
2019-09-09,鼓山南街10号西100米,峰峰矿区,邯郸市,114.208026,36.422933,立马电动车,河北省,无,立马
2019-09-09,107国道东50米,邯山区,邯郸市,114.432321,36.477208,立马电动车,河北省,无,立马
2019-09-09,邯馆公路与073乡道交叉口北150米,肥乡区,邯郸市,114.986215,36.557398,立马电动车,河北省,无,立马
2019-09-09,观台镇观台医院东南,磁县,邯郸市,114.109106,36.309997,立马电动车(观台专卖),河北省,13613209810,立马
2019-09-09,邯馆公路北50米,广平县,邯郸市,115.038406,36.554579,立马电动车(小松专卖店),河北省,无,立马
2019-09-09,202省道南50米,武安市,邯郸市,113.904837,36.731043,立马电动车(阳邑专卖店),河北省,15832012444,立马
2019-09-09,从峰线附近,磁县,邯郸市,114.220670,36.287010,立马电动车(岳城店),河北省,无,立马
2019-09-09,桥西路195号,武安市,邯郸市,114.207520,36.688142,立马电动车(桥西路店),河北省,13111332848,立马
2019-09-09,人民西路158号附近,鸡泽县,邯郸市,114.870081,36.909828,上海立马电动车(鸡泽专卖店),河北省,15233816112,立马
2019-09-09,中山西路90-2号,磁县,邯郸市,114.380725,36.360424,上海立马(中山西路店),河北省,无,立马
2019-09-09,立马电动车清化郭栋车行,武安市,邯郸市,114.289049,36.704401,立马电动车专卖,河北省,15613026305,立马
2019-09-09,大名府路立马电动车西北侧30米,大名县,邯郸市,115.175385,36.281649,车来车往汽车具乐部(售后服务店),河北省,15100039203,立马
2019-09-09,新邯武公路南50米,武安市,邯郸市,114.286342,36.704908,郭栋车行,河北省,15613026305,立马
2019-09-09,323省道北50米,邢台县,邢台市,113.947522,37.092722,立马电动车,河北省,无,立马
2019-09-09,251县道米扬净化电器旁,临城县,邢台市,114.607087,37.456718,立马电动车,河北省,无,立马
2019-09-09,253县道北50米,任县,邢台市,114.813828,37.116713,立马电动车,河北省,无,立马
2019-09-09,064乡道与322省道交叉口西北150米,邢台县,邢台市,114.232065,37.142488,立马电动车,河北省,无,立马
2019-09-09,355乡道与356乡道交叉口西100米,南和县,邢台市,114.831075,36.997740,立马电动车,河北省,无,立马
2019-09-09,岗北一街与358乡道交叉口东南50米,南和县,邢台市,114.649829,37.000467,立马电动车,河北省,15075978306,立马
2019-09-09,322省道南50米,邢台县,邢台市,114.407545,37.060321,立马电动车,河北省,无,立马
2019-09-09,振兴东路129号,内丘县,邢台市,114.524671,37.285371,立马电动车,河北省,无,立马
2019-09-09,褡石街与854乡道交叉口东南200米,沙河市,邢台市,114.300890,36.881151,立马电动车,河北省,13785954410,立马
2019-09-09,325省道新飞电器北20米,威县,邢台市,115.474439,37.066662,立马电动车,河北省,无,立马
2019-09-09,新华路451号,隆尧县,邢台市,114.770009,37.348219,立马电动车,河北省,13483982098,立马
2019-09-09,凤岗街道南大街印刷厂北邻,南宫市,邢台市,115.382860,37.357486,立马电动车(南街店),河北省,0319-5222306,立马
2019-09-09,长安大街与234省道交叉口东北100米,平乡县,邢台市,115.008407,36.977472,立马电动车&金彭电动三轮车(常河镇专卖店),河北省,0319-7918997;13833960882,立马
2019-09-09,建设大街165号,南和县,邢台市,114.697108,37.007358,上海立马电动车(建设大街),河北省,无,立马
2019-09-09,308国道与新兴街交叉口南侧70米路西,新河县,邢台市,115.243727,37.522455,上海立马电动车(新兴街),河北省,13831945156,立马
2019-09-09,326省道南50米,平乡县,邢台市,114.922847,36.975556,立马电动车老平乡旗舰店,河北省,无,立马
2019-09-09,,徐水区,保定市,115.544720,39.044067,立马电动车,河北省,无,立马
2019-09-09,237省道东50米,顺平县,保定市,115.066163,38.939921,立马电动车,河北省,无,立马
2019-09-09,涞水镇德成路152号,涞水县,保定市,115.698605,39.395308,立马电动车,河北省,无,立马
2019-09-09,233省道西50米,安国市,保定市,115.327606,38.290684,立马电动车,河北省,15613200321,立马
2019-09-09,满城区通济街与232省道交叉口北100米,满城区,保定市,115.318106,38.946036,立马电动车,河北省,无,立马
2019-09-09,容城镇金台西路53号,容城县,保定市,115.863544,39.051454,立马电动车,河北省,无,立马
2019-09-09,古遂东路北50米,徐水区,保定市,115.541556,39.045253,立马电动车,河北省,无,立马
2019-09-09,涞源镇沙河大街佰汇品牌特惠广场,涞源县,保定市,114.689879,39.349994,立马电动车(广昌大街店),河北省,无,立马
2019-09-09,237省道东50米,顺平县,保定市,115.097147,38.966682,立马电动车(顺平县导务专卖),河北省,无,立马
2019-09-09,永旺路与232省道交叉口东50米,顺平县,保定市,115.215374,38.887489,立马电动车(永旺路店),河北省,无,立马
2019-09-09,复兴路徐水区大王店中学西南200米,徐水区,保定市,115.439709,39.060687,立马电动车(大王店专卖店),河北省,无,立马
2019-09-09,232省道西50米,曲阳县,保定市,114.739604,38.669829,立马电动车(董家马卫生院西南),河北省,15903124160;13784438734,立马
2019-09-09,健卫路与向阳南大街交叉口北200米,唐县,保定市,114.981078,38.739752,立马电动车(向阳南大街),河北省,无,立马
2019-09-09,兴阳路和卫生街的交叉口附近,高阳县,保定市,115.781181,38.689155,立马电动车(兴阳路),河北省,无,立马
2019-09-09,知味坊街与范阳中路交叉口南50米,涿州市,保定市,116.023661,39.484579,立马电动车(知味坊街),河北省,无,立马
2019-09-09,西大街257,莲池区,保定市,115.497230,38.861408,立马(西大街),河北省,无,立马
2019-09-09,308县道西50米,满城区,保定市,115.302908,38.833717,上海立马电动车,河北省,无,立马
2019-09-09,竞秀区七一西路184号,竞秀区,保定市,115.455775,38.881728,上海立马电动车(七一西路),河北省,无,立马
2019-09-09,唐王线南50米,唐县,保定市,115.004269,38.665566,立马电动车&小鸟电动车,河北省,无,立马
2019-09-09,德成路152号,涞水县,保定市,115.698713,39.395287,立马电动车涞水县德成路152,河北省,无,立马
2019-09-09,332省道南50米,满城区,保定市,115.047799,39.027279,立马电动车高士庄总经销,河北省,0312-7099056,立马
2019-09-09,京昆高速解村附近,徐水区,保定市,115.483295,39.111771,宝岛三轮专卖店,河北省,0312-8998656;13932244326,立马
2019-09-09,西宁路31附近,阳原县,张家口市,114.152103,40.105093,立马电动车,河北省,无,立马
2019-09-09,致富街与172乡道交叉口西50米,宣化区,张家口市,115.164310,40.583397,立马电动车(左家营专卖店),河北省,无,立马
2019-09-09,112国道西50米,宣化区,张家口市,115.038440,40.579617,立马电动车(宣化盐政管理所西),河北省,13131329117,立马
2019-09-09,人民南街与西关路南侧,涿鹿县,张家口市,115.216127,40.369959,上海立马电动车(涿鹿旗舰店),河北省,无,立马
2019-09-09,兴华西路与民建北街交叉口东北150米,张北县,张家口市,114.710907,41.158348,立马电车,河北省,无,立马
2019-09-09,名仕乐居小区农村信用社旁立马电动车,桥西区,张家口市,114.872910,40.773692,骑友配件,河北省,13131330951,立马
2019-09-09,名仕乐居底商,桥西区,张家口市,114.873013,40.773565,立马电动车鑫骑友电动车摩托车配件经销部,河北省,无,立马
2019-09-09,112国道立马电动车旁,宣化区,张家口市,115.038442,40.579622,金宝二手车,河北省,13785343744,立马
2019-09-09,西大街(吉利干洗店旁),兴隆县,承德市,117.493769,40.413152,立马电动车(兴隆专卖店),河北省,13832430396,立马
2019-09-09,第四小学东100米(金牛路东),承德县,承德市,118.159968,40.761868,立马电动车专卖店,河北省,无,立马
2019-09-09,西大街立马电动车斜对过,兴隆县,承德市,117.494160,40.413336,松下灯具开关,河北省,无,立马
2019-09-09,西大街立马电动车旁,兴隆县,承德市,117.493630,40.413487,修电机水泵,河北省,13932433852;15831481291,立马
2019-09-09,兴民街与海政路交叉口西150米,海兴县,沧州市,117.505237,38.143445,立马电动车,河北省,无,立马
2019-09-09,苏基镇政府(海政路北),海兴县,沧州市,117.506622,38.143847,立马电动车,河北省,无,立马
2019-09-09,大河路北100米,任丘市,沧州市,116.313123,38.792637,辛安庄(京东便利店),河北省,18232772143,立马
2019-09-09,胜芳镇崔庄子附近,霸州市,廊坊市,116.676959,39.077969,立马电动车,河北省,无,立马
2019-09-09,永泰路87西南60米,香河县,廊坊市,117.028466,39.743300,立马电动车,河北省,无,立马
2019-09-09,高楼镇高楼大街七色光双语艺术幼儿园,三河市,廊坊市,116.874421,40.002548,立马电动车,河北省,15128670650,立马
2019-09-09,爱民道卫生局39号综合楼6号,广阳区,廊坊市,116.697342,39.526384,立马电动车(廊坊市安次区卫生局东),河北省,0316-5125969,立马
2019-09-09,冶金路271号附近,三河市,廊坊市,116.826512,39.936911,立马电动车(冶金路),河北省,无,立马
2019-09-09,爱民东道与迎春路交叉口东南50米,广阳区,廊坊市,116.700723,39.526655,立马电动车(廊坊市安次区档案局东北),河北省,无,立马
2019-09-09,左各庄镇政府路黄元百货商场,文安县,廊坊市,116.624752,39.014160,上海立马电动车,河北省,无,立马
2019-09-09,创业路,文安县,廊坊市,116.610389,38.970470,河北立马电动车厂,河北省,无,立马
2019-09-09,爱民东道与迎春路交叉口东南50米,广阳区,廊坊市,116.700724,39.526655,立马电动车6S客服中心,河北省,无,立马
2019-09-09,淑阳大街47-2号附近,香河县,廊坊市,117.003746,39.759500,上海永久自行车电动车(羽翔电动车),河北省,无,立马
2019-09-09,新开路28号,武强县,衡水市,115.968378,38.038709,立马电动车,河北省,无,立马
2019-09-09,武邑镇腾达北大街190号,武邑县,衡水市,115.888667,37.807303,立马电动车(腾达北大街店),河北省,无,立马
2019-09-09,161乡道与233省道交叉口南150米,冀州区,衡水市,115.247286,37.624608,上海立马电动车,河北省,15031834534,立马
2019-09-09,西半屯村附近,故城县,衡水市,115.865258,37.194385,立马车业(西半屯店),河北省,15933852761,立马
2019-09-09,体育路与王村南街十字路口东北角电动车大卖场,小店区,太原市,112.569320,37.831136,立马电动车,山西省,无,立马
2019-09-09,真武路金湾酒店北侧50米,小店区,太原市,112.575361,37.726370,立马电动车,山西省,13834149855,立马
2019-09-09,体育西路与寇庄北街交叉口东北100米,小店区,太原市,112.564573,37.837392,立马电动车,山西省,无,立马
2019-09-09,长风西街街道小王村万博摩托城B区133号,万柏林区,太原市,112.525948,37.834450,立马电动车,山西省,无,立马
2019-09-09,敦化南路134号顶好交易市场F5号,杏花岭区,太原市,112.591102,37.885248,立马电动车,山西省,15536947029,立马
2019-09-09,平阳路怡安电动车市场d区17号,小店区,太原市,112.549929,37.804437,立马电动车,山西省,无,立马
2019-09-09,,尖草坪区,太原市,112.536767,37.956194,立马电动车,山西省,无,立马
2019-09-09,,杏花岭区,太原市,112.569206,37.906674,立马电动车,山西省,无,立马
2019-09-09,西矿街143附近,万柏林区,太原市,112.491558,37.862052,立马电动车,山西省,无,立马
2019-09-09,经园路与郝家沟街交叉口东北100米,迎泽区,太原市,112.612358,37.859572,立马电动车,山西省,无,立马
2019-09-09,大东关塑料三厂一号楼四单元,杏花岭区,太原市,112.592494,37.874127,立马电动车,山西省,13453193885,立马
2019-09-09,永祚寺路与郝庄兴业路交叉口西南150米,迎泽区,太原市,112.593298,37.853263,立马电动车,山西省,15834023283;15534461021,立马
2019-09-09,金牛西大街15号,古交市,太原市,112.167605,37.913691,立马电动车(金牛大街),山西省,无,立马
2019-09-09,人民南路与惠远西街交叉口东南100米,小店区,太原市,112.569072,37.732321,立马电动车(小店专卖店),山西省,无,立马
2019-09-09,解放路173号,杏花岭区,太原市,112.562171,37.883575,立马电动车(解放路店),山西省,15034143452,立马
2019-09-09,和平北路新华街口万柏林体育场东门南,万柏林区,太原市,112.509535,37.888892,立马电动车专卖店,山西省,无,立马
2019-09-09,孟封镇附近,清徐县,太原市,112.366592,37.495737,立马电动车行,山西省,无,立马
2019-09-09,农村信用社北格信用社西北,小店区,太原市,112.538651,37.635693,兵兵车行(小牛线),山西省,无,立马
2019-09-09,恆山北路东150米,浑源县,大同市,113.698119,39.702463,立马电动车,山西省,无,立马
2019-09-09,永泰南路166号附近,平城区,大同市,113.302468,40.062000,南关立马摩托电动车维修站,山西省,无,立马
2019-09-09,梅竹花园北60米(青银高速公路南),平定县,阳泉市,113.595750,37.772669,立马电动车,山西省,无,立马
2019-09-09,秀水镇金龙街北关村2号楼,盂县,阳泉市,113.414482,38.091994,立马电动车(金龙东街),山西省,13363536322,立马
2019-09-09,东大街南50米,平定县,阳泉市,113.643458,37.788687,新飞立马电动车,山西省,0353-6071980;13111137795,立马
2019-09-09,丰州路与宝塔街交叉口北100米,武乡县,长治市,112.858843,36.838382,立马电动车,山西省,无,立马
2019-09-09,228省道皇明太阳能旁,长子县,长治市,112.866546,36.252931,立马电动车,山西省,18636592507,立马
2019-09-09,222省道西50米,沁源县,长治市,112.225197,36.782490,立马电动车(聪子峪乡人民政府北),山西省,无,立马
2019-09-09,309国道东50米,潞城区,长治市,113.138952,36.354739,立马电动车(黄漳专卖店),山西省,无,立马
2019-09-09,004乡道与102省道交叉口南100米,潞州区,长治市,113.094485,36.288309,立马电动车(004乡道店),山西省,无,立马
2019-09-09,220省道与644县道交叉口西北150米,沁县,长治市,112.747189,36.635089,立马电动车(新店村卫生二所南),山西省,无,立马
2019-09-09,府东南路103号,潞城区,长治市,113.230035,36.327811,立马电动车(潞城市专卖店),山西省,无,立马
2019-09-09,北大街与新建路交叉口北50米,壶关县,长治市,113.210458,36.118354,立马电动车(北大街店),山西省,13994621917,立马
2019-09-09,208国道西50米,襄垣县,长治市,112.970953,36.440645,立马电动车一部,山西省,无,立马
2019-09-09,凤凰街北50米,长子县,长治市,112.770894,36.097262,上海立马电动车(石哲镇专卖店),山西省,无,立马
2019-09-09,人民路沁园春景对面,沁源县,长治市,112.342838,36.494705,上海立马电动车(北门街店),山西省,13994666635,立马
2019-09-09,大东路附近,黎城县,长治市,113.413656,36.739186,上海立马电动车(黎城西井专卖店),山西省,无,立马
2019-09-09,常兴街与691县道交叉口西北100米,长子县,长治市,112.837829,36.140316,常张立马电动车家电行,山西省,无,立马
2019-09-09,胜利路西50米,沁源县,长治市,112.337586,36.488938,沃雷顿自行车沁源店立马电动车二部,山西省,13223659634;18634550586,立马
2019-09-09,友谊街38东北50米,沁县,长治市,112.699095,36.763710,立马电动车售后服务中心,山西省,无,立马
2019-09-09,新市西街金厦银座,城区,晋城市,112.840221,35.499758,立马电动车(金厦银座店),山西省,无,立马
2019-09-09,东华路与新坛路交叉口东北100米,阳城县,晋城市,112.436497,35.482424,立马电动车(阳城旗舰店),山西省,13152765559,立马
2019-09-09,公路街16-17号,泽州县,晋城市,112.685898,35.534143,立马电动车(川底专卖店),山西省,13834902218,立马
2019-09-09,建设南路明星小学对面,高平市,晋城市,112.927953,35.778345,立马电动车专卖店,山西省,无,立马
2019-09-09,园区中央大道北200米,阳城县,晋城市,112.572069,35.473534,立马电动车童车自行车,山西省,13613562784,立马
2019-09-09,泫氏东街立马电动车二部,高平市,晋城市,112.933516,35.790198,晋丰车行,山西省,13209872227,立马
2019-09-09,张兰镇张板路,介休市,晋中市,112.075943,37.131897,立马电动车,山西省,无,立马
2019-09-09,城赵镇花园路东42号,祁县,晋中市,112.447033,37.382387,立马电动车,山西省,13453227660,立马
2019-09-09,新建西路114号附近,介休市,晋中市,111.920854,37.020921,立马电动车,山西省,无,立马
2019-09-09,下城街与343县道交叉口西南100米,昔阳县,晋中市,113.709213,37.612370,立马电动车,山西省,无,立马
2019-09-09,花园路东42号,榆次区,晋中市,112.745944,37.682515,立马电动车(花园路),山西省,无,立马
2019-09-09,信合大厦(左权县人民医院东南),左权县,晋中市,113.379007,37.080031,立马电动车(左权店),山西省,0354-8633169;13509746444,立马
2019-09-09,朝阳镇福田路昌盛花园(鼎尚时代广场西),寿阳县,晋中市,113.180957,37.888415,立马电动车(福田路),山西省,无,立马
2019-09-09,景区北路与财源东路交叉口东南50米,祁县,晋中市,112.445633,37.385758,上海立马电动车,山西省,无,立马
2019-09-09,108国道与914县道交叉口南100米,榆次区,晋中市,112.684789,37.539999,立马电动车东阳万元家电二部,山西省,13283547779,立马
2019-09-09,108国道与914县道交叉口南100米,榆次区,晋中市,112.684834,37.540051,立马电动车大运摩托车,山西省,无,立马
2019-09-09,G521(运永线),盐湖区,运城市,110.769287,34.892942,立马电动车,山西省,无,立马
2019-09-09,237省道与238省道交叉口西北150米,万荣县,运城市,110.648240,35.436325,立马电动车,山西省,无,立马
2019-09-09,华泰路东50米,芮城县,运城市,110.708550,34.687443,立马电动车,山西省,无,立马
2019-09-09,003乡道与019乡道交叉口西南100米,夏县,运城市,111.196627,35.096465,立马电动车,山西省,无,立马
2019-09-09,828县道南50米,盐湖区,运城市,110.886370,34.990040,立马电动车,山西省,无,立马
2019-09-09,绛山西街52号,绛县,运城市,111.569883,35.491430,立马电动车,山西省,18235990899;15135962896,立马
2019-09-09,府大街与799县道交叉口北200米,新绛县,运城市,111.212663,35.634458,立马电动车,山西省,无,立马
2019-09-09,017乡道与831县道交叉口南100米,平陆县,运城市,111.078226,34.829126,立马电动车,山西省,无,立马
2019-09-09,平安街与839县道交叉口西南50米,闻喜县,运城市,111.225071,35.351533,立马电动车,山西省,13934863966,立马
2019-09-09,232省道与844县道交叉口南100米,闻喜县,运城市,111.175613,35.300871,立马电动车,山西省,无,立马
2019-09-09,043乡道南150米,万荣县,运城市,110.716862,35.289739,立马电动车,山西省,15333048410,立马
2019-09-09,016乡道西50米,闻喜县,运城市,111.308480,35.431378,立马电动车,山西省,13453909878,立马
2019-09-09,迎新东街家电市场西一排,永济市,运城市,110.450176,34.869928,立马电动车,山西省,无,立马
2019-09-09,风陵渡镇风陵渡镇开发区摩托街,芮城县,运城市,110.321094,34.639369,立马电动车,山西省,无,立马
2019-09-09,五一街与傅岩路交叉口西北50米,平陆县,运城市,111.218456,34.838735,立马电动车,山西省,无,立马
2019-09-09,工农西街醉八仙西40米,盐湖区,运城市,110.981597,35.033243,立马电动车(工农西街北一巷),山西省,15235662277,立马
2019-09-09,禹都四区西楼,盐湖区,运城市,111.024688,35.051537,立马电动车(西片社区卫生服务站南),山西省,无,立马
2019-09-09,232省道西50米,夏县,运城市,111.218558,35.131700,立马电动车(夏县劳动和社会保障局南),山西省,无,立马
2019-09-09,禹都经济技术开发区豪德贸易广场七区中心街12号,盐湖区,运城市,111.045769,35.093059,立马电动车(空港乾得龙店),山西省,13593585224,立马
2019-09-09,233省道与803县道交叉口北150米,稷山县,运城市,111.014919,35.655201,立马电动车(西社镇中心卫生院东),山西省,13720996575,立马
2019-09-09,圣惠南路49号,盐湖区,运城市,110.980546,35.009822,立马电动车(盐湖区西城财政所东北),山西省,无,立马
2019-09-09,荣河镇荣庙线汾馨嘉园西350米,万荣县,运城市,110.556364,35.357514,立马电动车(汾馨嘉园店),山西省,无,立马
2019-09-09,新建街与233省道交叉口东北50米,稷山县,运城市,110.904020,35.494876,立马电动车(新建街),山西省,13935911812,立马
2019-09-09,水头镇西街,夏县,运城市,111.117978,35.235480,王派立马电动车,山西省,无,立马
2019-09-09,阳城镇政府(曹风线北),芮城县,运城市,110.431706,34.666954,上海立马电动车(阳城中心卫生院西),山西省,13835924939,立马
2019-09-09,新建中路87号,万荣县,运城市,110.841106,35.419333,上海立马电动车(万荣县财政局东南),山西省,15035910875,立马
2019-09-09,820县道(卿头镇人口与计划生育服务所南),永济市,运城市,110.727921,34.996333,上海立马电动车(卿头镇人口与计划生育服务所南),山西省,无,立马
2019-09-09,凤凰南路72号(近院背后巷),盐湖区,运城市,110.996191,35.015159,上海立马电动车(院背后巷店),山西省,0359-2081130,立马
2019-09-09,236省道与837县道交叉口东北200米(夏县水头镇人民政府南),夏县,运城市,111.118296,35.235320,上海立马电动车(中共水头镇委员会南),山西省,15035425661,立马
2019-09-09,823县道附近,永济市,运城市,110.306150,34.769587,上海立马电动车专卖,山西省,13133143710,立马
2019-09-09,解放北路138号鑫河东市场D楼3号,盐湖区,运城市,110.987988,35.038521,立马电动车店,山西省,无,立马
2019-09-09,012乡道与108国道交叉口西北200米,新绛县,运城市,111.199527,35.594050,立马电动车&隆鑫摩托,山西省,无,立马
2019-09-09,新城南街与黄河东路交叉口西南50米,垣曲县,运城市,111.672315,35.290802,立马电动车售后部,山西省,13403483101,立马
2019-09-09,圣人涧镇人涧镇五一街立马电动车往北30米,平陆县,运城市,111.218460,34.838935,颖颖超市,山西省,无,立马
2019-09-09,凤凰南路72号,盐湖区,运城市,111.004189,35.016139,立马售后,山西省,无,立马
2019-09-09,北城街道国粮街星河商业街对面凤城花都西侧15号门面房,盐湖区,运城市,110.999280,35.040003,电动车维修,山西省,无,立马
2019-09-09,朝阳街83号,静乐县,忻州市,111.940457,38.358220,立马电动车,山西省,无,立马
2019-09-09,金砂线砂河镇西关村文化广场东北50米,繁峙县,忻州市,113.552885,39.265076,立马电动车,山西省,无,立马
2019-09-09,南门路0007号,宁武县,忻州市,112.301816,38.999167,立马电动车,山西省,13835083943,立马
2019-09-09,310省道与Z061交叉口南100米,五台县,忻州市,113.699282,38.808883,立马电动车,山西省,无,立马
2019-09-09,108国道东50米,原平市,忻州市,112.751507,38.889686,立马电动车,山西省,无,立马
2019-09-09,周家巷与新南街交汇处东北50米,代县,忻州市,112.962719,39.066331,立马电动车,山西省,无,立马
2019-09-09,台城镇西米市街4号,五台县,忻州市,113.260709,38.721230,立马电动车,山西省,0350-6526887,立马
2019-09-09,311省道北50米,五台县,忻州市,113.378911,38.836045,立马电动车,山西省,13753029802,立马
2019-09-09,007乡道与310省道交叉口西南200米,五台县,忻州市,113.562255,38.722820,立马电动车,山西省,无,立马
2019-09-09,文昌路与秀水街交叉口东北50米,河曲县,忻州市,111.242074,39.417933,立马电动车(四部楼子营店),山西省,无,立马
2019-09-09,高苏线与213省道交叉口南200米,代县,忻州市,113.202980,39.137373,立马电动车(中共峨口镇委员会东北),山西省,无,立马
2019-09-09,005乡道与206省道交叉口东南150米,原平市,忻州市,112.623234,38.801367,立马电动车(大牛店镇卫生院东北),山西省,无,立马
2019-09-09,砚城镇阳柯西路红绿灯旁,五寨县,忻州市,111.838576,38.917141,立马电动车(五寨县城建监察管理大队南),山西省,无,立马
2019-09-09,迎宾街13号,忻府区,忻州市,112.708113,38.495063,立马电动车(红红总代理),山西省,13152909292,立马
2019-09-09,京原南路17号(新原乡人民政府西南),原平市,忻州市,112.719196,38.725865,立马电动车(怡康园南),山西省,无,立马
2019-09-09,文慧路与108国道交叉口东南50米,繁峙县,忻州市,113.568733,39.257103,立马超市,山西省,无,立马
2019-09-09,"中西门诊旁,立马电动车东50米",繁峙县,忻州市,113.553441,39.265207,泰和批发烟酒茶,山西省,15386700490,立马
2019-09-09,砂河镇新城西街(立马电动车斜对面),繁峙县,忻州市,113.552687,39.265345,飘香米粉,山西省,18335051261,立马
2019-09-09,刘村镇政府街,尧都区,临汾市,111.457790,36.122990,立马电动车,山西省,13734120718,立马
2019-09-09,文昌南街与230省道交叉口东北200米,浮山县,临汾市,111.845080,35.947900,立马电动车,山西省,13203577206,立马
2019-09-09,新建北路6号附近,襄汾县,临汾市,111.447549,35.884257,立马电动车,山西省,0357-3531927,立马
2019-09-09,丁村路与南大街交叉口东南50米,襄汾县,临汾市,111.439834,35.873893,立马电动车,山西省,13133070737,立马
2019-09-09,曲亭镇薄村,洪洞县,临汾市,111.722465,36.189113,立马电动车(薄村品牌店),山西省,13935758045,立马
2019-09-09,文笔路35号乡宁二中东100米,乡宁县,临汾市,110.848111,35.968514,立马电动车(文笔路品牌店),山西省,18636827737,立马
2019-09-09,新华西街67号,吉县,临汾市,110.676757,36.092857,立马电动车(华西街品牌店),山西省,13191174347,立马
2019-09-09,延庆街二中斜对面,古县,临汾市,111.926039,36.272216,立马电动车(岳阳路店),山西省,13233120216,立马
2019-09-09,西环路,洪洞县,临汾市,111.669896,36.257495,上海立马电动车(洪洞专卖店),山西省,无,立马
2019-09-09,323省道北50米,洪洞县,临汾市,111.743428,36.242002,上海立马电动车,山西省,无,立马
2019-09-09,赵城西环路线东200米,洪洞县,临汾市,111.678918,36.384314,上海立马电动车,山西省,15003578082,立马
2019-09-09,晨熙西路与阳光大道交叉口西南50米,汾西县,临汾市,111.548276,36.656589,上海立马电动车,山西省,无,立马
2019-09-09,明姜镇北社村,洪洞县,临汾市,111.733567,36.334347,上海立马电动车(明姜诚信车业),山西省,0357-6361988,立马
2019-09-09,城南乡古楼南街,隰县,临汾市,110.935485,36.687097,上海立马电动车(古楼南街店),山西省,13097529799;13313479029,立马
2019-09-09,光明路与北环路交叉口西50米,霍州市,临汾市,111.731488,36.574739,上海立马电动车(北环路店),山西省,13935761226,立马
2019-09-09,西街附近,大宁县,临汾市,110.749078,36.463914,上海立马电动车(西街),山西省,无,立马
2019-09-09,尧山东路与朝阳巷交叉口西100米,浮山县,临汾市,111.853868,35.972666,上海立马电动车(尧山东路店),山西省,无,立马
2019-09-09,滨河路与924县道交叉口东南100米,霍州市,临汾市,111.711274,36.598083,立马电动车退沙分部,山西省,无,立马
2019-09-09,公景线东50米,洪洞县,临汾市,111.567382,36.253273,上海立马电动车(公景线),山西省,13834071358,立马
2019-09-09,桥西街88号附近,霍州市,临汾市,111.716867,36.570144,立马电动三轮车大运三轮摩托车,山西省,无,立马
2019-09-09,丁陶大道立马电动车二部旁,襄汾县,临汾市,111.427667,35.882030,绿源电动车,山西省,无,立马
2019-09-09,新城镇新建路立马电动车对面,襄汾县,临汾市,111.447127,35.884387,品信缘商务咨询,山西省,无,立马
2019-09-09,新城镇新建路立马电动车对面,襄汾县,临汾市,111.447037,35.884244,城北干菜大全,山西省,15303576590,立马
2019-09-09,231省道立马电动车东80米,襄汾县,临汾市,111.329077,35.921827,卫强汽配,山西省,13546560607,立马
2019-09-09,赵城西环路线上海立马电动车旁,洪洞县,临汾市,111.678783,36.384537,银顺饭店,山西省,13835767775,立马
2019-09-09,凤山路长虹副食对面,离石区,吕梁市,111.140210,37.531969,立马电动车,山西省,13453852549,立马
2019-09-09,建设街与货源街交叉口西南50米,离石区,吕梁市,111.147457,37.516775,立马电动车(建设街店),山西省,无,立马
2019-09-09,东正街与从龙中路交叉口西北100米,临县,吕梁市,110.996434,37.962541,立马电动车(东正街),山西省,无,立马
2019-09-09,延安街南50米,石楼县,吕梁市,110.824874,37.001366,立马电动车(电力家属楼西南),山西省,0358-5727666,立马
2019-09-09,209国道西50米,方山县,吕梁市,111.223139,37.741877,立马电动车(中共峪口镇委员会西),山西省,无,立马
2019-09-09,学院路与幸福正街交叉口南50米,汾阳市,吕梁市,111.785736,37.277351,立马电动车(学院路店),山西省,无,立马
2019-09-09,青年路附近,汾阳市,吕梁市,111.797871,37.266158,立马电动车(富民北路店),山西省,无,立马
2019-09-09,北环路51号,中阳县,吕梁市,111.190460,37.345929,立马电动车(北正街店),山西省,13753343035,立马
2019-09-09,方正街与瓦窑北路交叉口西北100米,方山县,吕梁市,111.237564,37.891465,立马电动车(瓦窑北路),山西省,15935085544,立马
2019-09-09,南关三段与新建西路交叉口南100米,兴县,吕梁市,111.119111,38.466065,立马电动车兴县专卖店,山西省,无,立马
2019-09-09,穆村镇一村委,柳林县,吕梁市,110.848720,37.415780,立马电动车专卖店,山西省,无,立马
2019-09-09,皇冠路与苏三路交叉口北200米,乌达区,乌海市,106.702824,39.511790,立马电动车,内蒙古自治区,无,立马
2019-09-09,铁旺线北50米,宁城县,赤峰市,118.998920,41.490198,立马电动车,内蒙古自治区,无,立马
2019-09-09,207省道东50米,宁城县,赤峰市,118.880485,41.634347,立马电动车,内蒙古自治区,无,立马
2019-09-09,205省道东50米,翁牛特旗,赤峰市,119.021600,42.747563,立马电动车,内蒙古自治区,无,立马
2019-09-09,汉林路与西市路交叉口东北200米,阿鲁科尔沁旗,赤峰市,120.089789,43.880038,立马电动车,内蒙古自治区,无,立马
2019-09-09,三道街59-2,红山区,赤峰市,118.962442,42.278963,立马电动车(三道西街),内蒙古自治区,0476-8223336,立马
2019-09-09,207省道东50米,宁城县,赤峰市,118.837132,41.411877,立马电动车(甸子供销社南),内蒙古自治区,无,立马
2019-09-09,307省道北50米,巴林左旗,赤峰市,119.294044,44.451105,立马电动车(中共巴林左旗富河镇委员会东南),内蒙古自治区,0476-7632360,立马
2019-09-09,解放街金百合南区,红山区,赤峰市,118.948787,42.257634,立马电动车(解放街店),内蒙古自治区,无,立马
2019-09-09,205省道与303乡道交叉口西50米,翁牛特旗,赤峰市,119.021822,42.743906,上海立马电动车,内蒙古自治区,无,立马
2019-09-09,振兴大街107-4号,巴林左旗,赤峰市,119.393221,43.985452,上海立马电动车,内蒙古自治区,无,立马
2019-09-09,兴隆街附近,宁城县,赤峰市,119.334381,41.595704,上海立马电动车(兴隆街店),内蒙古自治区,无,立马
2019-09-09,北市街39-11,巴林右旗,赤峰市,118.677257,43.530246,上海立马电动车自行车(北市街),内蒙古自治区,无,立马
2019-09-09,307省道北50米,巴林左旗,赤峰市,119.290677,44.450819,立马电动车电动三轮车,内蒙古自治区,0476-7632360;13948639563,立马
2019-09-09,农村信用合作联社八肯中信用社附近,宁城县,赤峰市,119.082174,41.655086,立马电动车赤峰分公司八肯中专卖店,内蒙古自治区,无,立马
2019-09-09,交通路343号,科尔沁区,通辽市,122.257994,43.611937,立马电动车(交通路店),内蒙古自治区,无,立马
2019-09-09,嘎鲁图镇二马路文化宫十字路口东50米,乌审旗,鄂尔多斯市,108.847795,38.598000,立马电动车,内蒙古自治区,13847975552,立马
2019-09-09,杭锦北路11附近,东胜区,鄂尔多斯市,110.000328,39.822246,立马电动车(鄂托克东街店),内蒙古自治区,无,立马
2019-09-09,长胜路东50米,达拉特旗,鄂尔多斯市,110.033282,40.405741,上海立马电动车(长胜路),内蒙古自治区,无,立马
2019-09-09,635县道南50米,达拉特旗,鄂尔多斯市,110.058051,40.411293,电动车修配,内蒙古自治区,无,立马
2019-09-09,西城外大街与574县道交叉口东南200米,兴和县,乌兰察布市,113.893251,40.876092,立马电动车,内蒙古自治区,无,立马
2019-09-09,文明路与雅布赖路交叉口西南50米,阿拉善右旗,阿拉善盟,101.672306,39.208230,立马电动车,内蒙古自治区,13948023411,立马
2019-09-09,314省道北50米,新民市,沈阳市,122.653556,42.058044,立马电动车,辽宁省,无,立马
2019-09-09,浑南区104省道北50米,浑南区,沈阳市,123.686099,41.856180,立马电动车,辽宁省,无,立马
2019-09-09,大要线与姜张线交叉口东北50米,新民市,沈阳市,122.797821,42.184207,立马电动车,辽宁省,无,立马
2019-09-09,西城街道中兴西路88号,新民市,沈阳市,122.825845,41.994286,立马电动车(中兴西路店),辽宁省,无,立马
2019-09-09,南七中路17号,铁西区,沈阳市,123.366350,41.790706,立马电动车(南七马路专卖店),辽宁省,13940203306,立马
2019-09-09,丰乐二街9甲-1号5门,沈河区,沈阳市,123.485765,41.765712,上海立马电动车(沈阳办事处),辽宁省,024-24147631;024-81918111,立马
2019-09-09,南顺城路65号,沈河区,沈阳市,123.459243,41.792744,上海立马电动车(南顺城专卖店),辽宁省,024-24147631,立马
2019-09-09,枫杨路105号7门,苏家屯区,沈阳市,123.332161,41.658935,上海立马电动车(枫杨路),辽宁省,无,立马
2019-09-09,含光街与建工路交汇东120米,康平县,沈阳市,123.350382,42.742782,踏驰车行,辽宁省,13478200900,立马
2019-09-09,延安路一段139号,庄河市,大连市,122.976155,39.703916,立马电动车(延安路店),辽宁省,无,立马
2019-09-09,201国道西50米,庄河市,大连市,123.072988,39.764406,上海立马电动车(大吴线),辽宁省,无,立马
2019-09-09,兴桓路与361乡道交叉口南行150米,台安县,鞍山市,122.471013,41.505542,立马电动车(桓洞镇卫生院西),辽宁省,0412-4661618,立马
2019-09-09,前阳中路与艺苑街交叉口西北150米,东港市,丹东市,124.206784,39.958871,立马电动车,辽宁省,无,立马
2019-09-09,解放路二段70-4-1号,古塔区,锦州市,121.124795,41.115880,上海立马电动车(锦州店),辽宁省,0416-3024730,立马
2019-09-09,清华路与西华街交叉口西50米,西市区,营口市,122.221388,40.668687,立马电动车营口地区直营店,辽宁省,无,立马
2019-09-09,清真路与解放大街交叉口东50米,彰武县,阜新市,122.534830,42.384902,立马电动车,辽宁省,无,立马
2019-09-09,平安小学西侧路北,海州区,阜新市,121.617187,41.968927,立马电动车专卖店,辽宁省,无,立马
2019-09-09,市环线与204省道交叉口北50米,细河区,阜新市,121.576646,41.978151,上海立马电动车(下洼子专卖店),辽宁省,无,立马
2019-09-09,101国道南50米,阜新蒙古族自治县,阜新市,121.352036,42.035711,立马电动车摩托车配件修理,辽宁省,13841804303,立马
2019-09-09,新民街343号附近,灯塔市,辽阳市,123.036939,41.442928,立马电动车,辽宁省,无,立马
2019-09-09,欧式街5号附近,弓长岭区,辽阳市,123.431978,41.159297,立马电动车,辽宁省,无,立马
2019-09-09,兴隆台街126号附近,兴隆台区,盘锦市,122.062223,41.128184,立马电动车,辽宁省,13134270666,立马
2019-09-09,红星北街北200米,大洼区,盘锦市,122.072895,41.056556,立马电动车行,辽宁省,15807886789,立马
2019-09-09,房产局(昌盛路北),昌图县,铁岭市,124.111010,42.778077,金彭电动三轮车立马电动车(昌图旗舰店),辽宁省,无,立马
2019-09-09,大召线与101国道交叉口东北200米,北票市,朝阳市,120.621689,41.805247,立马电动车,辽宁省,无,立马
2019-09-09,S308(兴凌线),喀喇沁左翼蒙古族自治县,朝阳市,119.855965,41.049432,立马电动车,辽宁省,无,立马
2019-09-09,S206(朝青线),朝阳县,朝阳市,120.255436,40.996775,立马电动车,辽宁省,无,立马
2019-09-09,朝大线西50米,朝阳县,朝阳市,120.047809,41.354339,立马电动车,辽宁省,无,立马
2019-09-09,甘招街南街,喀喇沁左翼蒙古族自治县,朝阳市,119.848344,41.247626,立马电动车,辽宁省,无,立马
2019-09-09,306省道北50米,朝阳县,朝阳市,120.633278,41.250656,立马电动车,辽宁省,无,立马
2019-09-09,羊山镇鞍羊线中国邮政西南150米,朝阳县,朝阳市,120.375252,41.189907,立马电动车,辽宁省,无,立马
2019-09-09,人民路一段51-16号,北票市,朝阳市,120.768134,41.811757,立马电动车,辽宁省,无,立马
2019-09-09,朝大线北50米,朝阳县,朝阳市,120.128757,41.400909,立马电动车(朝大线),辽宁省,无,立马
2019-09-09,朝阳大街1段-105-6号,双塔区,朝阳市,120.460348,41.588451,立马电动车(朝阳大街店),辽宁省,0421-2599199;0421-7296855,立马
2019-09-09,小黑线与208省道交叉口东南50米,建平县,朝阳市,119.595758,41.636356,立马电动车(小黑线),辽宁省,0421-7828900,立马
2019-09-09,车横线,朝阳县,朝阳市,120.299721,41.290404,立马电动车专卖店,辽宁省,13500418825,立马
2019-09-09,新农贸市场2号楼203号(101国道南),龙城区,朝阳市,120.370601,41.546175,隆华摩配(西大营子专卖店),辽宁省,0421-3307080,立马
2019-09-09,,南票区,葫芦岛市,120.956479,41.009532,立马电动车,辽宁省,无,立马
2019-09-09,新兴街2段12-7-8号附近,绥中县,葫芦岛市,120.339965,40.326986,立马电动车,辽宁省,无,立马
2019-09-09,红旗街1号楼附近,建昌县,葫芦岛市,119.801107,40.814998,立马电动车,辽宁省,无,立马
2019-09-09,新华大街24-10附近,连山区,葫芦岛市,120.847533,40.750038,立马电动车(电业小区南),辽宁省,0429-5550518;13842962345,立马
2019-09-09,206省道南50米,建昌县,葫芦岛市,119.694668,40.653053,金满春立马电动车专卖店,辽宁省,无,立马
2019-09-09,顺通路与303省道交叉口西100米,德惠市,长春市,125.848075,44.536219,立马电动车,吉林省,无,立马
2019-09-09,302国道西200米,农安县,长春市,125.126585,44.669033,立马电动车,吉林省,无,立马
2019-09-09,城壕路与榆树大街交叉口南100米,榆树市,长春市,126.564204,44.832171,立马电动车(榆树大街),吉林省,无,立马
2019-09-09,吉林大街316-1号,船营区,吉林市,126.566537,43.856949,上海立马,吉林省,无,立马
2019-09-09,052乡道与105省道交叉口东100米,公主岭市,四平市,124.427965,43.808607,立马电动车,吉林省,无,立马
2019-09-09,新世纪艺术幼儿园(301省道北),扶余市,松原市,125.731730,45.108205,立马电动车,吉林省,无,立马
2019-09-09,富文东路408号,洮南市,白城市,122.788078,45.343635,上海立马电动车(富文东路店),吉林省,无,立马
2019-09-09,巴彦镇南直路216号,巴彦县,哈尔滨市,127.406088,46.075448,立马电动车,黑龙江省,0451-56058828,立马
2019-09-09,,富拉尔基区,齐齐哈尔市,123.646137,47.207038,立马电动车,黑龙江省,无,立马
2019-09-09,建设路与通齐街交叉口东50米,龙江县,齐齐哈尔市,123.185205,47.330188,立马电动车(建设路),黑龙江省,无,立马
2019-09-09,燕北新华园C2号楼10号门市,富拉尔基区,齐齐哈尔市,123.649556,47.205814,上海立马电动车(新华路店),黑龙江省,无,立马
2019-09-09,建设路立马电动车旁,龙江县,齐齐哈尔市,123.184575,47.330271,赛克电动车,黑龙江省,无,立马
2019-09-09,建设路立马电动车旁,龙江县,齐齐哈尔市,123.184578,47.330270,福田五星三轮电动车,黑龙江省,无,立马
2019-09-09,尚志路5-1号,萝北县,鹤岗市,130.546445,47.434071,立马电动车,黑龙江省,18345662158,立马
2019-09-09,乘风大街564号附近,让胡路区,大庆市,124.878701,46.564416,立马电动车,黑龙江省,无,立马
2019-09-09,长安西路145号,向阳区,佳木斯市,130.355752,46.808694,立马电动车,黑龙江省,无,立马
2019-09-09,中央大街与民主路交叉口西100米,富锦市,佳木斯市,132.030042,47.247847,上海立马电动车,黑龙江省,13237920888;13945413946,立马
2019-09-09,西兴街道南大街28-2号,爱辉区,黑河市,127.491554,50.246715,立马电动车商店,黑龙江省,无,立马
2019-09-09,庆安镇西市场路南,庆安县,绥化市,127.502251,46.879033,立马电动车(中央西大街店),黑龙江省,无,立马
2019-09-09,青村镇金钱公路4951号,奉贤区,上海市,121.543001,30.871326,立马电动车,上海市,无,立马
2019-09-09,纪中路107号附近,闵行区,上海市,121.274281,31.241829,立马电动车,上海市,无,立马
2019-09-09,申江南路5105号附近,浦东新区,上海市,121.646771,31.071361,立马电动车,上海市,无,立马
2019-09-09,东川公路与星升路交叉口东50米,浦东新区,上海市,121.726584,31.218779,立马电动车,上海市,无,立马
2019-09-09,江桥镇星华公路1585号,嘉定区,上海市,121.300190,31.268766,立马电动车(星华公路店),上海市,15921255742,立马
2019-09-09,"江桥镇,海波路1388号",嘉定区,上海市,121.312396,31.269250,立马电动车(海波路1388号),上海市,无,立马
2019-09-09,高桥镇春晖路434号(靠近张杨北路),浦东新区,上海市,121.582675,31.337429,立马电动车(春晖路店),上海市,021-58676327,立马
2019-09-09,南城路航星KTV南50米,浦东新区,上海市,121.597144,31.027452,小刀电动车,上海市,13162498655,立马
2019-09-09,华新镇新凤中路1849号,青浦区,上海市,121.230803,31.204649,林记摩配,上海市,021-59772596;13761449223,立马
2019-09-09,茅亭路30-6号附近,江宁区,南京市,118.863198,31.777442,立马电动车,江苏省,无,立马
2019-09-09,康庄路与齐尚街交叉口西南50米,江宁区,南京市,118.946765,31.796067,立马电动车,江苏省,无,立马
2019-09-09,明因路西50米,浦口区,南京市,118.534930,31.944404,立马电动车,江苏省,无,立马
2019-09-09,山东路164号,六合区,南京市,118.943344,32.373599,立马电动车,江苏省,13151570656,立马
2019-09-09,马鞍街道马鞍镇城西街道16号,六合区,南京市,118.812576,32.352555,立马电动车,江苏省,无,立马
2019-09-09,山东路164号,六合区,南京市,118.931094,32.321512,立马电动车,江苏省,无,立马
2019-09-09,禄口街道铜岭路74号,江宁区,南京市,118.872700,31.684648,立马电动车,江苏省,无,立马
2019-09-09,东红路南50米,六合区,南京市,119.001696,32.269005,立马电动车,江苏省,无,立马
2019-09-09,御史路与203县道交叉口西北100米,六合区,南京市,118.810376,32.536180,立马电动车,江苏省,无,立马
2019-09-09,同创路樊集幼儿园南(金牛湖风景区附近),六合区,南京市,119.022234,32.472108,立马电动车,江苏省,无,立马
2019-09-09,中圣南街80-6号,浦口区,南京市,118.627594,32.054758,立马电动车(中圣南街店),江苏省,无,立马
2019-09-09,横云北路18号附近,江宁区,南京市,118.780756,31.712840,立马电动车(横曹西路店),江苏省,13338624380,立马
2019-09-09,八双路与青龙南街交叉口西北50米,六合区,南京市,118.935510,32.413930,立马电动车(八双路),江苏省,无,立马
2019-09-09,吉泉北路与汤农路交叉口南50米,浦口区,南京市,118.510218,32.091234,立马电动车(汤农路),江苏省,无,立马
2019-09-09,新建北路与304县道交叉口东100米,六合区,南京市,118.945996,32.374271,立马电动车(新簧旗舰店),江苏省,13151570656,立马
2019-09-09,八百桥镇八百大道303号,六合区,南京市,118.934865,32.425560,立马电动车(六合旗舰店),江苏省,无,立马
2019-09-09,中央北路3号(小市地铁站4号口),鼓楼区,南京市,118.784528,32.095609,立马电动车(幕欣巷),江苏省,15005155227,立马
2019-09-09,广通东路与广通西路交叉口西北150米,高淳区,南京市,119.065664,31.296381,上海立马电动车,江苏省,无,立马
2019-09-09,诚信大道殷巷星光名座4幢105立马电动车店,江宁区,南京市,118.839231,31.909296,立马电动车专卖店,江苏省,无,立马
2019-09-09,X203(人民路),六合区,南京市,118.810471,32.535872,五羊电动车,江苏省,13813359258,立马
2019-09-09,金牛湖街道八百大道303号立马电动车旁,六合区,南京市,118.935011,32.425399,游来游趣孕婴童生活馆,江苏省,13813954764,立马
2019-09-09,九滨北路55号新天地花园西大门旁福传摩配,宜兴市,无锡市,119.814401,31.374068,立马电动车,江苏省,无,立马
2019-09-09,科技大道2号,江阴市,无锡市,120.000856,31.858010,立马电动车,江苏省,无,立马
2019-09-09,342省道东50米,宜兴市,无锡市,119.587290,31.196918,立马电动车,江苏省,无,立马
2019-09-09,渚钢路279号附近,宜兴市,无锡市,119.638755,31.265309,立马电动车,江苏省,无,立马
2019-09-09,华士镇和平街859号,江阴市,无锡市,120.468896,31.837251,立马电动车(和平街店),江苏省,无,立马
2019-09-09,金泉路192号附近,宜兴市,无锡市,119.572950,31.285799,立马电动车(西渚专卖店),江苏省,13952499144,立马
2019-09-09,暨阳路329号,江阴市,无锡市,120.261961,31.912866,立马电动车(暨阳路),江苏省,15365268778,立马
2019-09-09,中阳里街道解放路115号汽车站对面(锦江之星楼下),丰县,徐州市,116.608205,34.698656,立马电动车,江苏省,无,立马
2019-09-09,桃源南路,贾汪区,徐州市,117.470038,34.397365,立马电动车,江苏省,无,立马
2019-09-09,新安路73号附近,新沂市,徐州市,118.348685,34.376157,立马电动车,江苏省,无,立马
2019-09-09,五道街2号,新沂市,徐州市,118.081280,34.181007,上海立马电动车,江苏省,17802635423,立马
2019-09-09,,武进区,常州市,119.969432,31.730862,立马电动车,江苏省,无,立马
2019-09-09,,武进区,常州市,119.956055,31.544701,立马电动车,江苏省,无,立马
2019-09-09,西街,新北区,常州市,119.972950,31.921063,立马电动车,江苏省,无,立马
2019-09-09,,武进区,常州市,120.005356,31.667772,立马电动车,江苏省,无,立马
2019-09-09,马大线,武进区,常州市,119.984959,31.689940,立马电动车,江苏省,无,立马
2019-09-09,,武进区,常州市,120.062217,31.603641,立马电动车,江苏省,无,立马
2019-09-09,直溪街,金坛区,常州市,119.456733,31.805148,立马电动车,江苏省,无,立马
2019-09-09,振兴西路32号北60米,武进区,常州市,119.898521,31.579266,立马电动车,江苏省,无,立马
2019-09-09,南塘路与南湾街交叉口南50米,武进区,常州市,119.937926,31.627453,立马电动车,江苏省,无,立马
2019-09-09,镇中路与镇南西路交叉口东南50米,新北区,常州市,119.826871,31.945228,立马电动车,江苏省,15861886091,立马
2019-09-09,东都东路107号附近,武进区,常州市,120.085155,31.642223,立马电动车,江苏省,无,立马
2019-09-09,中吴大道与今创路交叉口东北150米,武进区,常州市,120.049155,31.720552,立马电动车,江苏省,无,立马
2019-09-09,陈渡路87号附近,钟楼区,常州市,119.917040,31.770631,立马电动车,江苏省,15961459928,立马
2019-09-09,春江镇圩塘永新路43号,新北区,常州市,119.992051,31.941466,立马电动车,江苏省,无,立马
2019-09-09,新堂北路125号附近,天宁区,常州市,119.997259,31.796522,立马电动车,江苏省,无,立马
2019-09-09,奔卜路附近,新北区,常州市,119.807770,31.856085,立马电动车,江苏省,0519-83132209,立马
2019-09-09,会馆浜路5-12号西60米,钟楼区,常州市,119.938452,31.773654,立马电动车,江苏省,无,立马
2019-09-09,人民东路165号东90米,武进区,常州市,119.979216,31.724587,立马电动车,江苏省,无,立马
2019-09-09,鸣凰武宜中路51号,武进区,常州市,119.935493,31.677173,立马电动车(鸣凰赵记专卖店),江苏省,0519-83600300;15189723088,立马
2019-09-09,鸣凰武宜中路51号立马电动车,武进区,常州市,119.935657,31.677235,赵记车行,江苏省,15189723088,立马
2019-09-09,常金西路41号伟平摩配(立马电动车),钟楼区,常州市,119.806165,31.776731,伟平摩配,江苏省,无,立马
2019-09-09,金港镇长山村郁家埭27号,张家港市,苏州市,120.389769,31.947327,立马电动车,江苏省,无,立马
2019-09-09,白茆沪宜路110号,常熟市,苏州市,120.902401,31.592486,立马电动车,江苏省,15106229639,立马
2019-09-09,麻溪路2008号北100米,吴江区,苏州市,120.530781,30.873244,立马电动车,江苏省,无,立马
2019-09-09,,吴江区,苏州市,120.830001,31.021803,立马电动车,江苏省,无,立马
2019-09-09,兴浦街711号附近,昆山市,苏州市,121.054976,31.257458,立马电动车,江苏省,无,立马
2019-09-09,淞南路,吴江区,苏州市,120.667823,31.185721,立马电动车,江苏省,无,立马
2019-09-09,娄苑路与新北路交叉口东北50米,昆山市,苏州市,120.955262,31.395530,立马电动车,江苏省,无,立马
2019-09-09,周市镇鑫茂路鑫茂菜场面26号,昆山市,苏州市,120.971652,31.465080,立马电动车,江苏省,无,立马
2019-09-09,娄东街道经济开发区陆渡镇中市路9-5号,太仓市,苏州市,121.194266,31.472029,立马电动车,江苏省,无,立马
2019-09-09,801村道南50米,昆山市,苏州市,120.994128,31.269831,立马电动车,江苏省,无,立马
2019-09-09,园区路74附近,吴江区,苏州市,120.618507,30.870693,立马电动车,江苏省,无,立马
2019-09-09,友邦路与环宇路交叉口西北50米,张家港市,苏州市,120.493985,31.996164,立马电动车,江苏省,无,立马
2019-09-09,云亭路70号东60米,昆山市,苏州市,120.853695,31.126214,立马电动车,江苏省,15312160256,立马
2019-09-09,天台北路48号,张家港市,苏州市,120.415563,31.957697,立马电动车,江苏省,18006243859,立马
2019-09-09,城厢镇郑和西路118-10号,太仓市,苏州市,121.098195,31.450246,立马电动车,江苏省,无,立马
2019-09-09,栈泾东路17号附近,昆山市,苏州市,121.090426,31.379330,立马电动车,江苏省,无,立马
2019-09-09,华山路3号附近,虎丘区,苏州市,120.459331,31.371665,立马电动车,江苏省,无,立马
2019-09-09,越溪溪翔路128号,吴中区,苏州市,120.583654,31.207051,立马电动车,江苏省,13862023054,立马
2019-09-09,,吴江区,苏州市,120.563992,30.840422,立马电动车,江苏省,无,立马
2019-09-09,盛南公路西50米,吴江区,苏州市,120.598566,30.888614,立马电动车,江苏省,无,立马
2019-09-09,锦溪镇长寿东路624号,昆山市,苏州市,120.913741,31.174697,立马电动车,江苏省,15850387997,立马
2019-09-09,新港路与桐坝路交叉口东150米,常熟市,苏州市,120.916718,31.747846,立马电动车,江苏省,无,立马
2019-09-09,勤幸路11号附近,吴江区,苏州市,120.499652,30.917281,立马电动车,江苏省,无,立马
2019-09-09,亨通路123号(中国邮政储蓄银行旁),吴江区,苏州市,120.653046,31.206805,立马电动车,江苏省,18662266414,立马
2019-09-09,甪直镇东方大道鸣市路56,吴中区,苏州市,120.853306,31.266090,立马电动车,江苏省,无,立马
2019-09-09,同里镇同里农村商业银行对面,吴江区,苏州市,120.710981,31.155717,立马电动车,江苏省,无,立马
2019-09-09,浏家港富民路113号玖佰伴超市南100米,太仓市,苏州市,121.260886,31.556367,立马电动车,江苏省,13962104142,立马
2019-09-09,望亭镇御亭路338号,相城区,苏州市,120.446702,31.418216,立马电动车,江苏省,无,立马
2019-09-09,厍星路35附近,吴江区,苏州市,120.780791,31.044251,立马电动车,江苏省,无,立马
2019-09-09,郑和北路98号,太仓市,苏州市,121.262613,31.502532,立马电动车,江苏省,无,立马
2019-09-09,金港镇德积镇长江东路438号,张家港市,苏州市,120.485929,31.997784,立马电动车,江苏省,无,立马
2019-09-09,新闸路88号,张家港市,苏州市,120.479249,31.893177,立马电动车,江苏省,无,立马
2019-09-09,南环东路898号1幢101室,姑苏区,苏州市,120.629065,31.280359,立马电动车(南环东路店),江苏省,13862168326,立马
2019-09-09,黄埭镇人民路127号,相城区,苏州市,120.508214,31.429969,立马电动车(长和路),江苏省,0512-66704913,立马
2019-09-09,周市镇青阳北路如家酒店向南200米交叉口,昆山市,苏州市,120.993967,31.400581,立马电动车(青阳店),江苏省,18605122221,立马
2019-09-09,跨塘葑亭大道锦泽苑旁(高浜二村南区旁),苏州工业园区,苏州市,120.693595,31.342964,立马电动车(汇隆街店),江苏省,无,立马
2019-09-09,学士路284号,昆山市,苏州市,120.938476,31.282557,立马电动车(新吴街),江苏省,无,立马
2019-09-09,景城路缘梦家居北10米,昆山市,苏州市,120.878775,31.450273,立马电动车(景城路店),江苏省,无,立马
2019-09-09,陆杨镇商茂路185号,昆山市,苏州市,120.950940,31.464672,立马电动车(商茂路店),江苏省,无,立马
2019-09-09,巴城镇正义君子亭东路嘉馨花园西门,昆山市,苏州市,120.864329,31.373163,立马电动车(君子亭东路),江苏省,无,立马
2019-09-09,情缘客栈北60米(甪胜路西),吴中区,苏州市,120.820804,31.283393,立马电动车(甪直镇淞港社区卫生服务站东),江苏省,无,立马
2019-09-09,千灯镇石浦兴浦街240号鹿城车行,昆山市,苏州市,121.054678,31.249039,立马电动车专卖店,江苏省,无,立马
2019-09-09,建中路26号东南50米,吴江区,苏州市,120.548771,30.877232,立马电动车专卖,江苏省,13913713434,立马
2019-09-09,经济开发区陆渡镇中市路9-5号,太仓市,苏州市,121.194243,31.471957,上海华生电动车(陆渡专卖店),江苏省,13915763551,立马
2019-09-09,陆家镇南粮路40号(南粮花园对面),昆山市,苏州市,121.041574,31.315066,立马电动车行,江苏省,无,立马
2019-09-09,盛南公路西50米,吴江区,苏州市,120.598533,30.888643,立马电动车5S售后服务中心,江苏省,无,立马
2019-09-09,虞山镇谢桥管理区忠欣路89号,常熟市,苏州市,120.752228,31.724646,爱玛电动车,江苏省,无,立马
2019-09-09,黎里镇北厍梅墩(立马电动车旁边),吴江区,苏州市,120.780785,31.044246,玉妹烟店,江苏省,无,立马
2019-09-09,和谐路南50米附近,海安市,南通市,120.540644,32.557029,立马电动车,江苏省,15240580781,立马
2019-09-09,海胡线,海安市,南通市,120.421288,32.532656,立马电动车,江苏省,13584712830,立马
2019-09-09,通榆北路87号东60米,海安市,南通市,120.481868,32.554365,立马电动车,江苏省,无,立马
2019-09-09,通刘公路与鹤涛路交叉口东南100米,港闸区,南通市,120.840671,32.083222,立马电动车,江苏省,15996660599,立马
2019-09-09,东西线与高葛线交叉口西南50米,如皋市,南通市,120.409244,32.203856,立马电动车,江苏省,17625933888,立马
2019-09-09,振兴北路与育才路交叉口西北100米,通州区,南通市,120.740535,32.093650,立马电动车,江苏省,13584643586,立马
2019-09-09,204乡道与313县道交叉口东50米,海安市,南通市,120.527376,32.612400,立马电动车,江苏省,无,立马
2019-09-09,316县道北50米,如皋市,南通市,120.602857,32.112970,立马电动车,江苏省,13584698669,立马
2019-09-09,搬经镇业庄村青北路,如皋市,南通市,120.457006,32.258108,立马电动车,江苏省,无,立马
2019-09-09,五平公路与204国道交叉口东南150米,通州区,南通市,120.772715,32.117400,立马电动车,江苏省,18762856529,立马
2019-09-09,东海大道与鑫来路交叉口东150米,海安市,南通市,120.498989,32.520462,立马电动车,江苏省,无,立马
2019-09-09,436乡道快乐宝贝母婴生活馆北20米,海安市,南通市,120.344694,32.433278,立马电动车,江苏省,0513-88612116,立马
2019-09-09,303县道附近,如皋市,南通市,120.730940,32.239689,立马电动车(白蒲店),江苏省,无,立马
2019-09-09,掘港镇公共路12号,如东县,南通市,121.199791,32.315385,立马电动车(公共路店),江苏省,13862799346,立马
2019-09-09,001乡道北50米,海安市,南通市,120.345923,32.645710,立马电动车(金城三轮电动墩头专卖店),江苏省,15262895438,立马
2019-09-09,中成路北50米,通州区,南通市,120.942833,32.117528,立马电动车(中成路),江苏省,无,立马
2019-09-09,双楼镇人民公路,海安市,南通市,120.353940,32.520069,立马电动车(双楼路店),江苏省,13912859439,立马
2019-09-09,人民路与704乡道交叉口东150米,如皋市,南通市,120.387268,32.254612,立马电动车(704乡道),江苏省,无,立马
2019-09-09,星明路与观新路交叉口东南100米,崇川区,南通市,120.911586,31.986498,立马电动车小骆驼,江苏省,15962963979,立马
2019-09-09,汇大线,启东市,南通市,121.671858,31.745506,立马电动车专卖店,江苏省,无,立马
2019-09-09,215县道东50米,如东县,南通市,120.894551,32.524065,上海立马电动车(栟茶专卖店),江苏省,无,立马
2019-09-09,城东镇南玻路海安南屏医院西150米,海安市,南通市,120.493159,32.512674,小鸟电动车(海安南屏店),江苏省,0513-88778398,立马
2019-09-09,灌云经济开发区伊山镇清华园后门一百电动车一条街,灌云县,连云港市,119.253750,34.279823,立马电动车,江苏省,无,立马
2019-09-09,董杨路,灌云县,连云港市,119.212995,34.385759,立马电动车,江苏省,无,立马
2019-09-09,伊小线与伊山路交叉口西北50米,灌云县,连云港市,119.247141,34.325779,立马电动车,江苏省,无,立马
2019-09-09,兴隆路与绿园路交叉口北100米,海州区,连云港市,119.192740,34.594136,立马电动车,江苏省,无,立马
2019-09-09,白塔埠镇双拥路48号,东海县,连云港市,118.935499,34.567111,立马电动车,江苏省,无,立马
2019-09-09,圩丰镇大桥北,灌云县,连云港市,119.553082,34.455831,立马电动车,江苏省,无,立马
2019-09-09,下车镇仲集街,灌云县,连云港市,119.273587,34.393530,立马电动车,江苏省,无,立马
2019-09-09,苏州北路15号附近,灌南县,连云港市,119.337041,34.089393,立马电动车,江苏省,无,立马
2019-09-09,同兴镇大兴社区同杨路013号,灌云县,连云港市,119.405426,34.416496,立马电动车,江苏省,0518-88512242;15896118931,立马
2019-09-09,迎宾路东50米,灌云县,连云港市,119.510198,34.418279,立马电动车,江苏省,15950761211,立马
2019-09-09,公路街98正西方向154米,灌云县,连云港市,119.323484,34.436631,立马电动车,江苏省,15061339626,立马
2019-09-09,中田线与田楼街交叉口西北50米,灌南县,连云港市,119.630201,34.247562,立马电动车,江苏省,13775450273,立马
2019-09-09,干沭线与323省道交叉口西南50米,海州区,连云港市,119.034313,34.581239,上海立马电动车,江苏省,无,立马
2019-09-09,栖霞路161号,连云区,连云港市,119.365120,34.742991,上海立马电动车(栖霞路店),江苏省,13151775098,立马
2019-09-09,204国道西50米,海州区,连云港市,119.244482,34.522335,金彭电动三轮车(立马电动车),江苏省,无,立马
2019-09-09,中五线与产业大道交叉口东南50米,灌南县,连云港市,119.703210,34.297145,立马电动车专卖店,江苏省,13851258459,立马
2019-09-09,双拥路48号附近,东海县,连云港市,118.935563,34.567111,宗申车辆三轮摩托车白塔专卖店(立马电动车),江苏省,无,立马
2019-09-09,茂盛路,淮阴区,淮安市,119.003243,33.623927,立马电动车,江苏省,无,立马
2019-09-09,王营镇长江西路183号,淮阴区,淮安市,119.002326,33.640539,立马电动车,江苏省,13236201203,立马
2019-09-09,金渔东路与金渔路交叉口西100米,金湖县,淮安市,119.193600,33.032112,立马电动车,江苏省,13101911112,立马
2019-09-09,健康路与328省道交叉口西南50米,淮安区,淮安市,119.063766,33.369324,立马电动车,江苏省,无,立马
2019-09-09,天泉路北150米,盱眙县,淮安市,118.531584,32.990365,立马电动车,江苏省,无,立马
2019-09-09,清江浦区清江浦区X302(黄武公路),清江浦区,淮安市,119.097080,33.502181,立马电动车,江苏省,15861796182,立马
2019-09-09,清江浦区清江浦区福星花园19号商铺,清江浦区,淮安市,119.064168,33.571538,立马电动车,江苏省,16605176998,立马
2019-09-09,淮城镇文锦城府前路72-56号,淮安区,淮安市,119.189476,33.527893,立马电动车(新区花园店),江苏省,无,立马
2019-09-09,安东北路319号附近,涟水县,淮安市,119.275287,33.792617,立马电动车(涟水总店),江苏省,15061275566,立马
2019-09-09,朱桥镇淮流路67-68,淮安区,淮安市,119.268240,33.509597,立马电动车(朱桥店),江苏省,无,立马
2019-09-09,仁和路与花园路交叉口东100米,淮安区,淮安市,119.223327,33.453176,立马电动车(马甸专卖店),江苏省,13626187483,立马
2019-09-09,梁红玉路30-42号,淮安区,淮安市,119.162221,33.523055,立马电动车(淮上人家专卖店),江苏省,无,立马
2019-09-09,楚州大道与纬一路交叉口西50米,淮安区,淮安市,119.154312,33.539568,立马电动车(清华苑专卖店),江苏省,13401809358,立马
2019-09-09,北门大街西50米,淮安区,淮安市,119.144062,33.510927,立马电动车(府市口专卖店),江苏省,15952300785,立马
2019-09-09,东长街与府学街交叉口西150米,淮安区,淮安市,119.148266,33.500556,立马电动车(苍桥专卖店),江苏省,13101915699,立马
2019-09-09,淮城镇淮上人家小区西大门向北,淮安区,淮安市,119.163322,33.521119,立马电动车(淮上人家专卖店),江苏省,18360776681,立马
2019-09-09,305县道西150米,淮安区,淮安市,119.359761,33.550318,立马电动车(仇桥专营店),江苏省,13511504858,立马
2019-09-09,环乡线与235省道交叉口南150米,淮安区,淮安市,119.236154,33.654275,立马电动车(钦工专卖店),江苏省,18952314683;13770376329,立马
2019-09-09,清江浦区正大路79号,清江浦区,淮安市,119.034531,33.560634,立马电动车(正大路店),江苏省,无,立马
2019-09-09,城西北路附近,淮安区,淮安市,119.140688,33.542837,立马电动车(都市花园店),江苏省,无,立马
2019-09-09,城东乡铁云路佳伦超市北100米,淮安区,淮安市,119.173941,33.536136,立马电动车(铁云路店),江苏省,无,立马
2019-09-09,怡园路板闸家苑商铺100号,清江浦区,淮安市,119.115845,33.536818,立马电动车专卖店,江苏省,无,立马
2019-09-09,东阳村高林组26号,盱眙县,淮安市,118.841057,32.954868,立马电动车专卖店,江苏省,18751268860,立马
2019-09-09,清江浦区徐杨小区,清江浦区,淮安市,119.157977,33.578318,立马电动车专卖店,江苏省,无,立马
2019-09-09,淮城镇北门大街,淮安区,淮安市,119.153106,33.524724,立马电动车维修部,江苏省,13770376268,立马
2019-09-09,楚涟路立马立马电动车旁,淮安区,淮安市,119.241966,33.723633,爱玛电动车,江苏省,无,立马
2019-09-09,紫荆路立马电动车旁,淮安区,淮安市,119.443494,33.517133,华仔发型,江苏省,无,立马
2019-09-09,045乡道立马电动车对面,淮安区,淮安市,119.219588,33.381565,天哲教育,江苏省,无,立马
2019-09-09,人民路北50米,淮安区,淮安市,119.445858,33.517868,博里照相,江苏省,13952340200,立马
2019-09-09,振兴路辅路,盐都区,盐城市,120.071675,33.370969,立马电动车,江苏省,无,立马
2019-09-09,人民中路,盐都区,盐城市,119.871591,33.292275,立马电动车,江苏省,无,立马
2019-09-09,惠民路与知青南路交叉口东50米,射阳县,盐城市,120.092254,33.653450,立马电动车,江苏省,无,立马
2019-09-09,纬二路与雅居路交叉口西100米,东台市,盐城市,120.381234,32.849075,立马电动车,江苏省,无,立马
2019-09-09,盐兴中路65号附近,盐都区,盐城市,120.041353,33.358667,立马电动车,江苏省,13814310095,立马
2019-09-09,沙井头西区西南100米(黄海路北),亭湖区,盐城市,120.134019,33.393810,立马电动车,江苏省,无,立马
2019-09-09,中河路与新富路交叉口西南100米,亭湖区,盐城市,120.137555,33.415832,立马电动车,江苏省,无,立马
2019-09-09,惠民路5幢南80米,亭湖区,盐城市,120.121761,33.374751,立马电动车,江苏省,18351276485,立马
2019-09-09,县开发区大庆西路146号,亭湖区,盐城市,120.134069,33.367561,立马电动车,江苏省,0515-83030689;0515-88359180,立马
2019-09-09,东渣路与304省道交叉口西北100米,东台市,盐城市,120.365290,32.896137,立马电动车,江苏省,13851038018,立马
2019-09-09,特庸镇码中街码头小学西100米,射阳县,盐城市,120.251163,33.505445,立马电动车,江苏省,无,立马
2019-09-09,东坎镇向阳大道32-34号,滨海县,盐城市,119.840066,33.993710,立马电动车,江苏省,无,立马
2019-09-09,丝绸路与五汛中路交叉口西南50米,滨海县,盐城市,120.086035,33.952864,立马电动车,江苏省,无,立马
2019-09-09,大转盘文博公寓,建湖县,盐城市,120.026799,33.537696,立马电动车,江苏省,无,立马
2019-09-09,大庆中路156号,亭湖区,盐城市,120.152732,33.376734,立马电动车,江苏省,无,立马
2019-09-09,伯森路093号,射阳县,盐城市,120.040601,33.721813,立马电动车,江苏省,15195436236,立马
2019-09-09,兴阳北路西50米,射阳县,盐城市,120.231260,33.675998,立马电动车,江苏省,13851157332,立马
2019-09-09,海城中路154号附近,射阳县,盐城市,120.323909,33.869461,立马电动车,江苏省,无,立马
2019-09-09,磊达公路北50米,东台市,盐城市,120.369637,32.774549,立马电动车,江苏省,0515-85552755,立马
2019-09-09,新街路249附近,滨海县,盐城市,119.967891,34.044150,立马电动车,江苏省,无,立马
2019-09-09,瑞海路步行街与金港南路交叉口西南50米,响水县,盐城市,119.818115,34.378049,立马电动车(瑞海路步行街),江苏省,13770192939,立马
2019-09-09,兆丰路与范公中路交叉口北100米,东台市,盐城市,120.331916,32.848360,立马电动车(仁济路店),江苏省,15251149929,立马
2019-09-09,和谐路鼎盛·盛世公馆(双园路南),响水县,盐城市,119.602795,34.208251,立马电动车(和谐路),江苏省,13625133179,立马
2019-09-09,镇北路159号附近,阜宁县,盐城市,119.648967,33.757457,立马电动车(陈集专卖店),江苏省,13921897007,立马
2019-09-09,先烈路与先胜路交叉口东100米,东台市,盐城市,120.255715,32.683712,立马电动车(后港专卖店),江苏省,13196657909,立马
2019-09-09,庙桥南路与庙桥路交叉口西100米,东台市,盐城市,120.480820,32.672447,立马电动车(富安海东专卖店),江苏省,13962057898,立马
2019-09-09,302县道西50米,响水县,盐城市,119.669088,34.129815,立马电动车小羚羊三轮车,江苏省,无,立马
2019-09-09,东台镇鼓楼东路162号,东台市,盐城市,120.327980,32.842750,立马电动车专卖,江苏省,无,立马
2019-09-09,人民路,仪征市,扬州市,119.245476,32.538520,立马电动车,江苏省,无,立马
2019-09-09,仙女路与利民北路交叉口西北50米,江都区,扬州市,119.557353,32.432938,立马电动车,江苏省,无,立马
2019-09-09,南都路与长江路交叉口西南100米,江都区,扬州市,119.579896,32.422938,立马电动车,江苏省,无,立马
2019-09-09,惠民西路21号附近,江都区,扬州市,119.560662,32.422481,立马电动车,江苏省,无,立马
2019-09-09,钟灵大道121号附近,邗江区,扬州市,119.462277,32.312865,立马电动车,江苏省,无,立马
2019-09-09,产业园产业园滨河路皇都漫城西门131号,广陵区,扬州市,119.481817,32.379173,立马电动车,江苏省,无,立马
2019-09-09,鹏宇路北50米,江都区,扬州市,119.764719,32.621533,立马电动车,江苏省,无,立马
2019-09-09,迎驾中路与龙腾街交叉口东北50米,高邮市,扬州市,119.307011,32.644947,立马电动车,江苏省,15952517945,立马
2019-09-09,李典镇新坝中学十字路口,广陵区,扬州市,119.616427,32.269766,立马电动车,江苏省,13952537431,立马
2019-09-09,嘶浦路与202县道交叉口东150米,江都区,扬州市,119.823396,32.359610,立马电动车,江苏省,无,立马
2019-09-09,刘集镇156乡道古井中学小学西,仪征市,扬州市,119.283411,32.461227,立马电动车,江苏省,无,立马
2019-09-09,四通北路39号,邗江区,扬州市,119.391663,32.505067,立马电动车,江苏省,无,立马
2019-09-09,丁沟镇麾村人民路24-8号,江都区,扬州市,119.749067,32.562240,立马电动车,江苏省,无,立马
2019-09-09,中兴路85-24号附近,仪征市,扬州市,119.140111,32.419865,立马电动车,江苏省,无,立马
2019-09-09,306县道南50米,江都区,扬州市,119.522930,32.520301,立马电动车,江苏省,无,立马
2019-09-09,长江公路14号附近,江都区,扬州市,119.780324,32.342233,立马电动车,江苏省,15862880115,立马
2019-09-09,蜀冈东路148号,邗江区,扬州市,119.393922,32.439335,立马电动车,江苏省,15995140316,立马
2019-09-09,九圩路与王桥路交叉口西北100米,广陵区,扬州市,119.542295,32.359082,立马电动车,江苏省,13365147280,立马
2019-09-09,公道镇公道中学对面,邗江区,扬州市,119.353867,32.585904,立马电动车,江苏省,无,立马
2019-09-09,336省道北150米,江都区,扬州市,119.658095,32.398090,立马电动车,江苏省,无,立马
2019-09-09,009乡道北50米,邗江区,扬州市,119.437551,32.476896,立马电动车,江苏省,13665247888,立马
2019-09-09,东方红西路22号,广陵区,扬州市,119.514483,32.455344,立马电动车,江苏省,13773530244,立马
2019-09-09,上林路与西山路交叉口西北50米,仪征市,扬州市,119.190113,32.478705,立马电动车(陈集专卖店),江苏省,18921931488,立马
2019-09-09,大桥镇嘶马沿河新村78号,江都区,扬州市,119.708188,32.372802,立马电动车(大中路),江苏省,无,立马
2019-09-09,学士东路20号附近,邗江区,扬州市,119.445226,32.452069,立马电动车(学士东路),江苏省,无,立马
2019-09-09,槐子路与瘦西湖路交叉口南100米,邗江区,扬州市,119.439371,32.452855,立马电动车(槐子路),江苏省,无,立马
2019-09-09,梅岭西路33号2栋1号门面房,邗江区,扬州市,119.434028,32.406946,立马电动车(梅岭西路),江苏省,15052515178,立马
2019-09-09,264省道与306县道交叉口南50米,江都区,扬州市,119.696982,32.518745,立马电动车(朱套路店),江苏省,0514-86738866,立马
2019-09-09,东花园路12号东60米,广陵区,扬州市,119.456540,32.374670,立马电动车专卖店,江苏省,18252568383,立马
2019-09-09,205县道与237省道交叉口西南100米,江都区,扬州市,119.518130,32.524901,立马五金机电,江苏省,无,立马
2019-09-09,李典运海超市旁立马专卖店,广陵区,扬州市,119.576857,32.316954,立马专卖店(李典店),江苏省,无,立马
2019-09-09,振兴东路与昌国北路交叉口北150米延陵村村委会附近,丹阳市,镇江市,119.481811,31.884721,立马电动车,江苏省,无,立马
2019-09-09,柳东大街与柳西大街交叉口西50米,丹阳市,镇江市,119.673255,31.888349,立马电动车,江苏省,无,立马
2019-09-09,北苑路东50米,丹阳市,镇江市,119.615991,32.014737,立马电动车,江苏省,无,立马
2019-09-09,吕蒙东路与吕蒙南路交叉口西100米,丹阳市,镇江市,119.738940,31.893094,立马电动车,江苏省,无,立马
2019-09-09,金陵西路183号东70米,丹阳市,镇江市,119.627525,31.996190,立马电动车,江苏省,无,立马
2019-09-09,经济技术开发区江苏丹阳开发区大泊镇明达车行,丹阳市,镇江市,119.598139,32.030090,立马电动车,江苏省,无,立马
2019-09-09,中心街26号附近,丹阳市,镇江市,119.599684,31.878098,立马电动车,江苏省,18361411533,立马
2019-09-09,高资街道高资西街,丹徒区,镇江市,119.303796,32.170235,立马电动车,江苏省,无,立马
2019-09-09,云阳镇西环路66号京杭国际大酒店斜对面,丹阳市,镇江市,119.558601,31.992551,立马电动车(西环路店),江苏省,无,立马
2019-09-09,迎宾路39号附近,丹阳市,镇江市,119.595797,32.004678,立马电动车(迎春路店),江苏省,无,立马
2019-09-09,全杏路与建镇南路交叉口东50米,丹阳市,镇江市,119.505674,31.999171,立马电动车(丹阳旗舰店),江苏省,15052951378,立马
2019-09-09,扬州路616号附近,海陵区,泰州市,119.892392,32.489767,立马电动车,江苏省,无,立马
2019-09-09,薛鹏路北50米,兴化市,泰州市,119.975586,32.787894,立马电动车,江苏省,无,立马
2019-09-09,张高路与306乡道交叉口东150米,姜堰区,泰州市,120.063808,32.399303,立马电动车,江苏省,无,立马
2019-09-09,文化路216号附近,兴化市,泰州市,120.042524,32.899482,立马电动车,江苏省,无,立马
2019-09-09,148乡道与310县道交叉口西150米,兴化市,泰州市,120.109126,32.804207,立马电动车,江苏省,18796729108,立马
2019-09-09,板桥南路31号,兴化市,泰州市,119.847644,32.929299,立马电动车,江苏省,无,立马
2019-09-09,大生三环路红绿灯,泰兴市,泰州市,119.987794,32.129920,立马电动车,江苏省,无,立马
2019-09-09,昭阳镇英武南路357号,兴化市,泰州市,119.845540,32.906575,立马电动车,江苏省,无,立马
2019-09-09,俞垛招待所西北60米(俞垛大道西),姜堰区,泰州市,120.023206,32.640212,立马电动车,江苏省,无,立马
2019-09-09,苏陈镇西石羊社区七组(石羊小学向北150米),海陵区,泰州市,119.993102,32.510143,立马电动车,江苏省,15958602740,立马
2019-09-09,张帅路与229省道交叉口西南50米,兴化市,泰州市,120.102246,32.727853,立马电动车,江苏省,15952651700,立马
2019-09-09,钱伦路,姜堰区,泰州市,120.244982,32.432908,立马电动车,江苏省,15345229837,立马
2019-09-09,222乡道与229省道交叉口北150米,姜堰区,泰州市,120.169020,32.398160,立马电动车,江苏省,无,立马
2019-09-09,夹河路与河横大道交叉口西北50米,姜堰区,泰州市,120.137144,32.602690,立马电动车,江苏省,0523-88658000;15252652136,立马
2019-09-09,南京路109-51号,姜堰区,泰州市,120.117674,32.513813,立马电动车,江苏省,13401226155,立马
2019-09-09,建设路114号,兴化市,泰州市,119.841098,32.936627,立马电动车,江苏省,无,立马
2019-09-09,城东街道苏北商业广场,海陵区,泰州市,119.963472,32.498362,立马电动车(南通路店),江苏省,0523-86273889,立马
2019-09-09,姜溱路与康鹏路交叉口东北50米,姜堰区,泰州市,120.079054,32.544239,立马电动车(桥头分店),江苏省,无,立马
2019-09-09,会船大道西50米,姜堰区,泰州市,120.093886,32.642221,立马电动车(溱潼专卖店),江苏省,13401223447,立马
2019-09-09,陈堡镇人民路转盘50米27号,兴化市,泰州市,120.005975,32.680587,立马电动车(边城专卖店),江苏省,13814492972,立马
2019-09-09,夹河街2号附近,姜堰区,泰州市,119.915082,32.574889,上海立马电动车(夹河街),江苏省,0523-88718468,立马
2019-09-09,中大街与朝阳南路交叉口东200米,姜堰区,泰州市,120.259387,32.504015,上海立马,江苏省,13952685790,立马
2019-09-09,王舍路与229省道交叉口南150米,姜堰区,泰州市,120.165317,32.441735,立天电动车,江苏省,15861015019,立马
2019-09-09,青年路23号(立马电动车隔壁),海陵区,泰州市,119.912668,32.485881,紫汇外贸服饰,江苏省,15366721222,立马
2019-09-09,青年路23号立马电动车二楼,海陵区,泰州市,119.912852,32.485386,梦想外语,江苏省,无,立马
2019-09-09,张家圩镇大桥东,泗阳县,宿迁市,118.682143,33.842974,立马电动车,江苏省,无,立马
2019-09-09,北京西路与温州路交叉口西150米,泗阳县,宿迁市,118.652310,33.729492,立马电动车(形象店),江苏省,无,立马
2019-09-09,水岸城邦,泗洪县,宿迁市,118.221590,33.454897,上海立马电动车(泗洪旗舰店),江苏省,0527-88577588,立马
2019-09-09,744乡道立马电动车旁,沭阳县,宿迁市,118.916580,34.356860,福如东海,江苏省,0527-83816999,立马
2019-09-09,文二路306号华东电动车市场,西湖区,杭州市,120.127059,30.282797,立马电动车,浙江省,无,立马
2019-09-09,联盟新区南苑街251号,余杭区,杭州市,120.300362,30.399871,立马电动车,浙江省,无,立马
2019-09-09,西兴迎春小区95-96号,滨江区,杭州市,120.222959,30.195228,立马电动车,浙江省,无,立马
2019-09-09,兴旺村3组大来桥36号,余杭区,杭州市,120.297054,30.464934,立马电动车,浙江省,无,立马
2019-09-09,东湖中路126号附近,余杭区,杭州市,120.305801,30.423908,立马电动车,浙江省,无,立马
2019-09-09,头蓬镇全民路55号东江公寓西门,萧山区,杭州市,120.504528,30.309393,立马电动车,浙江省,无,立马
2019-09-09,金乔街,江干区,杭州市,120.341058,30.327171,立马电动车,浙江省,无,立马
2019-09-09,明月桥路369号附近,江干区,杭州市,120.220153,30.300055,立马电动车,浙江省,无,立马
2019-09-09,永祥街109号北60米,下城区,杭州市,120.187535,30.343737,立马电动车,浙江省,无,立马
2019-09-09,厚诚路202附近,西湖区,杭州市,120.081711,30.324956,立马电动车,浙江省,无,立马
2019-09-09,三墩镇周坪路169号,西湖区,杭州市,120.069397,30.342535,立马电动车,浙江省,无,立马
2019-09-09,人民路与峙山西路交叉口西北100米,萧山区,杭州市,120.244121,30.045231,立马电动车,浙江省,无,立马
2019-09-09,萧西路75号10-11,萧山区,杭州市,120.259811,30.165847,立马电动车,浙江省,无,立马
2019-09-09,九乔路北100米,江干区,杭州市,120.292376,30.305565,立马电动车,浙江省,无,立马
2019-09-09,杨翠路山里人家饭店北30米,淳安县,杭州市,118.547396,29.432749,立马电动车,浙江省,无,立马
2019-09-09,学源街1339-1341号附近,江干区,杭州市,120.330408,30.318485,立马电动车,浙江省,无,立马
2019-09-09,钱王大街1102号(万华广场斜对面),临安区,杭州市,119.704331,30.222697,立马电动车,浙江省,无,立马
2019-09-09,丁兰街道环丁路1582号,江干区,杭州市,120.224813,30.359488,立马电动车,浙江省,17767178773,立马
2019-09-09,华兴路491号,余杭区,杭州市,119.974932,30.381100,立马电动车,浙江省,无,立马
2019-09-09,横凉亭路28号17号2,富阳区,杭州市,119.924334,30.049200,立马电动车,浙江省,无,立马
2019-09-09,超峰东路201号,余杭区,杭州市,120.315537,30.434835,立马电动车,浙江省,无,立马
2019-09-09,春江东路232一238号,桐庐县,杭州市,119.698121,29.805599,立马电动车,浙江省,0571-64214478,立马
2019-09-09,星桥街道星桥南路139-141号,余杭区,杭州市,120.260862,30.393743,立马电动车,浙江省,18758089596,立马
2019-09-09,受降镇红波路77号,富阳区,杭州市,119.965164,30.124412,立马电动车,浙江省,无,立马
2019-09-09,朝阳路洋溪农贸市场西南行100米,建德市,杭州市,119.315884,29.512979,立马电动车,浙江省,13588361778,立马
2019-09-09,寿昌镇桥东路2幢8号,建德市,杭州市,119.229057,29.358551,立马电动车,浙江省,无,立马
2019-09-09,干潭镇建北南路162号,建德市,杭州市,119.542739,29.614112,立马电动车,浙江省,无,立马
2019-09-09,302省道与416县道交叉口西南100米,富阳区,杭州市,119.669303,29.981916,立马电动车,浙江省,无,立马
2019-09-09,洋塘路196-14号西80米,桐庐县,杭州市,119.663189,29.804550,立马电动车,浙江省,无,立马
2019-09-09,文渊路63号西60米,江干区,杭州市,120.338678,30.312686,立马电动车,浙江省,无,立马
2019-09-09,钱江路536-538号,上城区,杭州市,120.197154,30.235365,立马电动车(钱江路),浙江省,13185712882,立马
2019-09-09,乔司南街117-119号,余杭区,杭州市,120.286198,30.348069,立马电动车(南街),浙江省,无,立马
2019-09-09,明德路与明艺路交叉口东北100米,滨江区,杭州市,120.154730,30.176440,立马电动车(浦沿江畔店),浙江省,无,立马
2019-09-09,晨晖路南匝道推官房88号楼,萧山区,杭州市,120.258836,30.131053,立马电动车(曹家桥旗舰店),浙江省,15957190646,立马
2019-09-09,余杭街道海派风范茗园7幢7-14室,余杭区,杭州市,119.952456,30.268367,立马电动车(文一西路店),浙江省,15925601785,立马
2019-09-09,景星观路与邱山大街交叉口东北50米,余杭区,杭州市,120.296972,30.420708,立马电动车(邱山大街),浙江省,无,立马
2019-09-09,瓜沥镇长沙路解放村5组35号,萧山区,杭州市,120.499428,30.191132,立马电动车(萧山瓜沥店),浙江省,无,立马
2019-09-09,金城北路与305省道交叉口西北50米,富阳区,杭州市,119.752718,29.999471,立马电动车(松溪专卖店),浙江省,13968165048,立马
2019-09-09,睦川大道553,淳安县,杭州市,119.153125,29.608880,立马电动车(睦州大道店),浙江省,15906688460,立马
2019-09-09,新街镇长山头村工人路608号旁,萧山区,杭州市,120.297647,30.188051,立马电动车(长山店),浙江省,15906650771,立马
2019-09-09,华丰路345号,下城区,杭州市,120.194317,30.339328,立马电动车(华丰路店),浙江省,13148330315,立马
2019-09-09,浦沿街道新浦路218号,滨江区,杭州市,120.150443,30.158101,立马电动车(新浦路店),浙江省,无,立马
2019-09-09,浦沿街道东冠公寓8号楼1单元102室102室,滨江区,杭州市,120.162368,30.165942,立马电动车(东冠路店),浙江省,15356154187,立马
2019-09-09,石桥路251号40号营业房,下城区,杭州市,120.193213,30.321001,立马电动车(石桥路),浙江省,无,立马
2019-09-09,双庙路与长江路交叉口东南100米,滨江区,杭州市,120.195531,30.170448,立马电动车(长江路),浙江省,无,立马
2019-09-09,人民路8-9号,萧山区,杭州市,120.259533,30.159785,立马电动车(崇化旗舰店),浙江省,13073691468,立马
2019-09-09,秋涛北路190-4号,江干区,杭州市,120.200217,30.274729,立马电动车(秋涛北路),浙江省,0571-86079627,立马
2019-09-09,笕桥街道黄家村二区105号,江干区,杭州市,120.237392,30.318273,立马电动车店,浙江省,无,立马
2019-09-09,民丰村,萧山区,杭州市,120.193096,30.081541,立马电动车超市,浙江省,15068815809,立马
2019-09-09,商贸路37号附近,江干区,杭州市,120.284535,30.313417,立马电动车专卖店,浙江省,15925621899,立马
2019-09-09,东洲街道明星村122号,富阳区,杭州市,120.044094,30.067077,上海立马电动车(倪家路),浙江省,无,立马
2019-09-09,分水镇院士路东门雅苑西区349号,桐庐县,杭州市,119.439735,29.933830,上海立马电动车(东门路),浙江省,0571-64315333,立马
2019-09-09,东康路与新螺路交叉口南200米,萧山区,杭州市,120.325601,30.142808,立马电动车专卖店(东康路店),浙江省,无,立马
2019-09-09,刀茅巷与庆春路交叉口东北50米,下城区,杭州市,120.186022,30.258217,上海立马佳丽奇电动车(庆春路旗舰店),浙江省,18005716361,立马
2019-09-09,新街镇白腊路60号,萧山区,杭州市,120.304172,30.192086,立马电动车新农都店,浙江省,无,立马
2019-09-09,康桥路92号德清线路车间康桥工区,拱墅区,杭州市,120.151406,30.365004,立马金箭电动车,浙江省,无,立马
2019-09-09,滨湖路与环湖北路交叉口西南50米,淳安县,杭州市,119.058990,29.607783,电动车行,浙江省,无,立马
2019-09-09,闲林东路7号,余杭区,杭州市,120.005289,30.229645,小牛电动(闲林店),浙江省,15925676545,立马
2019-09-09,庆春路22号(三瑞大厦),下城区,杭州市,120.186102,30.258210,小牛电动授权专卖店,浙江省,0571-87291245;15658877755,立马
2019-09-09,旧县街道港桐路22号,桐庐县,杭州市,119.628638,29.800510,钱良车行,浙江省,无,立马
2019-09-09,倪家路西50米,富阳区,杭州市,120.044002,30.067254,向华车行,浙江省,无,立马
2019-09-09,留下街道梦溪街留和家苑南区,西湖区,杭州市,120.053652,30.237557,雅迪,浙江省,15988407374,立马
2019-09-09,俞范东路与前程路交叉口东南100米,镇海区,宁波市,121.676573,29.962768,立马电动车,浙江省,无,立马
2019-09-09,金合路东200米,慈溪市,宁波市,121.232169,30.327542,立马电动车,浙江省,无,立马
2019-09-09,中兴一路6号利时广场F1,慈溪市,宁波市,121.291458,30.291786,立马电动车,浙江省,无,立马
2019-09-09,集士港镇集士东路197号,海曙区,宁波市,121.446983,29.867544,立马电动车,浙江省,无,立马
2019-09-09,,余姚市,宁波市,121.051777,30.147114,立马电动车,浙江省,无,立马
2019-09-09,华胜路45号附近,慈溪市,宁波市,121.263979,30.178071,立马电动车,浙江省,无,立马
2019-09-09,中兴东路567号,奉化区,宁波市,121.290361,29.692699,立马电动车,浙江省,无,立马
2019-09-09,逍林镇樟新南路14号,慈溪市,宁波市,121.323397,30.159694,立马电动车,浙江省,无,立马
2019-09-09,兴中路92号附近,宁海县,宁波市,121.313259,29.202966,立马电动车,浙江省,无,立马
2019-09-09,西店北路东100米,宁海县,宁波市,121.443622,29.488151,立马电动车,浙江省,13336622363,立马
2019-09-09,车站路88号附近,镇海区,宁波市,121.709740,29.951125,立马电动车,浙江省,无,立马
2019-09-09,庵余路与邮电路交叉口东北50米,慈溪市,宁波市,121.215922,30.268742,立马电动车(邮电路),浙江省,无,立马
2019-09-09,三北东路880-886号附近,慈溪市,宁波市,121.417012,30.157649,立马电动车(横滨线),浙江省,无,立马
2019-09-09,和乐路与火炉头路交叉口东北100米,象山县,宁波市,121.939937,29.202632,立马电动车(火炉头路店),浙江省,无,立马
2019-09-09,恒山路96-98号,北仑区,宁波市,121.830390,29.908270,立马电动车(恒山路),浙江省,无,立马
2019-09-09,阳明西路371-10号,余姚市,宁波市,121.131025,30.047202,立马电动车(阳明西路),浙江省,无,立马
2019-09-09,大契上街5号,北仑区,宁波市,121.802597,29.893218,立马电动车(镇兴路店),浙江省,无,立马
2019-09-09,南渡路208号附近,奉化区,宁波市,121.438508,29.706173,上海立马电动车(南浦卫生院东南),浙江省,无,立马
2019-09-09,中山东路889号,奉化区,宁波市,121.439377,29.664988,立马电动车店,浙江省,无,立马
2019-09-09,桥头路与蓬莱中街交叉口东南100米,慈溪市,宁波市,121.496479,30.096683,立马电动车专卖店,浙江省,无,立马
2019-09-09,桥头胡街道梅茶线东方幼儿园西200米,宁海县,宁波市,121.491402,29.381386,立马电动车专卖店,浙江省,13968323570,立马
2019-09-09,新瀛路11号,象山县,宁波市,121.954046,29.473338,立马电动车专卖店,浙江省,无,立马
2019-09-09,坎墩大道960-966号,慈溪市,宁波市,121.255847,30.225664,立马电动车坎墩旗舰店,浙江省,18006740823,立马
2019-09-09,人民大道278号,宁海县,宁波市,121.437642,29.292989,上海立马电动车(宁海县教育局北),浙江省,0574-59997005,立马
2019-09-09,天安路,象山县,宁波市,121.895933,29.449041,樟树下树立马电动车专卖店,浙江省,无,立马
2019-09-09,坎墩大道960号,慈溪市,宁波市,121.255764,30.225679,坎墩立马电动车旗舰店,浙江省,0574-63285309,立马
2019-09-09,钟山东路72号,余姚市,宁波市,121.241702,29.989167,陆埠镇立马电动车专卖店(天鹰车业),浙江省,0574-62381234,立马
2019-09-09,观海卫路26号附近,慈溪市,宁波市,121.412084,30.163615,幸福电动车(立马电动车),浙江省,13567800782,立马
2019-09-09,周巷镇北二环西路26号,慈溪市,宁波市,121.133854,30.190351,天驰电动车商行,浙江省,13486090190,立马
2019-09-09,附海镇观附公路572号立马电动车,慈溪市,宁波市,121.387091,30.203444,兰兰车行,浙江省,13566062399,立马
2019-09-09,龙镇大道与长邱线交叉口西南120米,慈溪市,宁波市,121.581421,30.079252,斌华车行,浙江省,13706655907,立马
2019-09-09,五乡镇蟠龙北路环卫站西侧(甬发实业对面),鄞州区,宁波市,121.687989,29.847085,宁波文景车业有限公司(立马电动车),浙江省,无,立马
2019-09-09,新瀛路11号立马电动车旁,象山县,宁波市,121.954094,29.473291,老北京炸酱面(爵溪分店),浙江省,无,立马
2019-09-09,新桥镇六虹桥路1223号,瓯海区,温州市,120.619715,27.980357,立马电动车,浙江省,无,立马
2019-09-09,张堡工业街137号附近,永嘉县,温州市,120.615463,28.046527,立马电动车,浙江省,无,立马
2019-09-09,龙港镇宫后路262号侧,龙港市,温州市,120.552241,27.572579,立马电动车,浙江省,15727840004,立马
2019-09-09,龙翔路1262号附近,龙港市,温州市,120.566099,27.572037,立马电动车,浙江省,13115890950;18958705450,立马
2019-09-09,宁康西路32号附近,乐清市,温州市,120.963157,28.115103,立马电动车,浙江省,无,立马
2019-09-09,繁盛路290号附近,瓯海区,温州市,120.574775,27.993435,立马电动车,浙江省,13867724462,立马
2019-09-09,双屿南路76号附近,瑞安市,温州市,120.457433,27.780497,立马电动车,浙江省,无,立马
2019-09-09,伯温路136-137号,文成县,温州市,120.092395,27.791096,立马电动车,浙江省,13868692555,立马
2019-09-09,娄桥街道金桥路103号,鹿城区,温州市,120.686711,28.003172,立马电动车,浙江省,无,立马
2019-09-09,柳市虎啸路338-342号,乐清市,温州市,120.911040,28.039789,立马电动车,浙江省,13968712975,立马
2019-09-09,经济开发区繁荣北街240-248号,龙湾区,温州市,120.768163,27.831263,立马电动车(海城店),浙江省,15958766580,立马
2019-09-09,温州大道85号,龙湾区,温州市,120.748781,27.969584,立马电动车(温州大道),浙江省,0577-86552489,立马
2019-09-09,银河路235号附近交警队楼下,瓯海区,温州市,120.532689,27.992973,立马电动车(银河路店),浙江省,无,立马
2019-09-09,围垦路与罗东南街交叉口北50米,龙湾区,温州市,120.823888,27.911688,立马电动车(罗东南街),浙江省,13676512848,立马
2019-09-09,灵溪镇城中北路147-149号,苍南县,温州市,120.400313,27.512028,立马电动车(城中北路店),浙江省,15958788223,立马
2019-09-09,北白象镇交通东路202号,乐清市,温州市,120.856598,28.038422,立马电动车(白象专卖店),浙江省,15057511667,立马
2019-09-09,塘下镇环镇北路26号27号,瑞安市,温州市,120.696267,27.834168,立马电动车(环镇北路店),浙江省,0577-65828853,立马
2019-09-09,腾龙东路75-83号,平阳县,温州市,120.333351,27.638688,上海立马电动车(水头专卖店),浙江省,15558812019,立马
2019-09-09,泰分路23号(泰顺县文物监察大队西),泰顺县,温州市,119.719846,27.556312,上海立马电动车(泰顺县文物监察大队西),浙江省,无,立马
2019-09-09,育英北路106-2号,乐清市,温州市,120.904521,28.053648,上海立马电动车专卖店,浙江省,18257774688;13968970581,立马
2019-09-09,茶山街道创荣广场4幢149-150号,瓯海区,温州市,120.704999,27.916604,学长电驴立马电动车,浙江省,15858839889,立马
2019-09-09,瓯海大道249号第2间,瓯海区,温州市,120.675094,27.963917,温州市瓯海梧田立马电动车店,浙江省,15057576292,立马
2019-09-09,娄南街125-127号,瓯海区,温州市,120.605147,27.969340,小米哥电动车(娄南街),浙江省,15058983678,立马
2019-09-09,新阳路77号,南湖区,嘉兴市,120.922042,30.709312,立马电动车,浙江省,13095618198,立马
2019-09-09,兴平一路与城西路交叉口西100米,平湖市,嘉兴市,121.004038,30.704760,立马电动车,浙江省,无,立马
2019-09-09,洛隆路387号,海宁市,嘉兴市,120.676211,30.534371,立马电动车,浙江省,无,立马
2019-09-09,兴业路与凯旋路交叉口东100米,桐乡市,嘉兴市,120.626415,30.675249,立马电动车,浙江省,无,立马
2019-09-09,安庆路文华小区底商,桐乡市,嘉兴市,120.527235,30.608045,立马电动车,浙江省,13505732036,立马
2019-09-09,大园村一号,海宁市,嘉兴市,120.343601,30.371283,立马电动车,浙江省,15223656426,立马
2019-09-09,稻乐路与逾桥东路交叉口西北50米,桐乡市,嘉兴市,120.567331,30.648824,立马电动车,浙江省,无,立马
2019-09-09,洲泉镇中洲路13-15号,桐乡市,嘉兴市,120.360930,30.569758,立马电动车,浙江省,无,立马
2019-09-09,花园路与解放西路交叉口南50米,嘉善县,嘉兴市,120.916747,30.844278,立马电动车,浙江省,无,立马
2019-09-09,木业大道253号附近,嘉善县,嘉兴市,120.932877,30.868787,立马电动车,浙江省,无,立马
2019-09-09,启航路与海塘路交叉口北100米,海宁市,嘉兴市,120.415533,30.386693,立马电动车,浙江省,无,立马
2019-09-09,修川路233号附近,海宁市,嘉兴市,120.443445,30.461448,立马电动车,浙江省,无,立马
2019-09-09,启潮路,海宁市,嘉兴市,120.421230,30.381710,立马电动车,浙江省,18074085700,立马
2019-09-09,声宝路与大舜路交叉口南100米,嘉善县,嘉兴市,120.893113,30.983182,立马电动车,浙江省,无,立马
2019-09-09,庆丰北路与文昌路交叉口西南50米,桐乡市,嘉兴市,120.551490,30.636125,立马电动车(庆丰北路店),浙江省,无,立马
2019-09-09,谈公北路438号附近,嘉善县,嘉兴市,120.930591,30.852006,立马电动车(谈公北路),浙江省,无,立马
2019-09-09,由拳路大树金港湾门店533号,南湖区,嘉兴市,120.739451,30.731898,立马电动车专卖店,浙江省,无,立马
2019-09-09,双溪路由拳路交叉口(久久小区30号),南湖区,嘉兴市,120.790009,30.729390,立马电动车嘉兴旗舰店,浙江省,无,立马
2019-09-09,修川路1138号附近,海宁市,嘉兴市,120.443320,30.461427,腾飞车行(蓝贝电动车专卖),浙江省,0573-87325421,立马
2019-09-09,白鱼谭路650立马电动车专卖店,吴兴区,湖州市,120.123354,30.880328,立马电动车,浙江省,15968281096,立马
2019-09-09,纬一路,吴兴区,湖州市,120.197178,30.840300,立马电动车,浙江省,无,立马
2019-09-09,织里镇公园路67号,吴兴区,湖州市,120.259834,30.874606,立马电动车,浙江省,无,立马
2019-09-09,武康镇千秋街373号,德清县,湖州市,119.969444,30.541525,立马电动车(千秋街),浙江省,无,立马
2019-09-09,递铺镇铜山桥阳光花苑阳光菜场旁天目北路302,安吉县,湖州市,119.699571,30.648843,立马电动车(安吉店),浙江省,18757270332,立马
2019-09-09,雉城街道仓前二街137到141号,长兴县,湖州市,119.912470,31.002097,长兴立马电动车行,浙江省,0572-7689206;15336960700;13666520850,立马
2019-09-09,二环南路372号,吴兴区,湖州市,120.081137,30.843271,立马电动车专卖店,浙江省,15805826479,立马
2019-09-09,华丰路与高富路交叉口东100米,吴兴区,湖州市,120.119550,30.877353,阿飞车行,浙江省,15968281096,立马
2019-09-09,,柯桥区,绍兴市,120.504475,30.054869,立马电动车,浙江省,无,立马
2019-09-09,公园路,柯桥区,绍兴市,120.632849,29.895612,立马电动车,浙江省,无,立马
2019-09-09,灵芝街道蚌潭小区门面,越城区,绍兴市,120.559859,30.033151,立马电动车,浙江省,无,立马
2019-09-09,群贤西路8号附近,柯桥区,绍兴市,120.408168,30.119292,立马电动车,浙江省,无,立马
2019-09-09,华舍街道张溇小区云梯桥园2-106-2,柯桥区,绍兴市,120.498766,30.103683,立马电动车,浙江省,18367563550,立马
2019-09-09,凤山路280号附近,上虞区,绍兴市,120.885293,30.019521,立马电动车,浙江省,无,立马
2019-09-09,铭仕路1-35号,诸暨市,绍兴市,120.305800,29.909731,立马电动车,浙江省,无,立马
2019-09-09,枫桥镇步森大道327号,诸暨市,绍兴市,120.418754,29.792449,立马电动车,浙江省,无,立马
2019-09-09,银桥路288号附近,越城区,绍兴市,120.677398,29.998453,立马电动车,浙江省,18888763621,立马
2019-09-09,百崧路与028乡道交叉口东50米,上虞区,绍兴市,120.840896,30.084849,立马电动车,浙江省,无,立马
2019-09-09,东直街与814县道交叉口南50米,嵊州市,绍兴市,120.922165,29.578230,立马电动车,浙江省,0575-83055070,立马
2019-09-09,下大线,柯桥区,绍兴市,120.503306,30.132481,立马电动车,浙江省,无,立马
2019-09-09,镜湖路131号,越城区,绍兴市,120.587638,29.971293,立马电动车(镜湖路店),浙江省,0575-85893209,立马
2019-09-09,人民路6号6-10附近,柯桥区,绍兴市,120.631749,29.890058,立马电动车(宝海店),浙江省,无,立马
2019-09-09,南明街道盘龙路一弄3号,新昌县,绍兴市,120.920870,29.485012,立马电动车(城东店),浙江省,无,立马
2019-09-09,盾安北路8号,诸暨市,绍兴市,120.341264,29.931094,立马电动车(店口小伟专卖),浙江省,无,立马
2019-09-09,齐贤镇羊山公园,柯桥区,绍兴市,120.544912,30.114346,立马电动车(羊山路店),浙江省,无,立马
2019-09-09,江滨西路158号,嵊州市,绍兴市,120.815032,29.585767,立马电动车(江滨西路店),浙江省,无,立马
2019-09-09,大唐镇开元西路183号,诸暨市,绍兴市,120.159530,29.691552,立马电动车(大唐旗舰店),浙江省,0575-87752219;13967540222,立马
2019-09-09,鼓山中路215号,新昌县,绍兴市,120.889547,29.503473,立马电动车(旗舰店),浙江省,15988251008,立马
2019-09-09,柯桥湖中路裕民西区208号,柯桥区,绍兴市,120.505372,30.080849,立马电动车(湖中路),浙江省,0575-84091488,立马
2019-09-09,石璜镇805县道,嵊州市,绍兴市,120.658310,29.537799,上海立马电动车,浙江省,0575-83698111,立马
2019-09-09,阳光路168号,新昌县,绍兴市,120.910836,29.499671,立马电动车专卖店,浙江省,无,立马
2019-09-09,湖滨新村58号,嵊州市,绍兴市,120.834414,29.586226,东桥立马电动车,浙江省,无,立马
2019-09-09,甘霖镇秀山路141号立马电动车,嵊州市,绍兴市,120.723318,29.525489,立马电动车三羊泰电动车总汇,浙江省,0575-83665118,立马
2019-09-09,鉴湖街道鉴湖镇栖凫路391号,越城区,绍兴市,120.577098,29.932575,立马智能车,浙江省,无,立马
2019-09-09,草塔镇天元路80号,诸暨市,绍兴市,120.139726,29.684101,佳捷时电动车(草塔旗舰店),浙江省,无,立马
2019-09-09,鼓山中路211号立马电动车专卖店,新昌县,绍兴市,120.889287,29.503498,主力公司电动车,浙江省,无,立马
2019-09-09,104国道与309省道交叉口东南100米,新昌县,绍兴市,120.974161,29.477722,南洋电动三轮车专卖店,浙江省,13676891066,立马
2019-09-09,璜山镇建新路立马电动车北侧30米,诸暨市,绍兴市,120.329330,29.571441,新华书店(璜山店),浙江省,0575-87091269,立马
2019-09-09,湖中路208号立马电动车2楼,柯桥区,绍兴市,120.505352,30.080815,美颐生子午养生体验馆(双梅店),浙江省,15158259012,立马
2019-09-09,"湖中路210号二楼(裕民西区东门,立马电动车二楼)",柯桥区,绍兴市,120.505365,30.080826,蜂潮健身工作室(湖中路店),浙江省,13305772082;18658509609,立马
2019-09-09,川塘路与拥军路交叉口东南100米,义乌市,金华市,120.050388,29.337165,立马电动车,浙江省,无,立马
2019-09-09,长乐街靠近金华棋院(白龙桥分院)188号,婺城区,金华市,119.560178,29.075869,立马电动车,浙江省,0579-82221655;18258956005,立马
2019-09-09,大陈镇金山路5号,义乌市,金华市,120.106276,29.463139,立马电动车,浙江省,无,立马
2019-09-09,,义乌市,金华市,120.039568,29.290799,立马电动车,浙江省,无,立马
2019-09-09,东磁路48号东60米,东阳市,金华市,120.321701,29.161411,立马电动车,浙江省,无,立马
2019-09-09,花街中路14,永康市,金华市,119.964780,28.921200,立马电动车,浙江省,无,立马
2019-09-09,永拖路100号附近,永康市,金华市,120.031318,28.917524,立马电动车,浙江省,无,立马
2019-09-09,苏溪镇人民南路100号,义乌市,金华市,120.128398,29.408180,立马电动车,浙江省,无,立马
2019-09-09,大陈镇楂林大道公路边上,义乌市,金华市,120.143374,29.468587,立马电动车,浙江省,无,立马
2019-09-09,后城大街与新塘北路交叉口北50米,永康市,金华市,120.135256,28.944083,立马电动车,浙江省,0579-87255603,立马
2019-09-09,义亭镇铜溪小区8号楼,义乌市,金华市,119.967592,29.237875,立马电动车(稠义路),浙江省,无,立马
2019-09-09,东城街道经济开发区大坟山沿村九州西路129号,永康市,金华市,120.086824,28.921330,立马电动车(九州西路店),浙江省,0579-87585458,立马
2019-09-09,安文镇北镇街13号,磐安县,金华市,120.442340,29.057721,立马电动车(文溪北路店),浙江省,0579-84666526,立马
2019-09-09,东义路37号附近,东阳市,金华市,120.210413,29.274177,立马电动车(东义路店),浙江省,15088297649,立马
2019-09-09,八一南街1-6号,婺城区,金华市,119.652667,29.090916,立马电动车(江南书院东北),浙江省,0579-82067066,立马
2019-09-09,铃川路22号4附近,永康市,金华市,120.040794,28.894047,立马电动车(永康旗舰店),浙江省,0579-87126338,立马
2019-09-09,横店镇后明工业区济慈路56号,东阳市,金华市,120.278351,29.155994,立马电动车店,浙江省,无,立马
2019-09-09,北苑街道望道路17号,义乌市,金华市,120.055503,29.305069,立马电动车旗舰店,浙江省,无,立马
2019-09-09,傅村镇向阳村紫香苑3幢110室,金东区,金华市,119.901528,29.236632,立马电动车专卖店,浙江省,无,立马
2019-09-09,金兰中线(近长湖路),婺城区,金华市,119.596688,29.104810,上海立马电动车(长湖路店),浙江省,无,立马
2019-09-09,铜陵西路32号,永康市,金华市,120.079035,28.906643,立马电动车长城旗舰店,浙江省,0579-87225858,立马
2019-09-09,城中北路16号林业大厦1层,义乌市,金华市,120.081346,29.313670,立马电动车义乌旗舰店,浙江省,0579-88122188;15858936208,立马
2019-09-09,苏孟乡七一农场口,婺城区,金华市,119.626472,29.008495,立马电动车行,浙江省,无,立马
2019-09-09,古山镇南风路45号,永康市,金华市,120.162708,28.974910,立马电动车豪爵铃木专卖店,浙江省,15214720098,立马
2019-09-09,鞋塘杭金路96号,金东区,金华市,119.839720,29.219206,可人电动车,浙江省,18266908558,立马
2019-09-09,九铃东路3235号立马电动车,永康市,金华市,120.040840,28.894025,阿宝车城,浙江省,13396794955,立马
2019-09-09,尚书路与曹聚仁路交叉口北150米,兰溪市,金华市,119.758235,29.348346,朝军车行,浙江省,13588632937,立马
2019-09-09,三衢路23-25号,柯城区,衢州市,118.866591,28.936699,立马电动车,浙江省,无,立马
2019-09-09,大桥北路与大桥路交叉口西南50米,柯城区,衢州市,118.779443,28.937756,立马电动车,浙江省,无,立马
2019-09-09,定阳北路240号,常山县,衢州市,118.514729,28.896920,立马电动车,浙江省,无,立马
2019-09-09,廿里镇白马街66号聪明车行,衢江区,衢州市,118.832930,28.872275,立马电动车,浙江省,无,立马
2019-09-09,301县道中国移动旁,衢江区,衢州市,118.983134,28.869553,立马电动车,浙江省,13867023001,立马
2019-09-09,环城西路123号,江山市,衢州市,118.620876,28.729119,立马电动车(环城西路),浙江省,无,立马
2019-09-09,三衢路156号,柯城区,衢州市,118.875789,28.942313,立马电动车(三衢路店),浙江省,0570-8564168,立马
2019-09-09,红庆路与203省道交叉口东南50米,江山市,衢州市,118.443094,28.498184,立马电动车(花溪岙专卖店),浙江省,无,立马
2019-09-09,东迹大道189-10号,衢江区,衢州市,118.937023,28.963866,立马电动车(通江路店),浙江省,0570-8505339,立马
2019-09-09,巨化学院路370号,柯城区,衢州市,118.909582,28.890557,立马电动车(圆中苑东),浙江省,0570-8887162,立马
2019-09-09,望湖路与芹南路交叉口西行50米,开化县,衢州市,118.406022,29.130484,立马电动车(芹南路店),浙江省,0570-6165227,立马
2019-09-09,三衢路泉井垄15号,柯城区,衢州市,118.877258,28.943425,立马电动车售后服务中心,浙江省,0570-8564166,立马
2019-09-09,贺福中路立马电动车旁,江山市,衢州市,118.531019,28.666066,天能电池,浙江省,无,立马
2019-09-09,东华街76号78号(立马电动车旁),龙游县,衢州市,119.186016,29.032254,钟氏西饼,浙江省,0570-7845325;18005706021,立马
2019-09-09,东河北路12幢附近,定海区,舟山市,122.119324,30.017609,立马电动车,浙江省,13665818898,立马
2019-09-09,衢山大道868附近,岱山县,舟山市,122.217719,30.251674,立马电动车,浙江省,无,立马
2019-09-09,镇府路鲜奶屋旁,定海区,舟山市,121.999483,30.072952,立马电动车,浙江省,无,立马
2019-09-09,东海中路531号,普陀区,舟山市,122.289088,29.944578,立马电动车(东海中路),浙江省,18606806628,立马
2019-09-09,玉坎北路428号,玉环市,台州市,121.244211,28.119567,立马电动车,浙江省,0576-87151136,立马
2019-09-09,康育路与玉兴东路交叉口西南100米,玉环市,台州市,121.233415,28.131110,立马电动车,浙江省,无,立马
2019-09-09,环城南路129号-133号,临海市,台州市,121.501468,28.760213,立马电动车,浙江省,无,立马
2019-09-09,金清镇粮库路127号,路桥区,台州市,121.528195,28.504284,立马电动车,浙江省,4008818777,立马
2019-09-09,建设路与金港西路交叉口东50米,温岭市,台州市,121.521354,28.498627,立马电动车,浙江省,13586066787,立马
2019-09-09,开元南路41号附近,温岭市,台州市,121.309195,28.383059,立马电动车,浙江省,无,立马
2019-09-09,泽国镇牧南村牧横路142号,温岭市,台州市,121.350887,28.452731,立马电动车,浙江省,15857606057,立马
2019-09-09,章安综合市场257号,椒江区,台州市,121.418389,28.708768,立马电动车,浙江省,无,立马
2019-09-09,里王路151-155号,路桥区,台州市,121.375001,28.576271,立马电动车,浙江省,无,立马
2019-09-09,穿镇路624号,仙居县,台州市,120.846603,28.856758,立马电动车,浙江省,0576-87613583,立马
2019-09-09,蓬街镇工业园区,路桥区,台州市,121.335112,28.589863,立马电动车,浙江省,无,立马
2019-09-09,清港镇清华南路76-78号,玉环市,台州市,121.288210,28.247927,立马电动车,浙江省,0576-87101721;18958676717,立马
2019-09-09,吉祥村上马北路5号,温岭市,台州市,121.606493,28.277417,立马电动车,浙江省,15606569136;15214780049,立马
2019-09-09,上椒线洪三路220号,椒江区,台州市,121.415762,28.611341,立马电动车(洪三西路),浙江省,0576-88012677,立马
2019-09-09,海游镇新兴街88号,三门县,台州市,121.373070,29.118060,立马电动车(新兴街店),浙江省,0576-83360006,立马
2019-09-09,坦头镇苍山中学对面,天台县,台州市,121.119342,29.117759,立马电动车(坦头东陈专卖店),浙江省,无,立马
2019-09-09,泽国杭温北路104-106号,温岭市,台州市,121.361042,28.510302,立马电动车(丹山路),浙江省,15824008899;13736555509,立马
2019-09-09,云西路31号,椒江区,台州市,121.431157,28.667184,立马电动车(椒江旗舰店),浙江省,无,立马
2019-09-09,柏叶西路与白云二巷交叉口西50米,临海市,台州市,121.139194,28.849786,立马电动车(柏叶西路),浙江省,0576-85410389,立马
2019-09-09,东风路19号(近振兴路),玉环市,台州市,121.277780,28.090478,立马电动车(振兴路店),浙江省,13967650109,立马
2019-09-09,东海大道79、81号,椒江区,台州市,121.439222,28.642944,立马电动车(东海大道店),浙江省,无,立马
2019-09-09,蓬街镇振蓬东路265-269号,路桥区,台州市,121.488172,28.553332,立马电动车(振蓬东路),浙江省,13968614792,立马
2019-09-09,上清溪路11号(近雁溪东路),天台县,台州市,121.015234,29.142578,上海立马电动车(雁溪东路店),浙江省,无,立马
2019-09-09,椒金线,椒江区,台州市,121.481912,28.611409,上海立马电动车(椒金线店),浙江省,无,立马
2019-09-09,经中路与226省道交叉口西南100米,温岭市,台州市,121.389239,28.447211,立马电动车专卖店,浙江省,无,立马
2019-09-09,金清镇黄琅乡,路桥区,台州市,121.601892,28.516720,立马电动车厂有限公司,浙江省,0576-80273095,立马
2019-09-09,振蓬西路227号,路桥区,台州市,121.473695,28.551226,立马电动车业有限公司,浙江省,无,立马
2019-09-09,里王路108号,路桥区,台州市,121.376000,28.576644,立马电动车专卖,浙江省,无,立马
2019-09-09,三甲九塘大堤附近,椒江区,台州市,121.528936,28.586970,台州立马电动车科技有限公司(建设中),浙江省,无,立马
2019-09-09,金清镇白剑线立马车业,路桥区,台州市,121.601892,28.516720,立马车业集团,浙江省,0576-80273095,立马
2019-09-09,解放路508号,莲都区,丽水市,119.927992,28.446734,上海立马电动车(丽水旗舰店),浙江省,0578-2178176,立马
2019-09-09,胜利路86号附近,景宁畲族自治县,丽水市,119.635391,27.982239,立马电动车,浙江省,无,立马
2019-09-09,中山路374号附近,云和县,丽水市,119.563047,28.109491,立马电动车,浙江省,无,立马
2019-09-09,公园路延伸段193-197号,遂昌县,丽水市,119.276491,28.588685,立马电动车(公园路店),浙江省,0578-8130977,立马
2019-09-09,电力路95号,缙云县,丽水市,120.078256,28.648692,立马电动车(电力路店),浙江省,0578-3138779;13575399007,立马
2019-09-09,濛洲街与祥云路交叉口西南50米,庆元县,丽水市,119.068212,27.617611,立马电动车(庆元直营店),浙江省,13967074478,立马
2019-09-09,桃碧公路与003县道交叉口西200米,莲都区,丽水市,119.787815,28.342757,立马电动车(碧湖镇人民政府东北),浙江省,13175756429,立马
2019-09-09,新华路,松阳县,丽水市,119.482973,28.456061,上海立马电动车(松阳旗舰店),浙江省,无,立马
2019-09-09,贤母西路126号,缙云县,丽水市,120.248414,28.801861,周凯车行,浙江省,0578-3265220,立马
2019-09-09,电力路116号爱尚,缙云县,丽水市,120.078342,28.648802,爱尚电动车,浙江省,无,立马
2019-09-09,公园路13附近,龙泉市,丽水市,119.127722,28.073561,立马车行(龙泉旗舰店),浙江省,无,立马
2019-09-09,北二环路,瑶海区,合肥市,117.323139,31.885453,立马电动车,安徽省,0551-64653762,立马
2019-09-09,望江西路与石台路交叉口华府骏苑东一门16栋,蜀山区,合肥市,117.237404,31.830186,立马电动车,安徽省,无,立马
2019-09-09,包公街道屯溪路304号,包河区,合肥市,117.308891,31.848768,立马电动车,安徽省,13856083866,立马
2019-09-09,裕溪路1489附近,瑶海区,合肥市,117.319047,31.850717,立马电动车,安徽省,无,立马
2019-09-09,岳西路19号附近,蜀山区,合肥市,117.225478,31.844189,立马电动车,安徽省,13399699386,立马
2019-09-09,大杨镇月季街碧水源小区南门,庐阳区,合肥市,117.240346,31.894030,立马电动车,安徽省,无,立马
2019-09-09,双墩路s20-104号附近,长丰县,合肥市,117.237956,32.003897,立马电动车,安徽省,无,立马
2019-09-09,青年南路127附近,肥西县,合肥市,117.168120,31.713751,立马电动车,安徽省,无,立马
2019-09-09,芙蓉路823号附近,肥西县,合肥市,117.202674,31.788383,立马电动车,安徽省,无,立马
2019-09-09,华一路与国三路交叉口南100米合肥市华南城服装商会附近,肥西县,合肥市,117.095804,31.769864,立马电动车,安徽省,无,立马
2019-09-09,042县道东50米,肥西县,合肥市,116.803330,31.824282,立马电动车,安徽省,无,立马
2019-09-09,桃花镇经开区芙蓉路一里洋房16栋,肥西县,合肥市,117.191440,31.785627,立马电动车,安徽省,无,立马
2019-09-09,070县道东50米,巢湖市,合肥市,117.671573,31.445284,立马电动车,安徽省,无,立马
2019-09-09,大杨镇龙王社居委A区移民安置区29幢2号,庐阳区,合肥市,117.230010,31.899862,立马电动车,安徽省,18019972845,立马
2019-09-09,双凤开发区蒙城北路与金梅路交叉口东50米力高共和城东区北门2栋,长丰县,合肥市,117.256658,31.974925,立马电动车,安徽省,15056973740,立马
2019-09-09,耕耘路与金寨南路交叉口西北150米,肥西县,合肥市,117.210392,31.764461,立马电动车,安徽省,无,立马
2019-09-09,高新技术产业开发区高新区南岗镇西街老政府旁,蜀山区,合肥市,117.112179,31.848765,立马电动车,安徽省,无,立马
2019-09-09,大众路西50米肥东众兴中学附近,肥东县,合肥市,117.411513,31.990307,立马电动车,安徽省,无,立马
2019-09-09,牌楼中路20号附近,庐江县,合肥市,117.293691,31.237700,立马电动车,安徽省,无,立马
2019-09-09,文山路与桥湾路交叉口南50米,肥西县,合肥市,117.143878,31.771246,立马电动车,安徽省,无,立马
2019-09-09,明珠大道与明珠路交叉口南200米,肥西县,合肥市,117.163177,31.801882,立马电动车,安徽省,无,立马
2019-09-09,合作化南路辅路西50米,蜀山区,合肥市,117.251225,31.833637,立马电动车,安徽省,无,立马
2019-09-09,山南镇浮顶山北路98号邮政储蓄旁,肥西县,合肥市,116.877246,31.623107,立马电动车,安徽省,13856075184,立马
2019-09-09,长临河镇新街6号附近,肥东县,合肥市,117.463699,31.690009,立马电动车,安徽省,无,立马
2019-09-09,龙泉路22号,肥东县,合肥市,117.461100,31.881193,立马电动车,安徽省,无,立马
2019-09-09,同兴路与滨河东路交叉口东50米,庐江县,合肥市,117.097689,31.332345,立马电动车,安徽省,0551-87381639,立马
2019-09-09,沃夫特高店经销部东(高店街道东),肥西县,合肥市,116.833513,31.904362,立马电动车,安徽省,13003085910,立马
2019-09-09,万塔路与移湖路交叉口西南200米,庐江县,合肥市,117.284119,31.265812,立马电动车,安徽省,15105658263,立马
2019-09-09,水泥厂路与316省道交叉口东50米,巢湖市,合肥市,117.751410,31.530134,立马电动车,安徽省,13349163699,立马
2019-09-09,金寨南路十五里河,包河区,合肥市,117.243906,31.802987,立马电动车(金寨路店),安徽省,无,立马
2019-09-09,阜康嘉苑101,瑶海区,合肥市,117.365979,31.875767,立马电动车(阜康嘉苑店),安徽省,15155961223,立马
2019-09-09,包河花园B区24栋长春街立马电动车,包河区,合肥市,117.330568,31.797076,立马电动车(长春街店),安徽省,18756679005,立马
2019-09-09,裕民路与038县道交叉口东南50米,蜀山区,合肥市,117.017604,31.844145,立马电动车(312国道辅路),安徽省,13655600735,立马
2019-09-09,裕溪路红旗建材市场B座对面,瑶海区,合肥市,117.338014,31.847908,立马电动车(裕溪路店),安徽省,13645605683,立马
2019-09-09,淝河路安凯厂向下100米,包河区,合肥市,117.366551,31.800207,立马电动车(义兴店),安徽省,13855199531,立马
2019-09-09,军民路与马岗大道交叉口西100米,瑶海区,合肥市,117.372912,31.868056,立马电动车(合店路辅路店),安徽省,13195654896,立马
2019-09-09,农技路与政法路交叉口北50米,巢湖市,合肥市,117.581557,31.620280,立马电动车(黄麓专卖店),安徽省,无,立马
2019-09-09,天山路84附近,包河区,合肥市,117.297297,31.735427,立马电动车(天山路),安徽省,无,立马
2019-09-09,巢湖中路248号,巢湖市,合肥市,117.872842,31.599732,立马电动车(巢湖市住房保障中心西南),安徽省,0551-82332734,立马
2019-09-09,合铜路西50米,庐江县,合肥市,117.255418,31.505201,立马电动车(徽苑小区东南),安徽省,无,立马
2019-09-09,卫生局卫生监督所对面,庐江县,合肥市,117.288083,31.251219,立马电动车(越城路店),安徽省,18326177578,立马
2019-09-09,上派镇青年路1-017店铺(爱情故事隔壁),肥西县,合肥市,117.162605,31.728066,立马电动车(青年路),安徽省,无,立马
2019-09-09,合作化南路辅路30号附近,蜀山区,合肥市,117.251466,31.845374,立马电动车(安大西门店),安徽省,15955098688,立马
2019-09-09,阜南路39号1栋101室,庐阳区,合肥市,117.287151,31.869870,立马电动车(阜南路),安徽省,无,立马
2019-09-09,屯溪路302-10号附近,包河区,合肥市,117.287740,31.848118,立马电动车(南一环路辅路),安徽省,无,立马
2019-09-09,三环路与交通路交叉口南100米,庐江县,合肥市,117.294062,31.258837,庐江立马电动车(翠绿园店),安徽省,13696795691,立马
2019-09-09,长寿路52号,长丰县,合肥市,117.168034,32.480085,上海立马电动车(长寿路),安徽省,无,立马
2019-09-09,繁花大道禹州天玺北门向西150,肥西县,合肥市,117.167858,31.781847,立马电动车维修销售,安徽省,无,立马
2019-09-09,大兴镇漕冲路与乐水路立马电动车,瑶海区,合肥市,117.348859,31.856617,余记烟酒店,安徽省,13866101914,立马
2019-09-09,铜陵北路与二环路交叉口迅捷物流市场内,瑶海区,合肥市,117.325752,31.885455,天马摩托,安徽省,无,立马
2019-09-09,保红路与014县道交叉口南50米,芜湖县,芜湖市,118.522278,31.120299,立马电动车,安徽省,无,立马
2019-09-09,南翔路与漳河大道交叉口西北100米,南陵县,芜湖市,118.347018,30.919866,立马电动车,安徽省,13965177000,立马
2019-09-09,071县道北50米,南陵县,芜湖市,118.478235,30.904774,立马电动车,安徽省,无,立马
2019-09-09,茗香路150号附近,三山区,芜湖市,118.280871,31.172532,立马电动车,安徽省,无,立马
2019-09-09,军民路与053乡道交叉口西南50米,繁昌县,芜湖市,118.115325,31.055681,立马电动车,安徽省,15555308655,立马
2019-09-09,恒泰路与011乡道交叉口北100米,南陵县,芜湖市,118.262044,30.776340,立马电动车(011乡道),安徽省,无,立马
2019-09-09,许镇镇世纪大道,南陵县,芜湖市,118.412343,31.065095,上海立马电动车,安徽省,无,立马
2019-09-09,荆江东路12号附近,芜湖县,芜湖市,118.575816,31.144382,美菱立马电动车,安徽省,13955328076,立马
2019-09-09,083县道北50米,南陵县,芜湖市,118.387453,30.953460,立马电动车九连专卖店,安徽省,无,立马
2019-09-09,湾沚镇荆江东路津苑小区14栋(立马电动车隔壁),芜湖县,芜湖市,118.574231,31.143985,重庆鸡公煲(罗保小区店),安徽省,18298252539;18315317370,立马
2019-09-09,城关镇左岸名城南门12号,五河县,蚌埠市,117.893379,33.145247,立马电动车,安徽省,18957675004,立马
2019-09-09,046县道东50米,怀远县,蚌埠市,116.869781,32.972790,立马电动车,安徽省,无,立马
2019-09-09,康民路与彩虹大道交叉口西100米附近,五河县,蚌埠市,117.874418,33.134576,立马电动车,安徽省,无,立马
2019-09-09,纬一路北150米,固镇县,蚌埠市,117.336552,33.250045,立马电动车,安徽省,无,立马
2019-09-09,解放街道治淮路山水酒店往东200米,龙子湖区,蚌埠市,117.391321,32.942452,立马电动车,安徽省,无,立马
2019-09-09,东风路19号,固镇县,蚌埠市,117.323909,33.318264,立马电动车(东风路店),安徽省,无,立马
2019-09-09,安成镇淮化五工地,田家庵区,淮南市,116.966697,32.629857,立马电动车,安徽省,无,立马
2019-09-09,曹庵邮局区50米,田家庵区,淮南市,117.050593,32.478698,立马电动车,安徽省,无,立马
2019-09-09,X024(兴湖路),凤台县,淮南市,116.633326,32.648854,立马电动车,安徽省,无,立马
2019-09-09,S310(十涧湖西路),田家庵区,淮南市,116.919193,32.614336,立马电动车,安徽省,无,立马
2019-09-09,天柱山路与珠江路交叉口西150米,潘集区,淮南市,116.817830,32.773950,立马电动车(潘集旗舰店),安徽省,无,立马
2019-09-09,024县道南50米,寿县,淮南市,116.970852,32.071331,雅迪电动车,安徽省,无,立马
2019-09-09,老龙眼路与金家岭路交叉口西150米,田家庵区,淮南市,116.990043,32.619463,特莱维狮服务部,安徽省,无,立马
2019-09-09,,含山县,马鞍山市,117.997524,31.654788,立马电动车,安徽省,无,立马
2019-09-09,205国道辅路东100米,当涂县,马鞍山市,118.458475,31.510375,立马电动车,安徽省,无,立马
2019-09-09,阳湖路东150米,雨山区,马鞍山市,118.511994,31.640228,立马电动车,安徽省,无,立马
2019-09-09,环峰镇华阳中路80号,含山县,马鞍山市,118.103385,31.720908,立马电动车,安徽省,13805695394,立马
2019-09-09,016县道附近,含山县,马鞍山市,118.134440,31.486476,立马电动车(铜闸土地管理所西),安徽省,无,立马
2019-09-09,湖西北路513号,雨山区,马鞍山市,118.493662,31.693807,上海立马电动车(马鞍山旗舰店),安徽省,13855539345,立马
2019-09-09,034乡道与226省道交叉口东南150米,含山县,马鞍山市,118.004164,31.802862,上海立马电动车(仙踪店),安徽省,0555-4218282,立马
2019-09-09,南湖路与桓谭路交叉口西150米附近,相山区,淮北市,116.819071,33.964811,立马电动车,安徽省,无,立马
2019-09-09,014县道南50米,濉溪县,淮北市,116.631755,33.686795,立马电动车,安徽省,无,立马
2019-09-09,双堆集镇第二人民医院,濉溪县,淮北市,116.900455,33.424868,立马电动车,安徽省,无,立马
2019-09-09,303省道西50米,濉溪县,淮北市,116.665357,33.786071,立马电动车,安徽省,无,立马
2019-09-09,009县道附近,濉溪县,淮北市,116.832745,33.309329,立马电动车,安徽省,无,立马
2019-09-09,烈山路22号,濉溪县,淮北市,116.772400,33.917112,立马电动车(濉溪旗舰店),安徽省,0561-6086331;0561-6075221,立马
2019-09-09,农村信用合作联社徐楼信用社丁楼分社,濉溪县,淮北市,116.669110,33.813969,立马电动车(百善矿直营店),安徽省,15256116767,立马
2019-09-09,003县道北100米,杜集区,淮北市,116.904462,34.049961,立马电动车(朔里店),安徽省,13856169037;13515618153,立马
2019-09-09,012县道与020县道交叉口东150米,濉溪县,淮北市,116.696346,33.916347,立马电动车(刘桥直营店),安徽省,13965845192,立马
2019-09-09,凤林路1号东南方向69米,相山区,淮北市,116.746365,33.975155,立马电动车(土楼旗舰店),安徽省,15205615886,立马
2019-09-09,淮海东路好又多生活购物广场东150米,杜集区,淮北市,116.886677,33.972499,立马电动车(三矿专卖店),安徽省,0561-4042988,立马
2019-09-09,桂苑路附近,相山区,淮北市,116.766776,33.952195,濉河花园立马电动车,安徽省,15155525882,立马
2019-09-09,019县道立马电动车旁,濉溪县,淮北市,116.873578,33.496088,夏少强家具家电,安徽省,0561-7031653;13605612573,立马
2019-09-09,035县道西50米,枞阳县,铜陵市,117.148911,30.938124,立马电动车,安徽省,无,立马
2019-09-09,040县道西50米,枞阳县,铜陵市,117.232771,30.975034,立马电动车,安徽省,无,立马
2019-09-09,旗山路42-55号附近,枞阳县,铜陵市,117.237995,30.716835,立马电动车,安徽省,无,立马
2019-09-09,会宫街与228省道交叉口东北50米,枞阳县,铜陵市,117.255650,30.836012,立马电动车(会宫街),安徽省,无,立马
2019-09-09,铜官区义安大道北段268号,铜官区,铜陵市,117.816147,30.937238,立马电动车(义安大道北段),安徽省,无,立马
2019-09-09,320省道与103省道交口西南50米,枞阳县,铜陵市,117.505998,30.896368,立马电动车(枞阳县第三人民医院西南),安徽省,无,立马
2019-09-09,淮河大道南段197号,铜官区,铜陵市,117.802284,30.919247,立马电动车(铜陵专卖店),安徽省,0562-2157076;13955914640,立马
2019-09-09,渡江路131-1号附近,枞阳县,铜陵市,117.221854,30.707916,上海立马电动车(枞阳旗舰店),安徽省,无,立马
2019-09-09,,太湖县,安庆市,116.222128,30.556329,立马电动车,安徽省,无,立马
2019-09-09,065县道北50米,宿松县,安庆市,116.058767,30.277339,立马电动车,安徽省,无,立马
2019-09-09,华中东路南50米,迎江区,安庆市,117.120551,30.516127,立马电动车,安徽省,无,立马
2019-09-09,018县道与206国道交叉口北50米,怀宁县,安庆市,116.921461,30.613843,立马电动车,安徽省,无,立马
2019-09-09,020县道附近,太湖县,安庆市,116.427531,30.427101,立马电动车,安徽省,无,立马
2019-09-09,集贤北路129号,宜秀区,安庆市,117.040184,30.539515,立马电动车,安徽省,18155660590,立马
2019-09-09,黄土坑东路53-2号,宜秀区,安庆市,117.048627,30.537544,立马电动车,安徽省,13033188896,立马
2019-09-09,五横路与023县道交叉口东50米,宜秀区,安庆市,116.983064,30.680789,立马电动车,安徽省,无,立马
2019-09-09,梅河路与皖潜大道交叉口南150米,潜山市,安庆市,116.591647,30.633134,立马电动车,安徽省,13083183959,立马
2019-09-09,徐桥镇中心幼儿园旁,太湖县,安庆市,116.387807,30.268211,立马电动车,安徽省,无,立马
2019-09-09,人民东路32附近,迎江区,安庆市,117.071713,30.505117,立马电动车,安徽省,0556-5616658;13074013535,立马
2019-09-09,迎宾西路390号附近,宜秀区,安庆市,117.047579,30.552802,立马电动车,安徽省,15178649708,立马
2019-09-09,建设路与212省道交叉口东200米,怀宁县,安庆市,116.655251,30.414572,立马电动车,安徽省,0556-4826836,立马
2019-09-09,023县道西50米,宜秀区,安庆市,117.003764,30.605801,立马电动车,安徽省,13855692799,立马
2019-09-09,玉琳路与里仁巷交叉口东北50米,大观区,安庆市,117.030423,30.505381,立马电动车,安徽省,无,立马
2019-09-09,人民路与天华路交叉口西北50米,太湖县,安庆市,116.318174,30.448318,立马电动车,安徽省,无,立马
2019-09-09,072县道与213省道交叉口南150米,宿松县,安庆市,116.224011,30.093926,立马电动车,安徽省,13866052678,立马
2019-09-09,十同路与皇冠路交叉口东50米,大观区,安庆市,117.023412,30.554004,立马电动车,安徽省,13955626825,立马
2019-09-09,012乡道与360省道交叉口东北100米,怀宁县,安庆市,116.575914,30.441635,立马电动车(012乡道店),安徽省,13085561918;13966966929,立马
2019-09-09,富康路126号附近,宿松县,安庆市,116.121068,30.161947,立马电动车(富康路),安徽省,无,立马
2019-09-09,建设西路8-5号,岳西县,安庆市,116.353996,30.847326,立马电动车(城西社区卫生服务站北),安徽省,无,立马
2019-09-09,105国道南50米,太湖县,安庆市,116.276958,30.428807,立马电动车(太湖专卖店),安徽省,13966648110,立马
2019-09-09,通衢大道16号附近,望江县,安庆市,116.754815,30.090895,立马电动车(华阳专卖店),安徽省,13955630921,立马
2019-09-09,高河镇黄梅路15号,怀宁县,安庆市,116.835283,30.730250,立马电动车(黄梅路店),安徽省,无,立马
2019-09-09,光彩大市场二期三区5栋,宜秀区,安庆市,117.074570,30.540646,上海立马(光彩店),安徽省,无,立马
2019-09-09,晋熙镇法华路太湖中学西50米,太湖县,安庆市,116.305072,30.444776,立马电动车(法华路店),安徽省,13866034660,立马
2019-09-09,孝肃路201号,迎江区,安庆市,117.041920,30.508934,立马电动车(孝肃路店),安徽省,13605562360;15056622360,立马
2019-09-09,孚玉西路162号附近,宿松县,安庆市,116.121074,30.161962,金彭电动三轮车(富康路店),安徽省,无,立马
2019-09-09,长河路8号,太湖县,安庆市,116.286490,30.434813,立马电动车专卖店,安徽省,无,立马
2019-09-09,龙山路247号,迎江区,安庆市,117.042438,30.513392,上海立马(龙山路),安徽省,无,立马
2019-09-09,005县道西50米,宜秀区,安庆市,117.037863,30.708541,罗岭立马专卖,安徽省,0556-5230841,立马
2019-09-09,332省道西50米,大观区,安庆市,116.892090,30.473896,立马电动车镇江代理点,安徽省,无,立马
2019-09-09,雷阳路,望江县,安庆市,116.693991,30.128264,新日立马电动车售后服务,安徽省,无,立马
2019-09-09,建设西路8-5号,岳西县,安庆市,116.353996,30.847326,力帆摩托(立马电动车),安徽省,无,立马
2019-09-09,余井镇余井村立马电动车北街105号,潜山市,安庆市,116.609357,30.721636,中国邮政(余井邮政支局),安徽省,无,立马
2019-09-09,105国道南50米,太湖县,安庆市,116.277190,30.428894,淮海车辆(太湖专卖店),安徽省,13966648110,立马
2019-09-09,东临溪镇临溪中村立马专卖店,休宁县,黄山市,118.303429,29.670971,立马电动车,安徽省,13805593167,立马
2019-09-09,黄山中路,歙县,黄山市,118.425064,29.863061,立马电动车,安徽省,无,立马
2019-09-09,023县道与043县道交叉口西150米,休宁县,黄山市,118.362770,29.665592,立马电动车,安徽省,13965511124,立马
2019-09-09,华瑞巷与永佳大道交叉口西50米,徽州区,黄山市,118.343289,29.817339,立马电动车,安徽省,无,立马
2019-09-09,齐云山东大道39号,休宁县,黄山市,118.184015,29.789995,立马电动车(柏树路),安徽省,无,立马
2019-09-09,新兴中路与新兴西路交叉口北50米,祁门县,黄山市,117.715541,29.853181,立马电动车(祁门店),安徽省,无,立马
2019-09-09,延安路62附近,屯溪区,黄山市,118.307958,29.709112,立马电动车(黄山市林业局西),安徽省,无,立马
2019-09-09,西溪南镇丰南大道52号,徽州区,黄山市,118.288674,29.832040,立马电动车(西溪南专卖店),安徽省,无,立马
2019-09-09,黎阳镇山塘路32号国风车行,屯溪区,黄山市,118.285631,29.699712,立马电动车(黎山苑店),安徽省,13855910100,立马
2019-09-09,阳湖镇新安养生谷3-1,休宁县,黄山市,118.313467,29.684202,立马电动车(一心新村东南),安徽省,无,立马
2019-09-09,延安路64号(黄山电视大学对面),屯溪区,黄山市,118.309757,29.709566,立马电动车(黄山旗舰店),安徽省,0559-2535886,立马
2019-09-09,三塘新村三期,天长市,滁州市,118.784780,32.670702,立马电动车,安徽省,13855057366,立马
2019-09-09,广陵中路与广陵西路交叉口西南50米,天长市,滁州市,118.996769,32.671309,立马电动车,安徽省,无,立马
2019-09-09,101县道西50米,天长市,滁州市,118.790398,32.758054,立马电动车,安徽省,无,立马
2019-09-09,园林路与天康大道交叉口南100米,天长市,滁州市,119.003132,32.676322,立马电动车,安徽省,无,立马
2019-09-09,塔山中路与312省道交叉口东北150米,来安县,滁州市,118.459298,32.454627,立马电动车,安徽省,无,立马
2019-09-09,石梁东路与秦栏中路交叉口南150米,天长市,滁州市,119.031949,32.681245,立马电动车,安徽省,无,立马
2019-09-09,汊涧镇南阳路自强商场(南阳商城附近),天长市,滁州市,118.777776,32.671062,立马电动车,安徽省,无,立马
2019-09-09,建设路与205省道交叉口南100米,天长市,滁州市,118.935305,32.893450,立马电动车(铜城店),安徽省,无,立马
2019-09-09,,颍上县,阜阳市,116.385883,32.742895,立马电动车,安徽省,无,立马
2019-09-09,005县道附近,太和县,阜阳市,115.548291,33.335353,立马电动车,安徽省,无,立马
2019-09-09,012县道马庄伊人婚庆礼仪向北100米,界首市,阜阳市,115.397399,33.298373,立马电动车,安徽省,无,立马
2019-09-09,049乡道与328省道交叉口东北50米,阜南县,阜阳市,115.694863,32.640940,立马电动车,安徽省,无,立马
2019-09-09,地城南路东50米,阜南县,阜阳市,115.583908,32.606506,立马电动车,安徽省,无,立马
2019-09-09,105国道西50米,颍泉区,阜阳市,115.623415,33.132087,立马电动车,安徽省,无,立马
2019-09-09,010县道西50米,太和县,阜阳市,115.523528,33.465562,立马电动车,安徽省,无,立马
2019-09-09,口孜镇大坝鸡庄,颍东区,阜阳市,116.071694,32.836149,立马电动车,安徽省,无,立马
2019-09-09,开发区如意豪庭小区宝石苑19号125室,颍州区,阜阳市,115.862614,32.857518,立马电动车,安徽省,18325836900,立马
2019-09-09,前进路114-115号附近,颍上县,阜阳市,116.264548,32.646826,立马电动车,安徽省,15056864349,立马
2019-09-09,卜子东路与栖霞路交叉口东100米,颍州区,阜阳市,115.775103,32.875960,立马电动车,安徽省,无,立马
2019-09-09,002乡道东50米,颍上县,阜阳市,116.279930,32.782471,立马电动车,安徽省,无,立马
2019-09-09,伍明镇伍明小学西北300米,颍泉区,阜阳市,115.871910,33.057816,立马电动车,安徽省,无,立马
2019-09-09,102省道北50米,临泉县,阜阳市,114.994848,33.077836,立马电动车,安徽省,无,立马
2019-09-09,014县道与065乡道交叉口西100米,太和县,阜阳市,115.554261,33.147186,立马电动车,安徽省,无,立马
2019-09-09,106国道西50米,临泉县,阜阳市,114.914997,32.984969,立马电动车,安徽省,13966585821,立马
2019-09-09,040乡道与105国道交叉口西50米,太和县,阜阳市,115.573391,33.299918,立马电动车,安徽省,无,立马
2019-09-09,东城办事处人民路89号,界首市,阜阳市,115.369981,33.257508,立马电动车,安徽省,无,立马
2019-09-09,033县道与047乡道交叉口西北50米,颍上县,阜阳市,116.305160,32.738145,立马电动车,安徽省,13215685288,立马
2019-09-09,014县道南50米,界首市,阜阳市,115.346865,33.132843,立马电动车,安徽省,无,立马
2019-09-09,颍河西路100号附近,颍州区,阜阳市,115.830818,32.898210,立马电动车(阜阳旗舰店),安徽省,无,立马
2019-09-09,张营乡乡政府对面开封大酒店旁,临泉县,阜阳市,115.203473,33.068237,立马电动车(张营专卖店),安徽省,13866299971,立马
2019-09-09,太和路与105国道交叉口北100米,颍泉区,阜阳市,115.800243,32.955637,立马电动车(阜阳路旗舰店),安徽省,13956688965,立马
2019-09-09,102省道南50米,颍州区,阜阳市,115.631794,32.930485,立马电动车(西湖专卖店),安徽省,无,立马
2019-09-09,太人民南路与沙河中路交叉口东北100米,太和县,阜阳市,115.620593,33.148925,立马电动车(人民南路),安徽省,0558-8588988,立马
2019-09-09,105国道东50米,颍泉区,阜阳市,115.785388,32.970975,立马电动车(白庙专卖店),安徽省,18298186575,立马
2019-09-09,中心西路240号,颍上县,阜阳市,116.257513,32.632247,立马电动车(中心路),安徽省,无,立马
2019-09-09,036乡道与105国道交叉口西南150米,太和县,阜阳市,115.611212,33.399549,立马电动车专卖店,安徽省,18255831832,立马
2019-09-09,016乡道与102省道交叉口西北50米,颍州区,阜阳市,115.721148,32.906455,立马电动车专卖店(016乡道店),安徽省,无,立马
2019-09-09,014县道南50米,太和县,阜阳市,115.587005,33.141865,立马电动车直营店,安徽省,无,立马
2019-09-09,建设中路栖霞大厦,太和县,阜阳市,115.623716,33.175219,爱玛电动车(建设东路店),安徽省,0558-8667733;0558-8516166,立马
2019-09-09,中心路立马电动车旁,颍上县,阜阳市,116.257203,32.632300,柏琳发艺,安徽省,无,立马
2019-09-09,罗河路,灵璧县,宿州市,117.565486,33.536394,立马电动车,安徽省,18755795711,立马
2019-09-09,201省道东50米,灵璧县,宿州市,117.484413,34.000289,立马电动车,安徽省,无,立马
2019-09-09,206国道东50米附近,埇桥区,宿州市,116.976502,33.746333,立马电动车,安徽省,无,立马
2019-09-09,029乡道北50米,灵璧县,宿州市,117.473705,33.416716,立马电动车,安徽省,无,立马
2019-09-09,淮河路东头高架桥老花都东一百米上丰管道隔壁,埇桥区,宿州市,117.000465,33.634453,立马电动车,安徽省,无,立马
2019-09-09,农科路与浍水路交叉口西南50米,埇桥区,宿州市,116.983964,33.626428,立马电动车,安徽省,无,立马
2019-09-09,胡家路与西昌南路交叉口西50米,埇桥区,宿州市,116.971184,33.614902,立马电动车,安徽省,18133295358,立马
2019-09-09,金海二路东50米,埇桥区,宿州市,117.005744,33.616029,立马电动车,安徽省,无,立马
2019-09-09,通济二路与银河二路交叉口东北100米,埇桥区,宿州市,116.961091,33.649623,立马电动车,安徽省,无,立马
2019-09-09,龙登和城A区东方购物广场旁小杨修车行,埇桥区,宿州市,116.938162,33.655421,立马电动车,安徽省,无,立马
2019-09-09,灵城镇建设南路26号星和湾小区1期南门,灵璧县,宿州市,117.552689,33.523134,立马电动车,安徽省,18155778668,立马
2019-09-09,环城南路137号,埇桥区,宿州市,116.978865,33.636406,立马电动车,安徽省,无,立马
2019-09-09,057县道东50米,埇桥区,宿州市,117.181020,33.523649,立马电动车,安徽省,无,立马
2019-09-09,006乡道北50米,灵璧县,宿州市,117.574020,33.854014,立马电动车,安徽省,无,立马
2019-09-09,046县道西50米,灵璧县,宿州市,117.581215,33.463562,立马电动车,安徽省,无,立马
2019-09-09,197乡道西50米,埇桥区,宿州市,116.938338,33.502199,立马电动车,安徽省,无,立马
2019-09-09,025县道与046县道交叉口东100米,灵璧县,宿州市,117.558970,33.388201,立马电动车,安徽省,无,立马
2019-09-09,032县道与228乡道交叉口西100米,埇桥区,宿州市,116.981456,33.337498,立马电动车,安徽省,无,立马
2019-09-09,201省道与302省道交叉口北150米,灵璧县,宿州市,117.463448,33.768257,立马电动车,安徽省,15212556971,立马
2019-09-09,303省道南50米,埇桥区,宿州市,117.107959,33.604828,立马电动车,安徽省,0557-2775378;13095579586,立马
2019-09-09,文庙商城C区1-01号,泗县,宿州市,117.885051,33.480625,立马电动车,安徽省,无,立马
2019-09-09,浍水东路410号,埇桥区,宿州市,116.987625,33.626836,立马电动车(宿州旗舰二店),安徽省,15556200972,立马
2019-09-09,环城南路137号,埇桥区,宿州市,116.978843,33.636405,立马电动车(环城南路店),安徽省,无,立马
2019-09-09,029乡道燕子百货西30米,灵璧县,宿州市,117.470824,33.416942,立马电动车(黄湾专卖店),安徽省,18155734158,立马
2019-09-09,解放西路121号,灵璧县,宿州市,117.548467,33.542636,立马电动车(灵璧店),安徽省,0557-6295696;13965324117,立马
2019-09-09,035县道和303省道的交叉口附近,埇桥区,宿州市,117.254239,33.590438,上海立马电动车,安徽省,0557-2775378;13095579586,立马
2019-09-09,新市街与泗州大道交叉口西100米,泗县,宿州市,117.884769,33.475170,上海立马电动车(新市街),安徽省,无,立马
2019-09-09,042县道西50米,灵璧县,宿州市,117.567410,33.642750,大吴街立马电动车,安徽省,无,立马
2019-09-09,东湖路与新东环步行街交叉口南200米,霍邱县,六安市,116.269786,32.333762,立马电动车,安徽省,无,立马
2019-09-09,平桥乡齐云路与磨子潭路交叉口北50米,裕安区,六安市,116.487194,31.740550,立马电动车,安徽省,0564-3275866;15055232288,立马
2019-09-09,城关镇东湖路烈士陵园对面力之星三轮车,霍邱县,六安市,116.288379,32.330863,立马电动车,安徽省,无,立马
2019-09-09,,霍邱县,六安市,116.280398,32.336204,立马电动车,安徽省,无,立马
2019-09-09,,金安区,六安市,116.631920,31.773999,立马电动车,安徽省,无,立马
2019-09-09,009县道西50米,裕安区,六安市,116.354583,31.925814,立马电动车,安徽省,无,立马
2019-09-09,033县道西50米,霍邱县,六安市,115.994130,32.345355,立马电动车,安徽省,无,立马
2019-09-09,衡山镇西大街嘉利星城B区3号楼,霍山县,六安市,116.328205,31.406479,立马电动车,安徽省,无,立马
2019-09-09,南华路城北小学南校南50米,裕安区,六安市,116.507819,31.722986,立马电动车,安徽省,无,立马
2019-09-09,032县道东50米,霍邱县,六安市,116.144684,32.305951,立马电动车,安徽省,无,立马
2019-09-09,010县道张杨电脑斜对面,裕安区,六安市,116.425535,31.790869,立马电动车,安徽省,13965498824,立马
2019-09-09,019县道南50米,裕安区,六安市,116.225980,31.610665,立马电动车,安徽省,无,立马
2019-09-09,010县道与018县道交叉口北50米,裕安区,六安市,116.288196,31.822247,立马电动车,安徽省,13365683649,立马
2019-09-09,姚李镇光华大街,叶集区,六安市,116.179197,31.823814,立马电动车,安徽省,无,立马
2019-09-09,017县道东50米,裕安区,六安市,116.484453,31.922166,立马电动车,安徽省,0564-2352086,立马
2019-09-09,云西路帝都豪园向西15O米,裕安区,六安市,116.482871,31.739823,立马电动车(六安旗舰店),安徽省,0564-3274000;13956115788,立马
2019-09-09,平桥乡龙河路平安怡景园S-34商铺,裕安区,六安市,116.475186,31.732410,立马电动车(三里岗小学专卖店),安徽省,无,立马
2019-09-09,203省道西50米,金安区,六安市,116.560820,31.937224,立马电动车(木厂专卖),安徽省,无,立马
2019-09-09,悬剑山路4048号附近,金寨县,六安市,115.930449,31.722873,立马电动车(金寨店),安徽省,无,立马
2019-09-09,105国道东50米,霍邱县,六安市,115.970918,32.273264,立马电动车(马店专卖店),安徽省,无,立马
2019-09-09,001乡道与016县道交叉口东北100米,裕安区,六安市,116.498619,32.011049,上海立马电动车,安徽省,无,立马
2019-09-09,105国道清华家园南区8号,裕安区,六安市,116.469126,31.692054,上海立马电动车(城南专卖店),安徽省,0564-3617000,立马
2019-09-09,解放南路169号东南90米,裕安区,六安市,116.497903,31.737533,立马电动车(装修中),安徽省,18110395770,立马
2019-09-09,磨子潭路与齐云路交叉口北50米,裕安区,六安市,116.442264,31.740943,上海立马(西十里桥专卖店),安徽省,13637269149,立马
2019-09-09,梅山镇凤凰城201-202号,金寨县,六安市,115.930354,31.722768,宝子车行(金寨店),安徽省,13965482023,立马
2019-09-09,杭淠西路56号附近,金安区,六安市,116.636186,31.767273,二手摩托销售,安徽省,0564-3968897,立马
2019-09-09,022乡道附近,利辛县,亳州市,115.827312,33.172932,立马电动车,安徽省,无,立马
2019-09-09,复兴路与046县道交叉口东100米,利辛县,亳州市,116.208187,33.132245,立马电动车,安徽省,13856707215,立马
2019-09-09,康宁路与站前路交叉口北150米,涡阳县,亳州市,116.215458,33.497123,立马电动车,安徽省,无,立马
2019-09-09,淮中路36号附近,蒙城县,亳州市,116.699164,33.329259,立马电动车,安徽省,无,立马
2019-09-09,城关镇民乐苑北门,利辛县,亳州市,116.184829,33.145213,立马电动车,安徽省,无,立马
2019-09-09,024县道与307省道交叉口北150米,涡阳县,亳州市,116.033190,33.629395,立马电动车,安徽省,无,立马
2019-09-09,城关街道老县医院往东路北50米,涡阳县,亳州市,116.217611,33.504556,立马电动车(胜利路),安徽省,无,立马
2019-09-09,016县道东50米,谯城区,亳州市,115.890318,33.543241,立马电动三轮车,安徽省,0558-5860122;13965775221,立马
2019-09-09,城关镇复兴路锦绣家苑东,利辛县,亳州市,116.214712,33.134163,立马电动车行,安徽省,无,立马
2019-09-09,庄周办事处牛群商贸城金牛像北20米路东,蒙城县,亳州市,116.563189,33.250269,新大洲电动车,安徽省,无,立马
2019-09-09,尧北路33号附近,东至县,池州市,117.026044,30.099312,立马电动车,安徽省,15256650340,立马
2019-09-09,秋浦西路百盛广场2楼,贵池区,池州市,117.479031,30.653791,立马电动车,安徽省,无,立马
2019-09-09,048县道与230省道交叉口南200米附近,广德市,宣城市,119.420660,30.938511,立马电动车,安徽省,无,立马
2019-09-09,建平镇新建街86号,郎溪县,宣城市,119.188307,31.126116,立马电动车,安徽省,无,立马
2019-09-09,太极大道229号,广德市,宣城市,119.420091,30.897190,立马电动车(县农行住宅小区西北),安徽省,15156337218,立马
2019-09-09,010乡道与021县道交叉口西北200米,郎溪县,宣城市,119.301554,31.202273,立马电动车(凌笪店),安徽省,13033134762,立马
2019-09-09,泾川镇环城东路202号,泾县,宣城市,118.410761,30.690069,立马电动车(环城东路),安徽省,13956572353,立马
2019-09-09,涛城路与020县道交叉口南150米,郎溪县,宣城市,119.257643,31.099148,立马电动车(涛城店),安徽省,18164337788,立马
2019-09-09,东山路91附近,绩溪县,宣城市,118.601847,30.072591,上海立马电动车,安徽省,无,立马
2019-09-09,和平路47号附近,旌德县,宣城市,118.539481,30.289851,立马电动车专卖店,安徽省,无,立马
2019-09-09,通站路264号,郎溪县,宣城市,119.134096,30.972087,立马电动车专卖店,安徽省,无,立马
2019-09-09,民生路振华推拿诊所旁,宣州区,宣城市,118.757489,30.951114,立马电动车专营店,安徽省,13805635857,立马
2019-09-09,武夷绿洲鳌景路38号,台江区,福州市,119.356995,26.056545,立马电动车,福建省,无,立马
2019-09-09,万宝东路与汉洋路交叉口东北100米,平潭县,福州市,119.793328,25.486575,立马电动车,福建省,13255991899;18649706972,立马
2019-09-09,新权南路12-5号,鼓楼区,福州市,119.304361,26.074931,立马电动车,福建省,无,立马
2019-09-09,三高路160号附近,仓山区,福州市,119.334662,26.037202,立马电动车,福建省,无,立马
2019-09-09,红江路,仓山区,福州市,119.263790,26.023346,立马电动车,福建省,无,立马
2019-09-09,北环东路斗门红星小区26-25,晋安区,福州市,119.320861,26.107332,立马电动车,福建省,无,立马
2019-09-09,马尾镇双协佳园1号楼12号店面,马尾区,福州市,119.400384,26.024024,立马电动车,福建省,15806082456,立马
2019-09-09,117县道南50米,闽侯县,福州市,119.222289,25.966607,立马电动车,福建省,无,立马
2019-09-09,龙发路170号附近,福清市,福州市,119.459956,25.605764,立马电动车,福建省,无,立马
2019-09-09,下渡街道六一南路169号埔顶小区5号楼1层店面,仓山区,福州市,119.322361,26.041152,立马电动车(六一南路店),福建省,0591-83315297;0591-88033116;18065012399,立马
2019-09-09,塔头路159号附近,晋安区,福州市,119.321537,26.089033,立马电动车(塔头专卖店),福建省,无,立马
2019-09-09,福马路416-6号附近,晋安区,福州市,119.334056,26.074716,立马电动车(五里亭店),福建省,15083399730,立马
2019-09-09,盘屿路861号1层08店面,仓山区,福州市,119.293592,26.000823,立马电动车(福湾店),福建省,18650715336,立马
2019-09-09,潭城中路与红山东路交叉口东北100米,平潭县,福州市,119.791762,25.508971,立马电动车(潭城北路),福建省,无,立马
2019-09-09,G324(福昆线),闽侯县,福州市,119.379008,25.892246,立马电动车(富竹大厦东北),福建省,13799977152,立马
2019-09-09,清昌大道与福平街交叉口东100米,福清市,福州市,119.322544,25.704313,立马电动车(福平街店),福建省,0591-85382377,立马
2019-09-09,罗星街道君竹路安福楼8-6号绿源,马尾区,福州市,119.453864,25.986749,立马电动车(君竹路),福建省,13959103459,立马
2019-09-09,金洲南路浦上小区5号楼1层2号店面,仓山区,福州市,119.276177,26.026373,立马电动车(阳光城店),福建省,18359779242,立马
2019-09-09,潭城南路锦湖庄102号,平潭县,福州市,119.784277,25.500515,立马电动车(潭城南路),福建省,0591-23138910,立马
2019-09-09,龙江路435-9号,福清市,福州市,119.382431,25.707405,立马电动车(龙江路店),福建省,0591-85256178,立马
2019-09-09,前横南路29号,晋安区,福州市,119.349952,26.070501,上海立马电动车(前横店),福建省,0591-83315297;0591-83993780,立马
2019-09-09,,福清市,福州市,119.407777,25.721507,立马电动车专卖店,福建省,无,立马
2019-09-09,世纪金源大道东50米,连江县,福州市,119.398772,26.257373,立马电动车专卖店,福建省,无,立马
2019-09-09,金工路与金阵路交叉口东北50米,仓山区,福州市,119.254435,26.066616,立马电动车店,福建省,无,立马
2019-09-09,工业路十字路口红绿灯旁,永泰县,福州市,118.962742,25.862536,立马电动车直营店,福建省,0591-24712195,立马
2019-09-09,工业路永嘉园站向下走150米,永泰县,福州市,118.962647,25.862579,立马电动车维修店(摩托万顺车行),福建省,无,立马
2019-09-09,仙岳路236号附近,湖里区,厦门市,118.131095,24.499292,立马电动车,福建省,15392037686,立马
2019-09-09,新民大道683号东南50米,同安区,厦门市,118.113656,24.708803,立马电动车,福建省,无,立马
2019-09-09,东孚大道与孚莲路交叉口西50米,海沧区,厦门市,117.937574,24.560308,立马电动车,福建省,无,立马
2019-09-09,环城北路255号,同安区,厦门市,118.146065,24.734623,立马电动车,福建省,0592-7222707,立马
2019-09-09,新村西里3号附近,集美区,厦门市,118.025850,24.641964,立马电动车,福建省,无,立马
2019-09-09,马巷镇五权一里14号之5,翔安区,厦门市,118.242087,24.659376,立马电动车,福建省,无,立马
2019-09-09,新圩镇新霞西路20号,翔安区,厦门市,118.254028,24.738035,立马电动车,福建省,无,立马
2019-09-09,翁角路辅路,海沧区,厦门市,118.001411,24.520455,立马电动车,福建省,无,立马
2019-09-09,海裕路188号,海沧区,厦门市,118.040149,24.491707,海安车行,福建省,0592-6533382;13328773753,立马
2019-09-09,,湖里区,厦门市,118.107406,24.528254,立马电动车(殿前店),福建省,无,立马
2019-09-09,同辉路与集群路交叉口西北50米,同安区,厦门市,118.120123,24.693795,立马电动车(同辉路),福建省,无,立马
2019-09-09,环城西路1210号附近,同安区,厦门市,118.139843,24.726656,立马电动车(同安旗舰店),福建省,无,立马
2019-09-09,英瑶路470号附近,集美区,厦门市,118.110330,24.601768,千里马电动车,福建省,无,立马
2019-09-09,沟下街1号,城厢区,莆田市,119.012289,25.425944,立马电动车,福建省,无,立马
2019-09-09,东平路与天妃路交叉口东50米,荔城区,莆田市,119.045880,25.394171,立马电动车,福建省,无,立马
2019-09-09,三江街92弄-21号,涵江区,莆田市,119.116480,25.456608,立马电动车,福建省,0594-2526000,立马
2019-09-09,笏石镇兴港北大道486号,秀屿区,莆田市,119.092924,25.317943,立马电动车,福建省,0594-5876850,立马
2019-09-09,,秀屿区,莆田市,119.236245,25.254627,立马电动车,福建省,无,立马
2019-09-09,,荔城区,莆田市,119.046179,25.442620,立马电动车,福建省,无,立马
2019-09-09,埭笏线北50米埕前小学附近,荔城区,莆田市,119.202619,25.316785,立马电动车,福建省,无,立马
2019-09-09,梅园路101号,仙游县,莆田市,118.836269,25.296519,立马电动车,福建省,无,立马
2019-09-09,306省道东50米,仙游县,莆田市,118.630489,25.329244,立马电动车,福建省,无,立马
2019-09-09,鲤南镇柳坑社区柳安街148号,仙游县,莆田市,118.703013,25.353618,立马电动车,福建省,无,立马
2019-09-09,新度镇沟尾村新塘阿良,荔城区,莆田市,119.043568,25.358412,立马电动车,福建省,无,立马
2019-09-09,灵川东大道中石化森美莆田加油站西侧30米,城厢区,莆田市,118.974104,25.290504,立马电动车,福建省,0594-5329868,立马
2019-09-09,241县道北50米,仙游县,莆田市,118.830462,25.358012,立马电动车,福建省,无,立马
2019-09-09,东庄镇埔尾街,秀屿区,莆田市,119.038848,25.251864,立马电动车,福建省,无,立马
2019-09-09,江口镇锦江西路220号艺苗幼儿园(华友车业)新大洲本田,涵江区,莆田市,119.198755,25.483936,立马电动车店,福建省,无,立马
2019-09-09,枫亭镇枫江北街119号,仙游县,莆田市,118.861350,25.249488,枫亭立马电动车,福建省,0594-7889789;13706071276,立马
2019-09-09,梅园东路与湖岸路交叉口西北50米,荔城区,莆田市,119.020514,25.433006,观桥立马电动车,福建省,无,立马
2019-09-09,笏石西天尾立马电动车对面亚来建材,秀屿区,莆田市,119.099820,25.323815,亚来工程建材,福建省,0594-5852988,立马
2019-09-09,鲤城镇柳安街180号(立马电动车隔壁),仙游县,莆田市,118.703090,25.353355,美创办公设备电脑安防,福建省,0594-8263678,立马
2019-09-09,梅园路东段23号一层(观桥立马电动车旁),荔城区,莆田市,119.020617,25.432887,大众广告(湖岸路),福建省,无,立马
2019-09-09,宝山路60号附近,大田县,三明市,117.852948,25.691775,立马电动车,福建省,无,立马
2019-09-09,城关镇西门七五路85号,尤溪县,三明市,118.179805,26.167175,立马电动车,福建省,无,立马
2019-09-09,江滨路778-836号附近,永安市,三明市,117.365942,25.979388,立马电动车,福建省,无,立马
2019-09-09,城西新区城西街249号,尤溪县,三明市,118.162045,26.159825,立马电动车,福建省,15716005949,立马
2019-09-09,三华南路98号附近(将乐立雪大酒店附近),将乐县,三明市,117.477071,26.724299,立马电动车(正民电动三轮车),福建省,无,立马
2019-09-09,燕江南路1806号附近,永安市,三明市,117.365073,25.949032,立马电动车(旗舰店),福建省,13559097140;13507579402,立马
2019-09-09,水南路77号,沙县,三明市,117.791560,26.390649,上海立马,福建省,无,立马
2019-09-09,文庙涂门街涂门小区(通淮关岳庙附近),鲤城区,泉州市,118.593940,24.900910,立马电动车,福建省,18065203960,立马
2019-09-09,双龙路481号附近,晋江市,泉州市,118.546592,24.818423,立马电动车,福建省,无,立马
2019-09-09,大官路与龙池路交叉口西200米,晋江市,泉州市,118.573464,24.855026,立马电动车,福建省,18150504550,立马
2019-09-09,X308(惠黄公路),惠安县,泉州市,118.784216,25.012894,立马电动车,福建省,无,立马
2019-09-09,新门街南978-3-4号店,鲤城区,泉州市,118.575169,24.912614,立马电动车,福建省,15959577983,立马
2019-09-09,港塘路248-252号,石狮市,泉州市,118.623460,24.751724,立马电动车,福建省,无,立马
2019-09-09,G324(世纪大道),南安市,泉州市,118.417042,24.700377,立马电动车,福建省,无,立马
2019-09-09,柳山街与祥云中路交叉口南150米,泉港区,泉州市,118.929588,25.144028,立马电动车,福建省,无,立马
2019-09-09,拥军路与跃进路交叉口北50米,晋江市,泉州市,118.627909,24.789031,立马电动车,福建省,无,立马
2019-09-09,仁美路与繁荣路交叉口西北100米,鲤城区,泉州市,118.549907,24.927886,立马电动车,福建省,13860713372,立马
2019-09-09,元祥街与古龙南路交叉口北50米,鲤城区,泉州市,118.538531,24.905073,立马电动车,福建省,无,立马
2019-09-09,和平北路109号西南50米,晋江市,泉州市,118.588610,24.822066,立马电动车,福建省,无,立马
2019-09-09,宝岛路与隆兴路交叉口东北50米,石狮市,泉州市,118.639935,24.739443,立马电动车,福建省,无,立马
2019-09-09,延平大道与324国道交叉口西南100米,南安市,泉州市,118.392595,24.690032,立马电动车,福建省,无,立马
2019-09-09,象山村董埔路口,南安市,泉州市,118.441985,24.947085,立马电动车,福建省,无,立马
2019-09-09,水头镇建材街11号,南安市,泉州市,118.431948,24.709719,立马电动车,福建省,无,立马
2019-09-09,螺城镇建设南路启明商城10号楼1-2号店,惠安县,泉州市,118.798838,25.025128,立马电动车,福建省,无,立马
2019-09-09,丰州镇丰州路660号,南安市,泉州市,118.536287,24.948039,立马电动车,福建省,13505006590,立马
2019-09-09,前进路与延河路交叉口西北100米,晋江市,泉州市,118.621100,24.817823,立马电动车,福建省,13960295146,立马
2019-09-09,浮桥街506-5号,鲤城区,泉州市,118.550886,24.915219,立马电动车,福建省,13506079306,立马
2019-09-09,台湾街与崇福路交叉口西北50米,惠安县,泉州市,118.935004,24.882878,立马电动车,福建省,无,立马
2019-09-09,鸿江中路与松熹路交叉口西50米,晋江市,泉州市,118.481670,24.715246,立马电动车,福建省,13675955775,立马
2019-09-09,安湖路94号附近,安溪县,泉州市,118.047385,25.224682,立马电动车,福建省,0595-23102235;18359834888,立马
2019-09-09,海尾九五南路5号附近,晋江市,泉州市,118.615261,24.858404,立马电动车,福建省,13600720333,立马
2019-09-09,中山南路309-313号,鲤城区,泉州市,118.588099,24.899033,立马电动车(中山南路店),福建省,0595-28883089,立马
2019-09-09,G15(沈海高速),晋江市,泉州市,118.594016,24.858335,立马电动车(三江大厦西),福建省,无,立马
2019-09-09,溪美街424号附近,南安市,泉州市,118.383268,24.964187,立马电动车(南安专卖店),福建省,无,立马
2019-09-09,美林街道玉叶街186号(华莱土对面),南安市,泉州市,118.435197,24.989262,立马电动车(玉叶店),福建省,18065381114,立马
2019-09-09,坊脚村鞋都路1308号,晋江市,泉州市,118.604239,24.806670,立马电动车(西滨专卖店),福建省,18905069697,立马
2019-09-09,陈埭镇西坂小学旁,晋江市,泉州市,118.604074,24.825379,立马电动车(西坂专卖店),福建省,无,立马
2019-09-09,S1572斗尾疏港高速(惠洋大酒店南),惠安县,泉州市,118.973673,24.977340,立马电动车(兴乐购物北),福建省,无,立马
