add_time,address,area,city,lat,lng,name,province,tel,topic
2019-09-09,东坝乡单店5号,朝阳区,北京市,116.532024,39.961581,美的,北京市,010-65498136;13391812731,美的
2019-09-09,大皮营路与福东街交叉口北150米,大兴区,北京市,116.654668,39.625536,美的,北京市,无,美的
2019-09-09,次渠镇百尚购物广场,通州区,北京市,116.573830,39.800249,美的,北京市,无,美的
2019-09-09,安宁庄东路1号,海淀区,北京市,116.325759,40.049083,美的,北京市,无,美的
2019-09-09,X017(涞宝路),房山区,北京市,115.712706,39.573219,美的,北京市,4008899315,美的
2019-09-09,东北路南50米,昌平区,北京市,116.405112,40.127557,美的,北京市,无,美的
2019-09-09,回南路临058号附近,昌平区,北京市,116.424207,40.089235,美的,北京市,无,美的
2019-09-09,同顺街与新发路交叉口东南150米,大兴区,北京市,116.351741,39.663730,美的,北京市,无,美的
2019-09-09,,房山区,北京市,115.977256,39.674804,美的,北京市,无,美的
2019-09-09,府前街4号附近,顺义区,北京市,116.534700,40.247829,美的,北京市,无,美的
2019-09-09,平蓟路68-4号附近,平谷区,北京市,117.156277,40.164098,美的,北京市,4008899315,美的
2019-09-09,南辛路216号,昌平区,北京市,116.138129,40.232346,美的,北京市,13718558750,美的
2019-09-09,北苑街道新华西街171号怡佳家园底商苏宁电器二楼,通州区,北京市,116.645004,39.907055,美的,北京市,无,美的
2019-09-09,渔阳泃河西路39号,平谷区,北京市,117.090700,40.125733,美的,北京市,无,美的
2019-09-09,城关南路与永安中路交叉口西南100米,房山区,北京市,115.982600,39.693672,美的,北京市,010-81309174,美的
2019-09-09,太阳宫镇北三环东路甲7号西坝河北里国美电器,朝阳区,北京市,116.441121,39.969456,美的,北京市,无,美的
2019-09-09,木林镇木林电信局对面,顺义区,北京市,116.779918,40.245196,美的,北京市,010-60456533;13716444486,美的
2019-09-09,仁和怡馨家园4号楼苏宁电器4层,顺义区,北京市,116.650681,40.118823,美的,北京市,无,美的
2019-09-09,十八里店镇大羊坊路106号居然之家4号馆一层,朝阳区,北京市,116.467204,39.859947,美的,北京市,无,美的
2019-09-09,庑殿路44号附近,大兴区,北京市,116.443391,39.804709,美的,北京市,无,美的
2019-09-09,北小营市场(顺义区北小营镇政府北),顺义区,北京市,116.728416,40.202393,美的,北京市,13716243588,美的
2019-09-09,杨庄大街87-2号,石景山区,北京市,116.186102,39.917763,美的(石景山旗舰店),北京市,010-68839566,美的
2019-09-09,长阳镇碧波园小区15号楼,房山区,北京市,116.180820,39.750230,美的(房山旗舰店),北京市,010-63754248;010-63719599;13501339033,美的
2019-09-09,香山南路168-119号,石景山区,北京市,116.200706,39.942217,美的(石景山茂隆格店),北京市,010-88774182,美的
2019-09-09,采源路与采辛路交叉口北150米,大兴区,北京市,116.639798,39.658717,美的(大兴采育店),北京市,4008899315;15801571665,美的
2019-09-09,兴华南街402号附近,通州区,北京市,116.545111,39.752592,美的(百尚生活广场店),北京市,无,美的
2019-09-09,复兴路33号翠微大厦A座五层,海淀区,北京市,116.303640,39.907962,美的(翠微广场),北京市,4008899315,美的
2019-09-09,X017(涞宝路),密云区,北京市,117.091171,40.534122,美的(石景山旗舰店),北京市,4008899315,美的
2019-09-09,九棵树东路96号梨园创意产业楼1期,通州区,北京市,116.673347,39.879279,美的(九棵树东路店),北京市,无,美的
2019-09-09,长安街号密云大中电器三层,密云区,北京市,116.840925,40.375811,美的(密云旗舰店),北京市,4008899315,美的
2019-09-09,京通快速路出口与建国路交叉口西北150米,朝阳区,北京市,116.508431,39.908737,美的(建国路店),北京市,无,美的
2019-09-09,兴贸北街与G2京沪高速交叉口西南50米,通州区,北京市,116.557831,39.766500,美的(兴贸北街),北京市,无,美的
2019-09-09,府前街14号京北大世界F5层,怀柔区,北京市,116.632767,40.315455,美的(京北大世界),北京市,4008899315,美的
2019-09-09,翠屏西路2号苏荷时代商业广场F1层,通州区,北京市,116.645197,39.891780,美的(苏荷雅居店),北京市,4008899315,美的
2019-09-09,万丰路68号银座和谐广场F5,丰台区,北京市,116.296396,39.882006,美的(万丰路店),北京市,4008899315,美的
2019-09-09,李长路与青采路交叉口南50米,大兴区,北京市,116.592290,39.685560,美的(朱大路),北京市,010-80265388,美的
2019-09-09,兴盛西街与306省道交叉口西北50米,顺义区,北京市,116.746392,40.135439,美的(顺义南彩店),北京市,13716709279,美的
2019-09-09,阳光街华远市场14-2号,密云区,北京市,116.860442,40.368563,美的(奇林伟业店),北京市,无,美的
2019-09-09,金星路12号院3号楼910室,大兴区,北京市,116.349554,39.762394,美的(天福昌运店),北京市,13001226585,美的
2019-09-09,太师屯镇永安街61号,密云区,北京市,117.131466,40.536429,美的(富百世通店),北京市,010-69032783,美的
2019-09-09,河南寨镇顺密路下屯村紧邻柏路顺发超市,密云区,北京市,116.803309,40.301238,美的(金益佳兴店),北京市,18610995321,美的
2019-09-09,羊坊店路18号光耀东方购物中心B1层,海淀区,北京市,116.321999,39.899724,美的(光耀东方广场店),北京市,4008899315,美的
2019-09-09,西马场甲14号集美家居北京大红门店8号厅F3层,丰台区,北京市,116.388322,39.834434,美的(集美家居北京大红门店8号厅),北京市,无,美的
2019-09-09,骡马市大街14号,西城区,北京市,116.381850,39.888979,美的(易德诚旗舰店),北京市,4008899315,美的
2019-09-09,北三环西路23蓝景丽家大钟寺家居广场2F层,海淀区,北京市,116.342839,39.968983,美的(蓝景丽家大钟寺家居广场),北京市,010-63244218,美的
2019-09-09,窦店镇于庄村沁园春景,房山区,北京市,116.069513,39.671891,美的(金鑫苑小区西北),北京市,无,美的
2019-09-09,杨宋庄村活动中心(如水商务酒店东北),怀柔区,北京市,116.685259,40.291076,美的(金正宏达制冷专卖店),北京市,无,美的
2019-09-09,西马场甲14号集美家居北京大红门店8号厅F1层,丰台区,北京市,116.388369,39.834508,美的(集美家居北京大红门店8号厅),北京市,4008899315,美的
2019-09-09,鼓楼南大街一号物美大卖场三层,密云区,北京市,116.844022,40.375232,美的(东斜街),北京市,010-69062137,美的
2019-09-09,繁荣路与G45大广高速交叉口西北200米,大兴区,北京市,116.322952,39.637233,美的(大兴庞各庄店),北京市,4008899315,美的
2019-09-09,新顺南大街2号国泰广场F6层,顺义区,北京市,116.652119,40.129608,美的(顺义国泰广场店),北京市,4008899315,美的
2019-09-09,北太平庄街道北三环中路乙40号国美电器一层厨卫部,海淀区,北京市,116.363976,39.967152,美的(国美电器店),北京市,4008899315,美的
2019-09-09,鼓楼北街16号,昌平区,北京市,116.234149,40.229315,美的(北京龙悦会芳商贸中心),北京市,无,美的
2019-09-09,隆庆路4号院1,大兴区,北京市,116.452587,39.792561,美的(旧宫旗舰店),北京市,010-87910376,美的
2019-09-09,西红门兴海月苑北门12号楼底商,大兴区,北京市,116.337080,39.794090,美的(兴海月苑店),北京市,4008899315,美的
2019-09-09,复兴路甲23号城乡购物中心F5层,海淀区,北京市,116.307322,39.908671,美的(城乡购物中心),北京市,4008899315,美的
2019-09-09,复兴路29-33号翠微百货翠微店A座5F层,海淀区,北京市,116.303268,39.908282,美的(翠微百货翠微店A座),北京市,无,美的
2019-09-09,东铁营街道嘉业大厦二层,丰台区,北京市,116.428174,39.856501,美的(嘉业大厦店),北京市,无,美的
2019-09-09,房易路与新街路交叉口东北150米,房山区,北京市,115.937389,39.658031,美的(北京迦铭美的制冷专营店NO.京Z0175),北京市,010-81385230,美的
2019-09-09,新水丰路鑫基家园1号楼底商,昌平区,北京市,116.213501,40.209707,美的(百百路店),北京市,4008899315,美的
2019-09-09,开利园72号楼1层03号,怀柔区,北京市,116.645574,40.318880,美的(怀柔旗舰店),北京市,010-69623444,美的
2019-09-09,西四北大街前车胡同8号,西城区,北京市,116.372068,39.932129,美的(亚宇阳光商贸中心店),北京市,13381219768,美的
2019-09-09,卢沟桥杜家坎环岛东北角集美家居(卢沟桥店)F3层,丰台区,北京市,116.210332,39.846595,美的(集美家居卢沟桥店),北京市,4008899315,美的
2019-09-09,南华大街9号楼10门,怀柔区,北京市,116.634550,40.308899,美的(怀柔南华大街专卖店),北京市,010-69659362,美的
2019-09-09,复兴路21号国美电器2层,海淀区,北京市,116.311361,39.909227,美的(复兴路辅路),北京市,无,美的
2019-09-09,新东路126号2层,密云区,北京市,116.859047,40.375316,美的(新东路店),北京市,010-69040359;13716778363,美的
2019-09-09,台湖镇次渠大街12号京华园底商30号,通州区,北京市,116.583342,39.802651,美的(次渠店),北京市,4008899315,美的
2019-09-09,新世纪商业街25号,昌平区,北京市,116.141646,40.137241,美的(西贯市村横街店),北京市,4008899315,美的
2019-09-09,安定门内北锣鼓巷谢家胡同59号,东城区,北京市,116.403113,39.944843,美的(谢家胡同),北京市,4008899315;18910059197,美的
2019-09-09,北三环安贞西里五区4号华联商厦F4层,朝阳区,北京市,116.400949,39.970861,美的(华联商厦),北京市,4008899315,美的
2019-09-09,双峪路5-2奥新天地商城(双峪路)3层,门头沟区,北京市,116.108271,39.935453,美的(双峪路店),北京市,4008899315,美的
2019-09-09,兴华中路与兴华大街交叉口东北50米,大兴区,北京市,116.332767,39.736090,美的(北京创辉源旗舰店),北京市,4008899315,美的
2019-09-09,琉陶路附近,房山区,北京市,116.028273,39.601985,美的(房山琉璃河亿隆店),北京市,010-89386636,美的
2019-09-09,小屯路9号(立高大厦西10米),丰台区,北京市,116.251649,39.889283,美的(小屯旗舰店),北京市,010-88607600;4008899315;13601056222,美的
2019-09-09,兴安大街和黄徐路的交叉口附近,大兴区,北京市,116.492270,39.618011,美的(大兴安定镇店),北京市,010-80231720,美的
2019-09-09,中心街38号(近富百世通电器大卖场),密云区,北京市,117.126312,40.539373,美的(太师屯店),北京市,010-69032783,美的
2019-09-09,石景山路22号华联商厦f4层,石景山区,北京市,116.220954,39.906656,美的(华联商厦店),北京市,4008899315,美的
2019-09-09,李长路与青采路交叉口西南50米,大兴区,北京市,116.596841,39.684354,美的(争超电器店),北京市,无,美的
2019-09-09,马驹桥镇小张湾西周路静福宾馆旁边,通州区,北京市,116.557471,39.725639,美的(通州马驹桥专卖店),北京市,010-60575823,美的
2019-09-09,沙河镇巩华大街58号鑫之星市场院内,昌平区,北京市,116.268097,40.124216,美的(沙河专卖店),北京市,010-57431787,美的
2019-09-09,新平东路8-3号,平谷区,北京市,117.123737,40.143946,美的(制冷专卖店),北京市,010-89983528;010-89987891,美的
2019-09-09,西关路东段,昌平区,北京市,116.226560,40.224342,美的(昌平西关专卖店),北京市,010-80103595,美的
2019-09-09,东高地,丰台区,北京市,116.412206,39.805431,美的(三角地店),北京市,010-67953359,美的
2019-09-09,窦店镇瓦窑头村奥美博雅建材城2楼,房山区,北京市,116.069552,39.668579,美的(沁园·春景南),北京市,4008899315,美的
2019-09-09,长沟镇长沟大街星海电器一层,房山区,北京市,115.896586,39.572167,美的(房山长沟星海店),北京市,010-61362369;4008899315,美的
2019-09-09,双井街道广渠路31号双井家乐福3层家电处,朝阳区,北京市,116.474021,39.894042,美的电器,北京市,无,美的
2019-09-09,东四环中路39号华业国际b座205室,朝阳区,北京市,116.487330,39.919113,美的电器,北京市,无,美的
2019-09-09,冷泉路东50米,海淀区,北京市,116.223815,40.037045,美的空调,北京市,15201340965,美的
2019-09-09,亦庄经济开发区经海路7号贞观国际1号楼10层海生日盛,大兴区,北京市,116.535257,39.815831,美的空调,北京市,无,美的
2019-09-09,天通苑东三区二号楼苏宁易购底商,昌平区,北京市,116.436935,40.072151,美的空调,北京市,无,美的
2019-09-09,东风镇星火西路19号楼泛海国际低商苏宁易购地下一层,朝阳区,北京市,116.501190,39.937401,美的空调,北京市,无,美的
2019-09-09,魏石路345号附近,大兴区,北京市,116.402667,39.632186,美的空调,北京市,无,美的
2019-09-09,史村中街与漷马路交叉口西100米,通州区,北京市,116.590029,39.740735,美的空调,北京市,无,美的
2019-09-09,南苑五爱屯西街乐来乐农贸市场,丰台区,北京市,116.376780,39.799368,美的空调,北京市,4008899315,美的
2019-09-09,信息路11号附近,海淀区,北京市,116.307756,40.039145,美的空调,北京市,4006813811,美的
2019-09-09,青塔西路11号苏宁电器二层,丰台区,北京市,116.263967,39.889940,美的空调,北京市,13691235652,美的
2019-09-09,阜石路喜隆多300号苏宁易购二楼,石景山区,北京市,116.174232,39.923088,美的空调,北京市,无,美的
2019-09-09,026县道南100米,房山区,北京市,115.990288,39.674120,美的中心,北京市,无,美的
2019-09-09,北七家镇名佳花园3区22号楼2单元211号,昌平区,北京市,116.418736,40.104308,美的空调,北京市,13911031320,美的
2019-09-09,兴丰大街62号帝园电器城地下一层,大兴区,北京市,116.341142,39.731999,美的空调,北京市,无,美的
2019-09-09,新顺南大街四号鑫海韵通电器店二楼,顺义区,北京市,116.651562,40.128891,美的空调,北京市,无,美的
2019-09-09,复兴路甲38号嘉德公寓底商苏宁易购三层,海淀区,北京市,116.260538,39.906622,美的空调,北京市,无,美的
2019-09-09,南苑街道南公益庄25号,丰台区,北京市,116.381850,39.828100,美的空调,北京市,无,美的
2019-09-09,西集镇西尹路富华电器商场1层,通州区,北京市,116.882138,39.816547,美的空调,北京市,13718165951,美的
2019-09-09,南磨房西大望路15号院外企大厦a座苏宁电器2层,朝阳区,北京市,116.476287,39.893750,美的空调,北京市,4008899315,美的
2019-09-09,北苑路168号苏宁电器3层,朝阳区,北京市,116.417796,39.996236,美的空调,北京市,4008899315,美的
2019-09-09,西四环南路101号大中电器一层,丰台区,北京市,116.285867,39.839556,美的空调,北京市,无,美的
2019-09-09,北沙滩桥1号红星美凯龙B1层,朝阳区,北京市,116.369677,40.002831,美的空调,北京市,4008899315,美的
2019-09-09,鼓楼西大街南更大街长安小区西区1号楼1号门,密云区,北京市,116.836865,40.378799,美的空调,北京市,无,美的
2019-09-09,老君堂中路西100米,朝阳区,北京市,116.508105,39.838061,美的专卖(老君堂店),北京市,4008899315,美的
2019-09-09,,大兴区,北京市,116.413908,39.664965,美的电器,北京市,无,美的
2019-09-09,永强家园北门,顺义区,北京市,116.942451,40.149597,美的电器,北京市,4008899315,美的
2019-09-09,马家堡东路集美家居6号厅1层61086号,丰台区,北京市,116.388173,39.832942,美的净水,北京市,4008899315;13264133532,美的
2019-09-09,潘家园南里24号楼,朝阳区,北京市,116.447313,39.877762,美的空调(朝阳区店),北京市,无,美的
2019-09-09,甘露园57号,朝阳区,北京市,116.514005,39.918954,美的空调(朝阳区店),北京市,无,美的
2019-09-09,三台山路3-1号,朝阳区,北京市,116.447788,39.829016,美的空调(朝阳区店),北京市,无,美的
2019-09-09,城关街道2号福胜家园2号楼底商,房山区,北京市,115.988204,39.703406,美的空调(房山永安伟业专卖店),北京市,13855151554,美的
2019-09-09,朝阳路高井村甲8号红星美凯龙1层,朝阳区,北京市,116.539972,39.914723,美的电器(红星美凯龙店),北京市,无,美的
2019-09-09,清苑路润泽庄园京客隆一层,朝阳区,北京市,116.432922,40.051765,美的净水器,北京市,无,美的
2019-09-09,崔各庄乡奶东村18排一号美的空调,朝阳区,北京市,116.477859,40.041045,美的中央空调,北京市,13661354264;010-56025473;13681207226,美的
2019-09-09,宝盛路与黑泉路交叉口南50米,海淀区,北京市,116.370873,40.036476,美的中央空调(北京服务中心),北京市,无,美的
2019-09-09,鼓楼街道檀城东区23号楼底商美的中央空调,密云区,北京市,116.854168,40.366896,美的中央空调,北京市,无,美的
2019-09-09,南礼士路丁9号美的空调售后维修中心,西城区,北京市,116.352952,39.914603,美的空调(西城区店),北京市,无,美的
2019-09-09,,顺义区,北京市,116.756228,40.140487,美的中央空调,北京市,无,美的
2019-09-09,,顺义区,北京市,116.553759,40.150939,美的中央空调,北京市,无,美的
2019-09-09,北三环中路甲25号大中电器四层,西城区,北京市,116.386063,39.968632,美的冰箱,北京市,无,美的
2019-09-09,西三旗新龙大厦B座苏宁易购二层,昌平区,北京市,116.328491,40.058601,美的烟机展台,北京市,无,美的
2019-09-09,团河路300号附近,丰台区,北京市,116.377964,39.789988,美的中央空调,北京市,无,美的
2019-09-09,马昌营镇南定福村商业楼37号,平谷区,北京市,117.022879,40.133730,美的中央空调,北京市,无,美的
2019-09-09,政府街15号大中电器三楼,昌平区,北京市,116.233223,40.221107,美的冰箱,北京市,无,美的
2019-09-09,西直门北街甲43号金运大厦B座1105号,西城区,北京市,116.354769,39.951023,美的专卖店(金运大厦),北京市,无,美的
2019-09-09,延伸街65号,房山区,北京市,116.114943,39.659629,美的LED照明,北京市,无,美的
2019-09-09,黄村镇兴政街28号苏宁易购二楼,大兴区,北京市,116.338478,39.726917,美的空调展柜,北京市,无,美的
2019-09-09,迎宾北路12号院1号楼4门,怀柔区,北京市,116.635469,40.321020,美的中央空调,北京市,010-69695869;4008899315,美的
2019-09-09,旧宫镇德贤路南城淘宝苏宁易购二楼,大兴区,北京市,116.430847,39.809597,美的冰箱,北京市,无,美的
2019-09-09,翠海明苑15号楼,丰台区,北京市,116.359916,39.808419,美的中央空调,北京市,无,美的
2019-09-09,东外大街40号,延庆区,北京市,115.983942,40.462437,美的电器(延庆旗舰店),北京市,4008899315,美的
2019-09-09,德胜街道北三环中路27号商房大厦1-3层,西城区,北京市,116.384999,39.968768,美的厨卫(北京马甸鹏润店),北京市,010-57288511;4008899315,美的
2019-09-09,怀昌路与昌崔路交叉口西150米,昌平区,北京市,116.362446,40.220481,美的中央空调,北京市,4008899315,美的
2019-09-09,南三环中路73号洋桥国美电器三层,丰台区,北京市,116.384840,39.857660,美的冰箱,北京市,4008899315,美的
2019-09-09,沙窝北路皮村环岛缘中缘宾馆旁边,朝阳区,北京市,116.630609,39.987954,美的中央空调,北京市,18600429383,美的
2019-09-09,博兴八路南海家园六里2号3单元102室,大兴区,北京市,116.496055,39.760852,美的冰箱,北京市,13911860226,美的
2019-09-09,管庄杨闸环岛国美电器2层,朝阳区,北京市,116.598895,39.912983,美的烟机,北京市,无,美的
2019-09-09,南大街14号苏宁易购3层,怀柔区,北京市,116.633735,40.312000,美的冰箱(南大街),北京市,无,美的
2019-09-09,永泰庄东路东滨河路甲8号,海淀区,北京市,116.364342,40.029592,美的商用空调,北京市,无,美的
2019-09-09,李魏路与306省道交叉口西北100米,顺义区,北京市,116.754717,40.138171,格力美的,北京市,无,美的
2019-09-09,八里庄街道苏宁易购生活广场4层,朝阳区,北京市,116.494671,39.916132,美的冰箱,北京市,无,美的
2019-09-09,秦尚路与顺沙路交叉口东150米,昌平区,北京市,116.380997,40.175540,美的中央空调,北京市,4008899315,美的
2019-09-09,宋庄镇市白庙新村2号新老红铁艺院内,通州区,北京市,116.764557,39.939262,美的生活电器,北京市,无,美的
2019-09-09,黄村东大街35号大中电器2层,大兴区,北京市,116.341656,39.732156,美的冰箱(富强路),北京市,无,美的
2019-09-09,南苑路槐房西路559号外贸仓库,丰台区,北京市,116.366995,39.816420,美的外贸仓库,北京市,无,美的
2019-09-09,西翠路伟伟市场19号20号,海淀区,北京市,116.282545,39.898310,美的中央空调,北京市,13911795687,美的
2019-09-09,高教新城北街家园6区4号楼105室,昌平区,北京市,116.263700,40.163734,美的中央空调,北京市,4008899315,美的
2019-09-09,如家快捷酒店(双屿环岛店)(爱玛裕办公家具城南20米),石景山区,北京市,116.119491,39.939677,美的照明(河堤路),北京市,4008899315,美的
2019-09-09,窦店镇大窦路田家园小区,房山区,北京市,116.068730,39.656078,美的空调(窦店旗舰店),北京市,010-57258888,美的
2019-09-09,辛房路百尚生活广场3层,通州区,北京市,116.548369,39.756365,美的中央空调,北京市,4008899315,美的
2019-09-09,良乡镇拱辰大街99号苏宁生活广场四层,房山区,北京市,116.141547,39.731281,美的烟机,北京市,无,美的
2019-09-09,德觅路与永觅路交叉口东150米,通州区,北京市,116.882397,39.711448,美的专卖店,北京市,18610919813,美的
2019-09-09,回龙观北店时代广场苏宁易购二楼,昌平区,北京市,116.337062,40.080200,美的空调服务点,北京市,无,美的
2019-09-09,西三旗街道清河龙岗路12号清缘里中区1号楼底商底商美的空调,海淀区,北京市,116.357390,40.030183,美的空调家电制冷,北京市,15010037879,美的
2019-09-09,S327(定泗路),昌平区,北京市,116.363847,40.115372,美的空调专卖,北京市,无,美的
2019-09-09,北复路西50米,昌平区,北京市,116.064941,40.175733,北复路美的空调,北京市,无,美的
2019-09-09,于家园二区(南院)甲5号楼7单元103,怀柔区,北京市,116.644218,40.328651,美的空调门店,北京市,无,美的
2019-09-09,富安街与狼垡东路交叉口南50米,大兴区,北京市,116.284377,39.787180,大兴狼垡美的专卖店,北京市,无,美的
2019-09-09,杜家坎南路甲17号西南90米,丰台区,北京市,116.209040,39.837267,美的空调专卖,北京市,无,美的
2019-09-09,南彩镇后俸伯红绿灯北100米彤顺德旁边,顺义区,北京市,116.697211,40.133867,美的洗悦家,北京市,无,美的
2019-09-09,南宫路西100米,丰台区,北京市,116.148820,39.803795,美的家庭中央空调(南宫路),北京市,4008899315,美的
2019-09-09,西马场甲14号集美家居北京大红门店2&3&5号厅F1层,丰台区,北京市,116.393799,39.834042,美的e家(集美家居北京大红门店2&3&5号厅),北京市,4008899315,美的
2019-09-09,四季青西四环北路117号金四季购物中心欧尚2层,海淀区,北京市,116.271265,39.944213,美的微波炉专柜,北京市,无,美的
2019-09-09,张坊镇房易路红绿灯西行50米路南,房山区,北京市,115.713639,39.569345,美的中央空调(张坊店),北京市,无,美的
2019-09-09,南沙湾万家灯火装饰城,海淀区,北京市,116.277031,40.029106,美的·整体吊顶,北京市,无,美的
2019-09-09,杨闸环岛北街1号,朝阳区,北京市,116.600083,39.915725,美的中央空调(杨闸环岛店),北京市,010-65711021,美的
2019-09-09,旧宫镇小红门路东翰写字楼5号,大兴区,北京市,116.454070,39.819674,美的体验店(旧宫店),北京市,010-67989979,美的
2019-09-09,阳光街414-7号附近,密云区,北京市,116.843367,40.363186,美的空气源采暖,北京市,13701029767,美的
2019-09-09,卢沟桥杜家坎环岛东北角集美家居(卢沟桥店)F4层,丰台区,北京市,116.210405,39.846302,美的·整体吊顶(集美家居卢沟桥店),北京市,4008899315,美的
2019-09-09,北苑东路5号北五环建材灯饰广场F2,朝阳区,北京市,116.437783,40.025417,美的·整体吊顶,北京市,4008899315,美的
2019-09-09,海户西里1号楼洋桥大中电器,丰台区,北京市,116.387384,39.856203,美的小家电,北京市,无,美的
2019-09-09,温泉镇白家疃路尚品园3号楼118室底商,海淀区,北京市,116.184376,40.043498,美的中央空调(温泉路店),北京市,13901327924;010-56914766,美的
2019-09-09,西三环中路11号大中电器厨卫部,海淀区,北京市,116.308974,39.919459,美的饮水机专柜,北京市,无,美的
2019-09-09,南三环西路78号玉泉营桥西万兴国际家居广场d座2层90-91号,丰台区,北京市,116.340843,39.844683,美的·整体吊顶,北京市,无,美的
2019-09-09,卢沟桥张仪村路35号院15号,丰台区,北京市,116.270785,39.883441,美的中央空调(岳各庄北路),北京市,4008899315,美的
2019-09-09,新中街159附近,密云区,北京市,116.850733,40.371692,美的中央空调(东斜街),北京市,010-69062137,美的
2019-09-09,西四环中路113号红星美凯龙B1层A8711,丰台区,北京市,116.271597,39.883069,美的整体吊顶(红星美凯龙),北京市,4008899315,美的
2019-09-09,北顺城街3附近,延庆区,北京市,115.967477,40.461588,延庆美的专卖店,北京市,13501177757,美的
2019-09-09,朝阳路管庄刨花板市场底商24-25号,朝阳区,北京市,116.591179,39.912450,美的中央空调(管庄店),北京市,010-89508780;4008899315,美的
2019-09-09,规划六路与顺平路交叉口西北150米,顺义区,北京市,116.559430,40.118550,美的智慧家居,北京市,无,美的
2019-09-09,京深路与岳琉路交叉口北50米,房山区,北京市,116.028223,39.601842,美的热水器(授权经营店),北京市,无,美的
2019-09-09,定泗路奥北之家建材城北门向北50米(韩蒸王朝商务会所对面),昌平区,北京市,116.403183,40.113908,美的家庭中央空调,北京市,4008899315,美的
2019-09-09,长阳路,房山区,北京市,116.177914,39.750552,美的厨卫电器(长阳碧波园专卖店),北京市,010-59374983,美的
2019-09-09,,平谷区,北京市,117.099165,40.150369,美的热水器,北京市,无,美的
2019-09-09,管庄家居文化广场4层126号,朝阳区,北京市,116.591332,39.912521,美的热水器,北京市,010-89508780;13699263394,美的
2019-09-09,十里堡镇海怡庄园4号楼底商102,密云区,北京市,116.814083,40.365750,美的专卖店,北京市,无,美的
2019-09-09,首航国际6号楼,顺义区,北京市,116.599472,40.128960,美的家用净水机(顺义服务中心),北京市,4008899315,美的
2019-09-09,张凤路与张梁路交叉口东北50米,通州区,北京市,116.719755,39.849964,美的专卖店,北京市,4008899315,美的
2019-09-09,金海湖韩庄邮局西20米路南,平谷区,北京市,117.267129,40.180820,美的专卖店,北京市,010-89969388,美的
2019-09-09,同心路与顺平路交叉口西南100米,顺义区,北京市,116.882913,40.152280,美的热水器,北京市,4008899315,美的
2019-09-09,石桥南街34号,密云区,北京市,117.165000,40.689425,美的专卖店,北京市,13716332341;18710257355,美的
2019-09-09,鲁谷路远洋山水大中电器二层,石景山区,北京市,116.236900,39.903498,美的热水器,北京市,无,美的
2019-09-09,汤河口大街18号附近,怀柔区,北京市,116.641604,40.735942,美的空调专卖(北京广营店),北京市,4008899315,美的
2019-09-09,万源北路161号附近,大兴区,北京市,116.431100,39.804486,美的空调小家电,北京市,无,美的
2019-09-09,王化村543号,怀柔区,北京市,116.668922,40.321578,美的专卖店,北京市,无,美的
2019-09-09,安定路20号苏宁电器2层,东城区,北京市,116.408044,39.973799,美的空调专柜,北京市,无,美的
2019-09-09,鼓楼南大街17号昌平新世纪商城5层,昌平区,北京市,116.233100,40.219040,美的热水器,北京市,18910976803,美的
2019-09-09,城南欣街16号附近,房山区,北京市,115.719721,39.570355,美的专卖店,北京市,13581638993;4008899315,美的
2019-09-09,长兴大街中体奥园1区1号楼104号,丰台区,北京市,116.191782,39.835800,美的慧生活,北京市,13501051996,美的
2019-09-09,京平高速联络线与密三路交叉口西100米,平谷区,北京市,117.007803,40.055498,美的空调专卖(京平高速联络线),北京市,4008899315,美的
2019-09-09,滨湖南街8号楼,怀柔区,北京市,116.635504,40.325138,美的净水设备(怀柔专卖店),北京市,010-69628533;010-69695869,美的
2019-09-09,文化南街3-5号,平谷区,北京市,117.111448,40.138990,美的专卖店(文化南街),北京市,010-89983976;010-69988988,美的
2019-09-09,马房寺路382号附近,朝阳区,北京市,116.535838,39.866880,美的空调专卖店,北京市,无,美的
2019-09-09,北庄镇华盛路50号,密云区,北京市,117.174471,40.510364,美的空调专卖店,北京市,13911379753,美的
2019-09-09,中山口路5附近,昌平区,北京市,116.240136,40.233045,美的空调专卖店,北京市,无,美的
2019-09-09,平谷镇东寺渠大桥往南50米路西(旧家具市场对面),平谷区,北京市,117.123260,40.129289,美的空调专卖店,北京市,无,美的
2019-09-09,溪翁庄镇密关路溪翁庄村委会北楼附近,密云区,北京市,116.838470,40.471884,溪翁庄美的专卖店,北京市,13811809159,美的
2019-09-09,温阳路东50米,海淀区,北京市,116.159470,40.080378,美的空调专卖店,北京市,4008899315,美的
2019-09-09,城角西路14附近,昌平区,北京市,116.223193,40.219150,北京雪松美的制冷专卖店,北京市,010-89708606;010-86293108,美的
2019-09-09,北苑东路东200米,昌平区,北京市,116.444003,40.071208,美的空调大凯电器,北京市,13366501243,美的
2019-09-09,,朝阳区,北京市,116.537046,39.866055,美的商用厨房设备,北京市,010-87920589;15810384693,美的
2019-09-09,南口镇新兴路13号,昌平区,北京市,116.132325,40.243196,美的昌平旗舰店,北京市,010-89795849,美的
2019-09-09,东坝朝新嘉园东里一区8号楼,朝阳区,北京市,116.556259,39.948575,朝阳千重浪美的旗舰店,北京市,13381219083,美的
2019-09-09,五福路中街与五福路二条交叉口东南50米,大兴区,北京市,116.420975,39.781791,中科电商谷美的中央空调,北京市,18610376589,美的
2019-09-09,南陈路西50米,顺义区,北京市,116.613280,40.180741,顺义马坡镇姚店村美的专卖店,北京市,无,美的
2019-09-09,安四路西50米,昌平区,北京市,116.415135,40.219429,昌平兴寿村美的空调专卖店,北京市,4008899315,美的
2019-09-09,顺沙路与八零七乡道路口北,顺义区,北京市,116.562088,40.147967,富达美的制冷专卖店,北京市,010-69495796,美的
2019-09-09,迎宾中路38号(大鸭梨旁边),怀柔区,北京市,116.637541,40.319858,怀柔春雪旺源美的专卖店,北京市,010-69633398,美的
2019-09-09,安贞街道裕民路12号中国国际科技会展中心c座4层美的小家电电子商务部,朝阳区,北京市,116.382126,39.973032,美的小家电电子商务部,北京市,无,美的
2019-09-09,七圣路1号楼,朝阳区,北京市,116.432307,39.968098,美的慧生活,北京市,无,美的
2019-09-09,房窑路5号附近,房山区,北京市,115.996715,39.690421,美的空调北京安泰仓,北京市,无,美的
2019-09-09,张仪村甲77号宏运兴仓储36号办公室,丰台区,北京市,116.219740,39.875127,美的格力空调专卖(批发零售),北京市,13051207113,美的
2019-09-09,定福庄路与石各村路交叉口东150米平安聚源建材市场,朝阳区,北京市,116.566081,39.940522,美的家用中央空调制冷配件(平安聚源店),北京市,15910960659,美的
2019-09-09,木邵路南50米,顺义区,北京市,116.862382,40.232093,创维美的专卖店,北京市,010-60464982,美的
2019-09-09,新东郊酒店用品批发市场B329号,朝阳区,北京市,116.536956,39.866045,强盛科技美的空调(社区店),北京市,无,美的
2019-09-09,西坝河中里34-2号西坝河中里34号楼,朝阳区,北京市,116.439163,39.961880,美的中央空调清洗保养服务站,北京市,无,美的
2019-09-09,小汤山镇双兴苑小区26号楼底商,昌平区,北京市,116.383034,40.175440,美的家用空调专卖(昌平小汤山美的空调专卖店),北京市,4008899315,美的
2019-09-09,周村东街北路与周村东街南路交叉口西200米,大兴区,北京市,116.293381,39.706373,美的净水机大兴总代理,北京市,无,美的
2019-09-09,十八里店镇十里河建材一条街西燕闽龙木门橱柜总部基地二层,朝阳区,北京市,116.471167,39.861349,美的橱柜衣柜全屋定制,北京市,无,美的
2019-09-09,兴务路与木北路交叉口东南50米,顺义区,北京市,116.825042,40.062656,美的中央空调M-HOME专业店,北京市,无,美的
2019-09-09,永安路22-4号,昌平区,北京市,116.234167,40.208291,美的中央空调M-HOME专业店,北京市,无,美的
2019-09-09,前罗圈胡同与棉花胡同交叉口西北50米,西城区,北京市,116.376258,39.937414,格力美的空调专卖,北京市,13366973685,美的
2019-09-09,牛富路16号附近,顺义区,北京市,116.653750,40.210922,美的家用电器厨具,北京市,4008899315,美的
2019-09-09,裕安路辅路华冠建材城,顺义区,北京市,116.543233,40.109550,美的中央空调专卖店,北京市,13311429299,美的
2019-09-09,四季青桥南爱家家居二层国美电器,海淀区,北京市,116.271913,39.942417,美的热水器燃气灶服务中心,北京市,无,美的
2019-09-09,密西花园小区49-8号,密云区,北京市,116.841783,40.383908,美的日用家电专卖店,北京市,010-69048408;13910512348,美的
2019-09-09,新平北路与纸寨路交叉口东北100米,平谷区,北京市,117.141036,40.156638,美的空调记海电器,北京市,15910946818,美的
2019-09-09,阳光街775-16号南60米,密云区,北京市,116.841746,40.363040,美的中央空调清洗保养服务站,北京市,无,美的
2019-09-09,站前街国家电网对面,顺义区,北京市,116.646156,40.127909,顺义仁和镇美的专卖店,北京市,无,美的
2019-09-09,建新一路与老张孙路交叉口南100米,顺义区,北京市,116.951986,40.146583,顺义张镇铮铮电器美的专卖店,北京市,无,美的
2019-09-09,呼家楼街道朝阳北路219号大中电器二层小家电部(团结湖店),朝阳区,北京市,116.466370,39.923510,美的热水器燃气灶服务站,北京市,无,美的
2019-09-09,张采路西50米,通州区,北京市,116.701070,39.854750,美的中央空调M-HOME专业店,北京市,无,美的
2019-09-09,北七家镇王府街53号宏福大厦旁,昌平区,北京市,116.370998,40.100719,美的空调专卖店(北清路),北京市,010-81785228;4008899315,美的
2019-09-09,定泗路66号白各庄新村16号楼三单元,昌平区,北京市,116.356787,40.116914,昌平白各庄美的专卖店,北京市,010-57286682,美的
2019-09-09,永陵卫胡同与鼓楼北街交叉口东南100米,昌平区,北京市,116.233534,40.227922,昌平北环美的专卖店,北京市,010-52461793,美的
2019-09-09,巩华大街70号新世纪商城2层,昌平区,北京市,116.266816,40.124000,北京昌平沙河美的制冷专卖店,北京市,010-57431787,美的
2019-09-09,牛栏山地区安乐村村委会西100米,顺义区,北京市,116.662370,40.212492,顺义牛栏山美的专卖店,北京市,13716148086,美的
2019-09-09,旧城街14-1号,平谷区,北京市,117.126049,40.139609,北京平谷恒昊弘达美的(旗舰店),北京市,4008899617,美的
2019-09-09,商业街25号,昌平区,北京市,116.231828,40.215684,昌平世纪顺华路美的专卖店,北京市,010-69712615;4008899315,美的
2019-09-09,新平北路53号大中电器,平谷区,北京市,117.109550,40.145800,北京鑫广华兴美的空调(专卖店),北京市,010-69968696,美的
2019-09-09,木林镇顺密路木林市场东100米,顺义区,北京市,116.779897,40.245196,北京金顺达美的制冷专卖店,北京市,13716662267;010-60456533;13716444486,美的
2019-09-09,密平路,平谷区,北京市,117.014678,40.190146,北京拥军电器美的制冷专卖店,北京市,010-61906231,美的
2019-09-09,新华西街171号苏宁易购三楼美的热水器,通州区,北京市,116.644760,39.907152,苏宁易购美的热水器,北京市,无,美的
2019-09-09,,顺义区,北京市,116.641828,40.138004,永信行.美的空调专卖店,北京市,无,美的
2019-09-09,沙河镇松兰堡村口西200米,昌平区,北京市,116.296095,40.151316,松兰堡美的空调专卖店,北京市,15801004582,美的
2019-09-09,西贯市村北街与西贯市村横街交叉口西50米,昌平区,北京市,116.143132,40.137639,美的小天鹅电器专卖店,北京市,无,美的
2019-09-09,回龙观街道北店时代广场万意百货苏宁易购一层,昌平区,北京市,116.334029,40.080032,美的热水器燃气灶油烟机服务站,北京市,无,美的
2019-09-09,高立庄636号花乡国际家居建材城B132号,丰台区,北京市,116.317549,39.792872,西门子美的专卖店,北京市,无,美的
2019-09-09,望京浦项中心B座9层,朝阳区,北京市,116.488713,39.998930,北京美的制冷产品销售有限公司,北京市,无,美的
2019-09-09,兴唐前街与新西路交叉口东北100米,密云区,北京市,116.835634,40.386685,密云中利亿盛美的专卖店,北京市,无,美的
2019-09-09,长政南街与长阳路交叉口东北150米,房山区,北京市,116.216438,39.753787,美的房山长阳四海通美的专卖店,北京市,13693506052,美的
2019-09-09,东斜街与新中街交叉口东50米,密云区,北京市,116.851263,40.371913,密云美联盛业美的专卖店,北京市,010-69062137,美的
2019-09-09,河西路与黄鹅路交叉口西50米,大兴区,北京市,116.263095,39.751136,大兴鹅房美的专卖店,北京市,4008899315,美的
2019-09-09,记家庙村188号3-F-396号,丰台区,北京市,116.332554,39.847676,美的空调服务站北京市总部,北京市,无,美的
2019-09-09,南三环西路41-9号,丰台区,北京市,116.353755,39.852341,美的中央空调专业店(南三环西路辅路),北京市,无,美的
2019-09-09,东大街与平沿路交叉口东南100米,顺义区,北京市,116.701043,40.101314,顺义仁和建国美的专卖店,北京市,010-89456401;13691225383,美的
2019-09-09,保安街69排1号,平谷区,北京市,117.122787,40.146918,北京东兴旺美的空调专卖店,北京市,010-89995593;010-89983528,美的
2019-09-09,李桥镇沿河村商业街56号,顺义区,北京市,116.715580,40.040053,美的厨房电器·沿河厨语专卖店,北京市,010-69489894,美的
2019-09-09,于家园南街北50米,怀柔区,北京市,116.642082,40.328596,于家园美的专卖店,北京市,无,美的
2019-09-09,宛平城,丰台区,北京市,116.208577,39.842455,美的家庭中央空调M-HOME专业店,北京市,无,美的
2019-09-09,中高路与幸福西街交叉口东南50米,怀柔区,北京市,116.695779,40.325889,佳辉电器美的制冷专卖店,北京市,010-61683347,美的
2019-09-09,东菜园小区3号楼10单元,密云区,北京市,116.861209,40.375949,北京东方事事成美的空调专卖店,北京市,010-69058587;010-69062137,美的
2019-09-09,小博士幼儿园(四环北),朝阳区,北京市,116.463315,39.837615,出售新空调美的格力,北京市,无,美的
2019-09-09,苇子坑125号(宋家庄地铁站10号线C口东行约300米)行者居酒店附近,丰台区,北京市,116.435303,39.846222,美的家用空调科技体验中心,北京市,无,美的
2019-09-09,府前东街7号,怀柔区,北京市,116.646180,40.317451,怀柔怀永兴商社美的专卖店,北京市,010-69653304,美的
2019-09-09,北沙滩桥1号红星美凯龙B2层,朝阳区,北京市,116.370196,40.002094,美的中央空调服务站(红星美凯龙),北京市,无,美的
2019-09-09,,顺义区,北京市,116.599166,40.212704,美的厨房电器·赵全营厨语专卖店,北京市,无,美的
2019-09-09,大发路28号南100米,平谷区,北京市,117.099070,40.150633,美的热水器万家乐烟机灶具,北京市,无,美的
2019-09-09,南雁路与温南路交叉口西100米,昌平区,北京市,116.117572,40.231583,南口强龙家电制冷美的专卖店,北京市,无,美的
2019-09-09,富民路西100米,密云区,北京市,116.790580,40.351629,密云区奇林伟业美的专卖店,北京市,无,美的
2019-09-09,海户西里甲一号楼,丰台区,北京市,116.387253,39.856255,大中电器厨卫美的热水器服务部,北京市,无,美的
2019-09-09,管庄朗庭大厦B座2层,朝阳区,北京市,116.598684,39.910954,美的空调冰箱洗衣机服务站,北京市,无,美的
2019-09-09,兴云路与密西路交叉口东南100米,密云区,北京市,116.822146,40.379906,美的空气源热泵采暖体验店,北京市,无,美的
2019-09-09,大鲁店北路与郎各庄村东路交叉口西50米,朝阳区,北京市,116.577103,39.846729,格力美的大金志高家用商用空调,北京市,无,美的
2019-09-09,南高路,大兴区,北京市,116.461705,39.721383,大兴南大红门美的专卖店,北京市,4008899315,美的
2019-09-09,南华大街29号楼1单元,怀柔区,北京市,116.627332,40.307890,怀柔瑞阳斯达美的空调专卖店,北京市,无,美的
2019-09-09,中高路与怀耿路交叉口北100米,怀柔区,北京市,116.685250,40.291004,怀柔杨宋镇大槐树北美的专卖店,北京市,13716441055,美的
2019-09-09,六营门梅源小区44号商业楼,丰台区,北京市,116.419707,39.796439,北京航天梅源制冷美的专卖店,北京市,010-68757694,美的
2019-09-09,蒲黄榆一里10号,丰台区,北京市,116.421019,39.868146,北京隆鑫恒业美的空调专卖店,北京市,010-67681560,美的
2019-09-09,南三环中路双城公寓底商国美电器,丰台区,北京市,116.406468,39.857549,美的空调丰台区服务站,北京市,无,美的
2019-09-09,林荫三期29楼4单元底商,平谷区,北京市,117.102217,40.134064,平谷智通顺达美的专卖店,北京市,4008899315,美的
2019-09-09,,顺义区,北京市,116.921003,40.093145,顺义大孙各庄美的专卖店,北京市,无,美的
2019-09-09,光熙门北里34号楼,朝阳区,北京市,116.435160,39.969129,美的中央空调·北三环全屋智慧家居体验馆,北京市,010-64281530;13901190551,美的
2019-09-09,延庆镇康庄镇兴隆商业街110号,延庆区,北京市,115.901664,40.376030,北京华茂如新美的制冷精品专卖店,北京市,010-69136266,美的
2019-09-09,坨头路与阎河路交叉口西北200米,房山区,北京市,116.032419,39.772621,星海电器,北京市,010-80379327,美的
2019-09-09,凤德路和柴小路的交叉口附近,通州区,北京市,116.775766,39.637596,兴达电器(柴小路店),北京市,010-80512210,美的
2019-09-09,百子湾永辉超市地下一层,朝阳区,北京市,116.497556,39.901357,美的空调售后服务,北京市,无,美的
2019-09-09,马甸南村10号楼102房间,西城区,北京市,116.375750,39.967562,美的售后,北京市,无,美的
2019-09-09,青春路丙2号,怀柔区,北京市,116.631984,40.310410,美的售后,北京市,无,美的
2019-09-09,徐辛庄大庞村190号佳通轮胎旁,通州区,北京市,116.707615,39.987284,美的售后,北京市,无,美的
2019-09-09,新西广街与温南路交叉口东南50米,昌平区,北京市,116.123742,40.234171,世纪晨宇电器商城,北京市,010-89795849,美的
2019-09-09,广安门内大街202号牛街路口大中电器二层,西城区,北京市,116.362979,39.888764,美的空调冰箱洗衣机服务中心,北京市,无,美的
2019-09-09,安定门内大街48号,东城区,北京市,116.404565,39.948019,美的空调冰箱洗衣机服务中心,北京市,无,美的
2019-09-09,黄村东大街兴政东里17号楼B1层,大兴区,北京市,116.341653,39.731606,黄村美的售后,北京市,无,美的
2019-09-09,海淀南路15号楼8门(苏州街地铁站西北角),海淀区,北京市,116.304661,39.976106,美的星级服务站(北京苏州街地区站),北京市,4008899315,美的
2019-09-09,广安门桥往南50米南线阁5号院附近,西城区,北京市,116.351926,39.889156,美的空调清洗保养服务,北京市,无,美的
2019-09-09,乔庄路91号荞馨园49号楼412,通州区,北京市,116.692408,39.896871,美的维修部,北京市,无,美的
2019-09-09,地安门西大街38号,西城区,北京市,116.378800,39.932640,美的空调北京售后中心,北京市,无,美的
2019-09-09,安慧里12号(三区),朝阳区,北京市,116.409370,39.993298,美的中央空调厂家保养修理站,北京市,无,美的
2019-09-09,皂君庙斜街37号,海淀区,北京市,116.339027,39.958858,北京美的空调售后维修中心,北京市,无,美的
2019-09-09,张家湾镇皇木厂东二区78号停车场对面,通州区,北京市,116.708926,39.861865,美的客户服务中心,北京市,无,美的
2019-09-09,崇文门南花市大街73号,东城区,北京市,116.427408,39.893970,美的空调柜机移机修理公司,北京市,无,美的
2019-09-09,上庄家园西路美的空调售后维修服务站,海淀区,北京市,116.215415,40.099487,美的空调售后维修服务站,北京市,17310373515,美的
2019-09-09,拱辰西里北100米,房山区,北京市,116.140008,39.738999,苏泊尔利仁美的莱克售后,北京市,010-89352991,美的
2019-09-09,北七家镇宏福苑75号楼底商,昌平区,北京市,116.363874,40.115361,美的宏福苑小区店,北京市,无,美的
2019-09-09,樊羊路73号,丰台区,北京市,116.312652,39.821512,美的空调冰箱洗衣机服务中心,北京市,无,美的
2019-09-09,,海淀区,北京市,116.364701,40.032656,美的延庆区煤改电售后服务中心,北京市,无,美的
2019-09-09,,丰台区,北京市,116.147644,39.812040,美的丰台区煤改电售后服务中心,北京市,无,美的
2019-09-09,什坊小街太平桥大街84号,西城区,北京市,116.365205,39.916155,美的空调维修加氟清洗中心,北京市,无,美的
2019-09-09,良乡西潞南大街9号,房山区,北京市,116.136378,39.727713,北京良乡美的空调专卖店(装修中),北京市,010-69373086,美的
2019-09-09,韩城桥路,津南区,天津市,117.374756,38.996226,美的,天津市,无,美的
2019-09-09,情景大道西100米,东丽区,天津市,117.491423,39.181348,美的,天津市,无,美的
2019-09-09,花园里二段二经路二号,滨海新区,天津市,117.790757,39.242144,美的,天津市,无,美的
2019-09-09,城王路东50米,武清区,天津市,116.824418,39.575226,美的,天津市,无,美的
2019-09-09,沙庄路与王河支路交叉口南150米,武清区,天津市,116.955737,39.621695,美的,天津市,无,美的
2019-09-09,津榆公路南150米,宁河区,天津市,117.467572,39.340338,美的,天津市,15522801018,美的
2019-09-09,咸水沽镇鑫华商场二楼,津南区,天津市,117.382807,38.984926,美的,天津市,无,美的
2019-09-09,大寺镇谊龙花园底商,西青区,天津市,117.216631,39.012319,美的(大寺专卖店),天津市,022-28336655,美的
2019-09-09,商业街N23,宁河区,天津市,117.468392,39.339155,美的(no.津z0234),天津市,无,美的
2019-09-09,东风北路16号东90米,滨海新区,天津市,117.813070,39.264137,美的(东风路),天津市,无,美的
2019-09-09,花园路326号,滨海新区,天津市,117.505542,38.724257,美的(天津昊博专卖店),天津市,无,美的
2019-09-09,世纪大道118号苏宁电器,滨海新区,天津市,117.456715,38.845103,美的(滨海弘大旗舰店),天津市,无,美的
2019-09-09,渔阳镇人民东路家乐电器城东50米,蓟州区,天津市,117.427917,40.040881,美的(同正专卖店),天津市,无,美的
2019-09-09,京福公路与边家胡同交叉口西100米,静海区,天津市,116.922341,38.712895,美的(翔瑞专卖店),天津市,无,美的
2019-09-09,津塘路427号红星美凯龙(东丽店)F1层A8129,东丽区,天津市,117.360977,39.081178,美的(红星美凯龙东丽店),天津市,无,美的
2019-09-09,蓟州区上仓镇仓桑公路津围路交口西行128米路北,蓟州区,天津市,117.400020,39.906832,美的(锦傲翔专卖店),天津市,无,美的
2019-09-09,东营路与津塘公路交叉口东南150米,东丽区,天津市,117.401770,39.064289,美的(津塘公路店),天津市,无,美的
2019-09-09,秀川路阳光壹佰国际新城西园1-5号,南开区,天津市,117.149645,39.071591,美的(天津亿帆专卖店),天津市,022-83957780,美的
2019-09-09,塘沽百货大楼附近,滨海新区,天津市,117.670559,39.015881,美的(天乐昌旗舰店),天津市,022-66866585,美的
2019-09-09,梅厂镇津围公路西侧世纪华联超市旁,武清区,天津市,117.199644,39.369201,美的(俊明专卖店),天津市,无,美的
2019-09-09,普惠道与津歧公路交叉口东150米,津南区,天津市,117.402609,38.952413,美的(津南美格品牌专卖店),天津市,无,美的
2019-09-09,宝芦公路八门城医院西侧5米,宝坻区,天津市,117.607576,39.579017,美的(焕鑫专卖店),天津市,022-82540518,美的
2019-09-09,中塘镇中港路1号楼底商,滨海新区,天津市,117.384675,38.868388,美的(中塘医院西北),天津市,无,美的
2019-09-09,栖凤南路与津淄公路交叉口东北150米,滨海新区,天津市,117.293732,38.820971,美的(大港北台专卖店),天津市,022-63131150;022-60767787,美的
2019-09-09,昆仑路铁城公寓2号楼底商,东丽区,天津市,117.276158,39.122663,美的(居然之家津昆桥店),天津市,13516293868,美的
2019-09-09,来源道附近,武清区,天津市,117.065222,39.388132,美的(天津武清名瑞专卖店),天津市,022-29325916,美的
2019-09-09,刘东路与杨北公路交叉口东50米,北辰区,天津市,117.354286,39.253886,美的(北辰天意专卖店),天津市,022-86844661,美的
2019-09-09,团静路附近,静海区,天津市,117.008272,38.895296,美的(鑫喜源品牌专卖店),天津市,无,美的
2019-09-09,蓟州区渔阳镇渔阳南路32号,蓟州区,天津市,117.407966,40.040735,美的(运昌专卖店),天津市,无,美的
2019-09-09,八里台,津南区,天津市,117.356939,38.899829,美的(星耀五洲旗舰专卖店),天津市,无,美的
2019-09-09,黑牛城道128号体北国美2楼,河西区,天津市,117.191570,39.071411,天津美的热水器服务中心(河西店),天津市,无,美的
2019-09-09,世纪大道106号港明里11号楼,滨海新区,天津市,117.457662,38.844821,大港美的(旗舰店),天津市,022-63390279;022-63385918;13022209678,美的
2019-09-09,双港镇月星家居2楼,津南区,天津市,117.319074,39.043892,美的空调,天津市,无,美的
2019-09-09,知行道16附近,武清区,天津市,117.082666,39.318302,美的空调,天津市,无,美的
2019-09-09,大丰路美汇家居装饰城二楼,滨海新区,天津市,117.826836,39.247732,美的专卖,天津市,无,美的
2019-09-09,华北陶瓷三号路C3G馆二楼,滨海新区,天津市,117.593591,39.029135,美的专卖,天津市,4009262811;18622515833,美的
2019-09-09,京津公路与八间房路交叉口西北150米,武清区,天津市,117.017230,39.480307,美的中央空调,天津市,18902011569,美的
2019-09-09,泉州路欣茂园底商6号,武清区,天津市,117.058635,39.383769,美的中央空调,天津市,022-29325916,美的
2019-09-09,双港镇仁永名居1-108号,津南区,天津市,117.317067,39.045115,美的空调,天津市,022-28592177,美的
2019-09-09,柳口路109号附近,西青区,天津市,117.017892,39.118546,美的厨房,天津市,15022655338,美的
2019-09-09,河北路美家装饰城二楼,滨海新区,天津市,117.664760,39.030227,美的电器,天津市,无,美的
2019-09-09,沙高路(康宏家电内),武清区,天津市,116.884953,39.634795,美的家电,天津市,022-22221360,美的
2019-09-09,双街镇庄园北道47号(家全店)旁,北辰区,天津市,117.103273,39.269845,柴楼美的专卖店,天津市,无,美的
2019-09-09,咸水沽镇南环路88号京开国际建材家居广场4号门,津南区,天津市,117.409350,38.976967,美的专卖店,天津市,13920853574,美的
2019-09-09,汉沽街道海尚豪庭,滨海新区,天津市,117.807354,39.257977,汉沽美的(旗舰店),天津市,022-67253898,美的
2019-09-09,宁江道,河西区,天津市,117.201425,39.072044,美的整体吊顶,天津市,13752256865;13752781692,美的
2019-09-09,东环路38号西南70米,宝坻区,天津市,117.327220,39.719884,艺昌美的,天津市,无,美的
2019-09-09,梨双公路与津沽公路交叉口,津南区,天津市,117.326615,39.038392,美的体验店,天津市,无,美的
2019-09-09,登发装饰基地3号门,河西区,天津市,117.231052,39.090343,美的整体吊顶,天津市,18722261397,美的
2019-09-09,复康路北200米,西青区,天津市,117.127041,39.099079,美的整体吊顶,天津市,无,美的
2019-09-09,双港镇第五大街福港园6号楼底商B20-105,津南区,天津市,117.315899,39.038008,美的中央空调,天津市,无,美的
2019-09-09,太沙路南50米,滨海新区,天津市,117.329109,38.619456,美的冰箱,天津市,无,美的
2019-09-09,红旗北路西50米,红桥区,天津市,117.150747,39.159059,美的LED照明,天津市,无,美的
2019-09-09,解放路588号苏宁易购一楼,滨海新区,天津市,117.667941,39.017505,美的灶具,天津市,无,美的
2019-09-09,增光道12附近,河北区,天津市,117.237758,39.165533,美的整体吊顶,天津市,无,美的
2019-09-09,开发区三大街洞庭路88号华馨园底商,滨海新区,天津市,117.683741,39.039908,美的空调(开发区专卖店),天津市,无,美的
2019-09-09,围堤道中豪世纪花园底商,河西区,天津市,117.219060,39.094810,围堤道美的(旗舰专卖店),天津市,022-28220177,美的
2019-09-09,王串场街道金钟河大街春厦里1号楼,河北区,天津市,117.224172,39.158192,华生美的专卖,天津市,无,美的
2019-09-09,万柳村大街56号(迈凯伦4S店旁),河北区,天津市,117.213945,39.159576,兴业美的旗舰店,天津市,无,美的
2019-09-09,京福公路与静文公路交叉口北200米,静海区,天津市,116.931773,38.939911,美的照明(静海昊兴专卖店),天津市,无,美的
2019-09-09,光明大道辛8、9号苏泊尔生活馆北邻,滨海新区,天津市,117.497691,38.735298,美的空调(大港倾心专卖店),天津市,022-25918735,美的
2019-09-09,205国道,静海区,天津市,117.149460,38.637559,美的空调(静海凤江品牌专卖店),天津市,022-68531056,美的
2019-09-09,陈塘庄,河西区,天津市,117.262590,39.063396,美的电器(小海地专卖店),天津市,无,美的
2019-09-09,古林街永明路永明里小区门口对面,滨海新区,天津市,117.482903,38.839472,美的专卖店(大港永明路店),天津市,无,美的
2019-09-09,津滨大道爱琴海购物广场二楼苏宁易购,河东区,天津市,117.254463,39.122021,美的热水器服务中心,天津市,无,美的
2019-09-09,华北城E30附近,武清区,天津市,117.098377,39.324396,美的热水器服务中心,天津市,无,美的
2019-09-09,成林道银河装饰城B区二排8号,东丽区,天津市,117.294980,39.135235,美的厨卫专卖店,天津市,022-84737918;13672128615;13132150991,美的
2019-09-09,小站镇小站医院南50米,津南区,天津市,117.430170,38.914630,天津彩虹美的旗舰店,天津市,15332187755,美的
2019-09-09,东城北路附近,宝坻区,天津市,117.313347,39.735346,美的电器专卖,天津市,无,美的
2019-09-09,南北大街新城小区56门底商,河西区,天津市,117.237921,39.089167,河西美的专卖店,天津市,无,美的
2019-09-09,宏园北街与津围公路交叉口西南50米,北辰区,天津市,117.221589,39.190014,美的电器专卖,天津市,无,美的
2019-09-09,咸水沽镇耀华新天地蓝区113,津南区,天津市,117.385768,38.987160,高富美的店,天津市,无,美的
2019-09-09,泰兴南路临池里8号楼对面,河东区,天津市,117.252124,39.140297,美的商用净水专卖,天津市,无,美的
2019-09-09,宝山道1265号欧美小镇底商正东方向41米,滨海新区,天津市,117.672700,39.053447,美的中央空调(第五大街),天津市,022-25214861,美的
2019-09-09,福建西路(中国银行旁),滨海新区,天津市,117.644203,39.023395,美的中央空调(福建西路),天津市,022-66282438,美的
2019-09-09,美的空调售后维修小站镇迎新商贸街88号,津南区,天津市,117.436959,38.898658,美的中央空调(M-HOME专业店),天津市,无,美的
2019-09-09,西于庄街道西于庄增产大街129号,红桥区,天津市,117.163371,39.165822,美的日用家电(昊跃专卖店),天津市,13920216743,美的
2019-09-09,红旗路9号附近,津南区,天津市,117.383181,38.984778,美的九阳电器,天津市,无,美的
2019-09-09,毕杨公路16附近,静海区,天津市,117.051240,38.945261,美的日用家电(利兆丰源专卖店),天津市,13072257207,美的
2019-09-09,校园街与静文公路交叉口东北50米,静海区,天津市,116.759575,38.933525,美的日用家电(永顺乐专卖店),天津市,022-28837899,美的
2019-09-09,常州道街道红星路69号国美电器美的热水器,河东区,天津市,117.236020,39.145847,美的热水器,天津市,无,美的
2019-09-09,欣园中街,滨海新区,天津市,117.673561,39.031140,美的专卖店,天津市,无,美的
2019-09-09,芦台镇宁新花园六地块603底商,宁河区,天津市,117.803801,39.341493,宁河永奥美的旗舰店,天津市,022-60978855;13612159995,美的
2019-09-09,微山路165号,河西区,天津市,117.266267,39.052972,美的净水机(微山路店),天津市,022-88175960,美的
2019-09-09,津芦南线附近,宁河区,天津市,117.787303,39.331578,美的净水机,天津市,无,美的
2019-09-09,上海道国美电器,滨海新区,天津市,117.663967,39.016626,美的净水器,天津市,无,美的
2019-09-09,沿庄镇团大线天津农商银行西,静海区,天津市,116.850583,38.815593,美的专卖店,天津市,无,美的
2019-09-09,紫江馨苑20号楼5号,津南区,天津市,117.397866,38.986655,苏美乐美的(旗舰店),天津市,022-59846887,美的
2019-09-09,荣发装饰城A区12号,北辰区,天津市,117.124472,39.234534,美的专卖店,天津市,无,美的
2019-09-09,增产大街129号,红桥区,天津市,117.163762,39.165725,美的净水机(增产大街),天津市,无,美的
2019-09-09,廊良公路附近,武清区,天津市,116.869461,39.523427,美的厨具洁具(廊良公路),天津市,13820498354,美的
2019-09-09,围堤道122号,河西区,天津市,117.217303,39.094918,嘉德诚鸿美的(旗舰店),天津市,022-28220177,美的
2019-09-09,静海镇居美家居二楼,静海区,天津市,116.934952,38.938641,美的整体吊顶厨房电器,天津市,无,美的
2019-09-09,天津河东区美的空调售后维修中心泰昌路62号,河东区,天津市,117.257766,39.123257,美的空调服务中心(隆达店),天津市,18002065723,美的
2019-09-09,精武镇荣华道永红村公交站西50米,西青区,天津市,117.099090,39.034087,美的空调服务中心(西青店),天津市,15620309093,美的
2019-09-09,南北大街224号,河西区,天津市,117.237999,39.089162,美的空调服务中心(河西店),天津市,无,美的
2019-09-09,京福公路附近,武清区,天津市,116.850444,39.442653,美的日用家电(康乾万利)专卖店,天津市,022-29475922;18902010039,美的
2019-09-09,芥园西道普嘉乐装饰城外围A区9号,南开区,天津市,117.112442,39.134488,美的厨房和热水,天津市,无,美的
2019-09-09,冶金路与引黄路交叉口东南50米,南开区,天津市,117.131171,39.138910,美的空调服务中心(冶金路),天津市,无,美的
2019-09-09,金钟路71号,河北区,天津市,117.204604,39.155039,美的空调服务中心(河北店),天津市,无,美的
2019-09-09,学府街道鞍山西道445号,南开区,天津市,117.151077,39.116211,美的空调服务中心(南开店),天津市,无,美的
2019-09-09,双港镇第五大街福港园6号楼B20-105,津南区,天津市,117.315901,39.037987,美的空调服务中心(海河湾村路),天津市,无,美的
2019-09-09,廊良公路北50米,武清区,天津市,116.884036,39.525373,武清光祥美的(武清光祥专卖店),天津市,022-29460077,美的
2019-09-09,溪华苑商业区9门,西青区,天津市,117.069425,39.121379,美的空调服务中心(永群晟翔旗舰店),天津市,无,美的
2019-09-09,华明商贸中心东区9,东丽区,天津市,117.368917,39.173004,美的空调服务中心(映春路),天津市,022-58205677,美的
2019-09-09,先锋路附近,河东区,天津市,117.299113,39.087356,美的空调服务中心(河东区店),天津市,无,美的
2019-09-09,唐官屯镇京福公路30号,静海区,天津市,116.931989,38.716636,文浩祥美的旗舰店,天津市,022-28877372;022-28878372,美的
2019-09-09,延安路6号,南开区,天津市,117.112659,39.134647,美的空调服务中心(天津尚丰智星旗舰店),天津市,无,美的
2019-09-09,大毕庄镇大毕庄村新村北里1号楼4门底商,东丽区,天津市,117.267327,39.200755,顺泰达美的旗舰店,天津市,022-26791299,美的
2019-09-09,津围公路附近,北辰区,天津市,117.237623,39.253800,美的空调服务中心(北辰店),天津市,无,美的
2019-09-09,中北大道溪华苑10号底商美的旗舰店,西青区,天津市,117.069347,39.121587,天津永群晟翔美的旗舰店,天津市,022-27910020,美的
2019-09-09,微山路165号,河西区,天津市,117.266191,39.053103,天津盛宾恩达美的旗舰店,天津市,022-88175960,美的
2019-09-09,,宝坻区,天津市,117.328860,39.724874,美的慧生活,天津市,无,美的
2019-09-09,,蓟州区,天津市,117.197858,39.967093,金乐享美的专卖店,天津市,无,美的
2019-09-09,古林街道港东四道港东新城装饰城三楼19号,滨海新区,天津市,117.494074,38.860685,美的慧生活,天津市,15510947927,美的
2019-09-09,围堤道与广东路交叉口北50米,河西区,天津市,117.217309,39.095147,美的慧生活,天津市,无,美的
2019-09-09,曙光路20号附近,河北区,天津市,117.215713,39.181965,美的慧生活,天津市,无,美的
2019-09-09,人民西路北侧县总工会西侧,蓟州区,天津市,117.410264,40.040844,美的慧生活,天津市,022-82821515,美的
2019-09-09,增光道与重光路交汇处,河北区,天津市,117.235085,39.163765,美的慧生活,天津市,13821386667,美的
2019-09-09,,宁河区,天津市,117.809977,39.313383,美的顾客服务旗舰店,天津市,022-69199896,美的
2019-09-09,宜兴埠镇高新大道长喜商贸一条街,北辰区,天津市,117.231827,39.220983,格力美的空调专卖,天津市,无,美的
2019-09-09,建设南路214-217号附近,滨海新区,天津市,117.820542,39.237244,友谊电器美的体验中心,天津市,15022612590,美的
2019-09-09,人民西大街22号,蓟州区,天津市,117.410268,40.040838,神龙美的旗舰店,天津市,022-82821515,美的
2019-09-09,杨六公路与腾飞路交叉口西北50米,武清区,天津市,117.135184,39.415774,武清双喜美的专卖店,天津市,无,美的
2019-09-09,郝各庄镇相彩电器,宝坻区,天津市,117.318122,39.631932,相彩电器美的专卖,天津市,无,美的
2019-09-09,独流镇福运花园,静海区,天津市,116.916236,39.022212,振起美的专卖店,天津市,无,美的
2019-09-09,纬路国美电器117号售后维修站,河东区,天津市,117.228451,39.117057,天津美的热水器服务中心,天津市,无,美的
2019-09-09,贻港城1栋11号车库,滨海新区,天津市,117.631577,39.034184,美的小天鹅特约,天津市,无,美的
2019-09-09,南纬三路与胜利大街交叉口西南150米,静海区,天津市,116.922572,38.920416,美的净水生活体验馆,天津市,无,美的
2019-09-09,开发区津塘公路5号桥四合庄农贸市场,东丽区,天津市,117.368481,39.077692,美的专卖店九鼎和家电,天津市,无,美的
2019-09-09,铁东路街道宜白路强宜里2号楼,河北区,天津市,117.206571,39.190454,美的空调服务中心北辰店,天津市,无,美的
2019-09-09,十一经路与九纬路交口三联大厦7层,河东区,天津市,117.228189,39.124719,美的生活电器服务中心,天津市,无,美的
2019-09-09,龙悦路97号底商售后维修站,红桥区,天津市,117.142676,39.150339,美的中央空调专业服务店,天津市,无,美的
2019-09-09,杨柳青镇新华道122号国美电器,西青区,天津市,117.019071,39.140321,美的空调服务中心,天津市,无,美的
2019-09-09,岷江路15号附近,河北区,天津市,117.251659,39.162892,天津标盛美的空调服务公司,天津市,无,美的
2019-09-09,前进路与津淄公路交叉口东南100米,滨海新区,天津市,117.160511,38.752064,美的家用空调专卖店,天津市,无,美的
2019-09-09,中心街与建华北路交叉口西北20米,武清区,天津市,116.900548,39.186990,美的日用家电(明玺)专卖店,天津市,022-29518024,美的
2019-09-09,港明街79号,滨海新区,天津市,117.455792,38.845109,美的热水器专卖,天津市,13920552102;18630961088,美的
2019-09-09,建设南路302号,滨海新区,天津市,117.820539,39.234519,正新电器商行美的专卖店,天津市,022-67964448,美的
2019-09-09,南付营路与津歧公路交叉口南150米,津南区,天津市,117.435104,38.908292,小站顺利美的专卖店,天津市,无,美的
2019-09-09,京福公路与津霸支路交叉口东北200米附近,北辰区,天津市,117.033513,39.199049,美的日用家电专卖店(津霸支路),天津市,13920764181,美的
2019-09-09,津围线与北仓延长路交口北260米路西,北辰区,天津市,117.234681,39.247869,久阔美的专卖店,天津市,022-26998405,美的
2019-09-09,汉茶路西50米,滨海新区,天津市,117.764784,39.232019,天津市美的整体厨卫专卖店,天津市,无,美的
2019-09-09,新华路3号美的小天鹅洗衣机维修站天津百货大楼二楼,和平区,天津市,117.193245,39.129677,美的小天鹅电器服务中心,天津市,无,美的
2019-09-09,广开六马路与长江道交叉口西50米,南开区,天津市,117.158472,39.128906,美的中央空调服务网点(长江道),天津市,无,美的
2019-09-09,宏园北街与津围公路交叉口西南50米,北辰区,天津市,117.221557,39.190098,美的电器海信电视海尔空调专卖,天津市,无,美的
2019-09-09,解放路588苏宁一楼,滨海新区,天津市,117.667844,39.017074,苏宁易购美的热水器,天津市,无,美的
2019-09-09,世纪大道108号金港购物中心,滨海新区,天津市,117.455805,38.844968,大港鸿源利民美的专卖,天津市,13682194064,美的
2019-09-09,津塘路231附近,东丽区,天津市,117.318981,39.089952,鑫盛龙光美的专卖店,天津市,无,美的
2019-09-09,大沽南路麦收国际公寓,河西区,天津市,117.224350,39.094883,美的家用空调服务中心(河西店),天津市,无,美的
2019-09-09,向阳路街道芥园西道与密云里交口宜君西里1-3,南开区,天津市,117.122400,39.145016,美的售后服务(南开店),天津市,022-83552723,美的
2019-09-09,南海路79附近,滨海新区,天津市,117.705156,39.040617,格力中央空调&美的中央空调服务站,天津市,无,美的
2019-09-09,茶淀镇河西四经路133号新奥花园,滨海新区,天津市,117.784864,39.238833,新澳花园美的专卖店,天津市,无,美的
2019-09-09,蓟州区渔阳镇二经路二号,蓟州区,天津市,117.422942,40.050178,蓟县新华农美的品牌专卖店,天津市,022-29183000,美的
2019-09-09,天津市河西区珠江道88号,河西区,天津市,117.257640,39.062913,midea美的空调服务中心(珠江道店),天津市,无,美的
2019-09-09,大同道1号,和平区,天津市,117.211652,39.126506,midea美的空调服务中心(和平区店),天津市,无,美的
2019-09-09,六纬路137号,河东区,天津市,117.232379,39.112776,六纬路美的旗舰店,天津市,022-84111596,美的
2019-09-09,东方红路马站底商1-3号,静海区,天津市,116.936188,38.931531,德利鑫美的旗舰店,天津市,022-28932315,美的
2019-09-09,青沙路西150米,西青区,天津市,116.974202,39.086638,睿科常胜美的品牌专卖店二店,天津市,无,美的
2019-09-09,葛沽镇福康里2号楼3号,津南区,天津市,117.510993,38.988528,富昌永美的慧生活,天津市,13102061365,美的
2019-09-09,杨王路西50米,武清区,天津市,116.906885,39.181777,武清明玺美的专卖店,天津市,无,美的
2019-09-09,静海镇范庄子蔬菜市场对面,静海区,天津市,116.929392,38.906660,美的售后,天津市,无,美的
2019-09-09,商业道幸福商业广场b5,宁河区,天津市,117.827743,39.323535,美的售后,天津市,无,美的
2019-09-09,第六城香江广场前进道4号,武清区,天津市,117.065677,39.356869,美的电器批发零售,天津市,无,美的
2019-09-09,万柳村大街出口与新泰路交叉口西北50米,河北区,天津市,117.213893,39.159694,美的家用空调服务中心(河北店),天津市,无,美的
2019-09-09,万新村铁城公寓2号楼底商,东丽区,天津市,117.273585,39.125402,东丽浩宇美的专卖店(昆仑路辅路),天津市,无,美的
2019-09-09,六纬路(苏宁电器南),河东区,天津市,117.232480,39.112676,美的空调服务网点(六纬路店),天津市,无,美的
2019-09-09,美的电器售后维修天津市南开区红旗路214号1层苏宁易购(红旗路店),南开区,天津市,117.148593,39.117865,美的空调冰箱热水器洗衣机特约服务中心,天津市,无,美的
2019-09-09,宾水道13号,河西区,天津市,117.192377,39.081592,midea美的中央空调服务中心(河西区店),天津市,无,美的
2019-09-09,六纬路66号2号楼2门底商,河东区,天津市,117.229638,39.115660,美的中央空调服务中心(河东区店),天津市,无,美的
2019-09-09,六纬路121号底商,河东区,天津市,117.229429,39.115808,美的中央空调河东服务站(六纬路),天津市,022-24130780,美的
2019-09-09,独静路东100米,静海区,天津市,116.902234,39.018882,大拇哥美的样机专卖官方授权全国联保(静海店),天津市,无,美的
2019-09-09,津歧公路东150米,津南区,天津市,117.379693,38.992502,美的售后服务,天津市,无,美的
2019-09-09,静海镇联盟大街与南纬一路交口,静海区,天津市,116.928842,38.927558,美的售后维修,天津市,无,美的
2019-09-09,咸水沽镇普红馨苑9号楼底商5门,津南区,天津市,117.381283,38.983243,美的&苏泊尔电器客户服务中心(南华路),天津市,022-58052930,美的
2019-09-09,增产大街与西于庄后大道交叉口西100米,红桥区,天津市,117.163694,39.165729,美的维修部,天津市,无,美的
2019-09-09,红星路164号,河东区,天津市,117.237788,39.138214,美的维修部,天津市,无,美的
2019-09-09,京福公路与津霸支路交叉口东北200米,北辰区,天津市,117.033458,39.199113,创维电视(美的),天津市,无,美的
2019-09-09,平安路与药王庙前大街交叉口东100米,西青区,天津市,117.004335,39.136207,美的星级服务站,天津市,022-27391429,美的
2019-09-09,密云一支路19号附近,西青区,天津市,117.111130,39.127733,美的生活电器顾客服务中心,天津市,无,美的
2019-09-09,红星路180号院内左手,河东区,天津市,117.239475,39.136867,美的生活电器顾客服务中心,天津市,022-27210053,美的
2019-09-09,鞍山西道338号百脑汇科技大厦2508室,南开区,天津市,117.157712,39.115630,美的洗衣机冰箱空调厂家修理,天津市,无,美的
2019-09-09,平江里3号,河西区,天津市,117.253977,39.061602,天津美的中央空调售后服务中心,天津市,无,美的
2019-09-09,昆仑路与津昆桥交叉口东200米,东丽区,天津市,117.276634,39.120944,天津美的空调充氟服务中心,天津市,无,美的
2019-09-09,玉台春酒店西南90米(胜利大街西),静海区,天津市,116.923379,38.921313,静海,天津市,18020057788,美的
2019-09-09,邦均镇,蓟州区,天津市,117.266225,39.990276,小谭电器,天津市,无,美的
2019-09-09,大四镇芦北路22号渔夫码头休闲广场F1层,西青区,天津市,117.230597,38.990781,美缔可(渔夫码头休闲广场),天津市,无,美的
2019-09-09,建设路东段英大装饰城西,宝坻区,天津市,117.324261,39.717198,Midea,天津市,无,美的
2019-09-09,建设南大街179号东岗怡园34号楼底商,裕华区,石家庄市,114.512863,38.020083,美的,河北省,0311-86031822,美的
2019-09-09,西二环北路与西二环北路入口交叉口东100米,桥西区,石家庄市,114.437323,38.044873,美的(石家庄晶木旗舰店),河北省,0311-80838033,美的
2019-09-09,平安北大街与园明路交口路西1楼门脸,长安区,石家庄市,114.501102,38.048835,美的(盛世金鑫旗舰店),河北省,0311-85888315;15003318365,美的
2019-09-09,石铜路371附近,桥西区,石家庄市,114.444532,38.002647,美的(汇锦路),河北省,无,美的
2019-09-09,新开路北头,行唐县,石家庄市,114.553012,38.438789,美的(行唐专卖店),河北省,13180051238,美的
2019-09-09,红旗南大街与永红路西行500米安联青年城西门,鹿泉区,石家庄市,114.449682,37.988723,美的,河北省,无,美的
2019-09-09,新宁街与镇宁路交叉口东南50米,鹿泉区,石家庄市,114.325787,38.088321,美的(鹿泉人民旗舰店),河北省,0311-82019896,美的
2019-09-09,阿里山大街东150米,藁城区,石家庄市,114.672509,38.018679,美的,河北省,无,美的
2019-09-09,中山东路188号北国商城六楼,长安区,石家庄市,114.510779,38.042450,美的,河北省,无,美的
2019-09-09,春天广场5层,裕华区,石家庄市,114.561558,38.016291,美的(东岗路店),河北省,0311-85051753,美的
2019-09-09,县标北街与柏坡东路交叉口日卡拉酒店2层,平山县,石家庄市,114.218491,38.259567,美的(兴山商厦店),河北省,无,美的
2019-09-09,槐阳镇蟠龙路99号,元氏县,石家庄市,114.529994,37.758461,美的(元氏大恒旗舰店),河北省,15511608868,美的
2019-09-09,凤中路196号,高邑县,石家庄市,114.610495,37.603798,美的(高邑金海旗舰店),河北省,无,美的
2019-09-09,龙州镇玉城东大街43号,行唐县,石家庄市,114.560151,38.438342,美的(香港路店),河北省,无,美的
2019-09-09,晋州镇中兴街463号,晋州市,石家庄市,115.043966,38.025272,美的(旗舰专卖店),河北省,0311-84321134,美的
2019-09-09,裕泰路与008县道交叉口东150米,栾城区,石家庄市,114.663705,37.901540,美的,河北省,无,美的
2019-09-09,朝阳南路56号附近,辛集市,石家庄市,115.207329,37.915113,美的,河北省,无,美的
2019-09-09,中兴路296号,晋州市,石家庄市,115.041390,38.025874,美的(晋州中大旗舰店),河北省,0311-84327603,美的
2019-09-09,裕华西路128号益友购物中心2F层,桥西区,石家庄市,114.450228,38.034063,美的(益友购物中心店),河北省,0311-86250670,美的
2019-09-09,平山镇建材街与平光路交差口西行30米路北,平山县,石家庄市,114.204861,38.250519,美的,河北省,无,美的
2019-09-09,柳成路与红星街交叉口东南150米,长安区,石家庄市,114.495473,38.095653,美的(肖家营专卖店),河北省,13473119857,美的
2019-09-09,新区东上泽森通建材市场,正定县,石家庄市,114.626555,38.157158,美的,河北省,无,美的
2019-09-09,205省道东50米,井陉县,石家庄市,114.142326,38.151957,美的,河北省,无,美的
2019-09-09,昌盛大街(中国信合对面),鹿泉区,石家庄市,114.371727,38.062436,美的(天成专卖店),河北省,0311-82198899,美的
2019-09-09,永安路与264乡道交叉口西100米,晋州市,石家庄市,115.149813,38.016083,美的,河北省,15030133930,美的
2019-09-09,淮安东路105号怀特商业广场B1,裕华区,石家庄市,114.525426,38.022713,美的(淮安东路店),河北省,无,美的
2019-09-09,口头镇旧市场东行200米路北,行唐县,石家庄市,114.396833,38.603363,美的,河北省,无,美的
2019-09-09,石铜路铜冶二中旁,鹿泉区,石家庄市,114.424578,37.987832,美的,河北省,15533985304,美的
2019-09-09,迎宾大道南50米,晋州市,石家庄市,115.091844,38.050676,美的,河北省,无,美的
2019-09-09,中山街道中山西路77号苏宁易购四楼,新华区,石家庄市,114.488068,38.043955,美的(中山西路店),河北省,无,美的
2019-09-09,恒山西路106号正定北国商城2层,正定县,石家庄市,114.559471,38.152752,美的(正定北国商城店),河北省,无,美的
2019-09-09,天长镇北关大街国税局天长税务分局,井陉县,石家庄市,114.026011,37.998726,美的(北关大街店),河北省,0311-82391257,美的
2019-09-09,振兴路49附近,灵寿县,石家庄市,114.107530,38.569180,美的,河北省,无,美的
2019-09-09,槐阳大街87号,元氏县,石家庄市,114.538785,37.754894,美的(元氏专卖店),河北省,无,美的
2019-09-09,胜利北街289号北国益庄购物中心4F层,长安区,石家庄市,114.516939,38.085740,美的(北国益庄购物中心),河北省,无,美的
2019-09-09,矿市街道中纬东路(世纪金宇西南),井陉矿区,石家庄市,114.066382,38.067130,美的(矿区专卖店),河北省,0311-82078796,美的
2019-09-09,东兴街与中山西路交叉口东150米,鹿泉区,石家庄市,114.388229,38.038068,美的(中山西路),河北省,无,美的
2019-09-09,蟠龙西路与421乡道交叉口北100米,元氏县,石家庄市,114.442173,37.805140,美的,河北省,13931164825,美的
2019-09-09,241省道与505乡道交叉口西北200米,平山县,石家庄市,114.094158,38.307476,美的,河北省,无,美的
2019-09-09,正定镇恒山南市场恒通街31号,正定县,石家庄市,114.557902,38.151232,美的(恒民街),河北省,0311-88785487;13383617021,美的
2019-09-09,中山东路与康乐街交叉口东150米,平山县,石家庄市,114.198351,38.257228,美的,河北省,13483167159,美的
2019-09-09,251乡道东50米,晋州市,石家庄市,115.021984,37.996122,美的,河北省,无,美的
2019-09-09,乡府路与204省道交叉口北150米,藁城区,石家庄市,114.743307,38.242912,美的,河北省,无,美的
2019-09-09,宜沙路与新宜街交叉口东100米,鹿泉区,石家庄市,114.285776,38.192531,美的,河北省,无,美的
2019-09-09,燕赵北大街160号,正定县,石家庄市,114.572859,38.166900,美的(燕赵北大街店),河北省,无,美的
2019-09-09,东营村人民大街,新华区,石家庄市,114.462868,38.117687,美的(东营专卖店),河北省,13832171226,美的
2019-09-09,中华北大街238号家乐福保龙仓,新华区,石家庄市,114.477418,38.072391,美的(信誉楼百货店),河北省,无,美的
2019-09-09,槐岭路东二环,裕华区,石家庄市,114.575246,38.026395,美的品牌店(石家庄裕华路站),河北省,无,美的
2019-09-09,藁城区果王线,藁城区,石家庄市,114.824971,37.887470,美的,河北省,无,美的
2019-09-09,中山东路739号北国商城3F层,长安区,石家庄市,114.575090,38.044470,美的(北国商城),河北省,无,美的
2019-09-09,赵州镇固城村,赵县,石家庄市,114.780489,37.730139,美的(柏林大街),河北省,无,美的
2019-09-09,裕华东路133号红星美凯龙2F层,长安区,石家庄市,114.540839,38.036882,美的(红星美凯龙),河北省,无,美的
2019-09-09,光明路与308国道交叉口北100米,栾城区,石家庄市,114.600626,37.940721,美的(冶河专卖),河北省,13803347779,美的
2019-09-09,开发区天山大街与学苑路交叉口东北角益新购物中心4F层,裕华区,石家庄市,114.610140,38.014158,美的(益新购物中心),河北省,无,美的
2019-09-09,403乡道与407乡道交叉口西南100米,元氏县,石家庄市,114.614242,37.721859,美的(元氏宋曹品牌专卖店),河北省,0311-84511811,美的
2019-09-09,新石街道新石南路与广平街交口南行100米路东,桥西区,石家庄市,114.474227,38.007017,美的电器(华安专卖店),河北省,无,美的
2019-09-09,晋州镇中兴路(旧市场对面),晋州市,石家庄市,115.013709,38.026820,美的(吉广店),河北省,无,美的
2019-09-09,光明北街1附近,无极县,石家庄市,114.973467,38.179146,美的(凯华专卖店),河北省,无,美的
2019-09-09,果王线附近,赵县,石家庄市,114.829128,37.803663,美的(果王线店),河北省,无,美的
2019-09-09,长寿街道育才街中医医院,新乐市,石家庄市,114.676950,38.359228,美的(育才街店),河北省,无,美的
2019-09-09,皇冠路北50米,赵县,石家庄市,114.720332,37.808147,美的(新寨店),河北省,无,美的
2019-09-09,大河路与富强大街交叉口北150米,鹿泉区,石家庄市,114.382289,38.135440,美的(富强大街),河北省,无,美的
2019-09-09,正定镇常山东路1号瑞天大厦2楼,正定县,石家庄市,114.571652,38.144200,美的(燕赵南大街),河北省,无,美的
2019-09-09,308国道东50米,赵县,石家庄市,114.823809,37.700398,美的(赵县王西章乡专卖店),河北省,无,美的
2019-09-09,万城大街与花园路交叉口东50米,高邑县,石家庄市,114.538482,37.633331,美的(万城形象店),河北省,13191867345,美的
2019-09-09,703乡道西50米,无极县,石家庄市,114.906233,38.179054,美的(东候坊专卖店),河北省,无,美的
2019-09-09,051县道附近,行唐县,石家庄市,114.454563,38.432190,美的(宏运专卖店),河北省,0311-82757490,美的
2019-09-09,藁贾街附近,藁城区,石家庄市,114.951775,37.871144,美的(藁贾街店),河北省,15373043090,美的
2019-09-09,承安镇358县道南50米,新乐市,石家庄市,114.874113,38.400413,美的(杜固专卖店),河北省,无,美的
2019-09-09,商品街62号,平山县,石家庄市,114.095217,38.255832,美的(商品街店),河北省,0311-85645030,美的
2019-09-09,衡阳大街张俊玲敬老院旁,行唐县,石家庄市,114.559482,38.432933,行唐美的(旗舰店),河北省,无,美的
2019-09-09,翟营大街389号苏宁电器一楼,长安区,石家庄市,114.543366,38.053614,美的旗舰店,河北省,0311-88118809,美的
2019-09-09,汇丰路8号西美花街负北国超市,桥西区,石家庄市,114.460319,37.993877,美的家电,河北省,无,美的
2019-09-09,中华北大街与北二环交叉口誉宏装饰城B区,新华区,石家庄市,114.474960,38.081954,美的专卖,河北省,17731185558,美的
2019-09-09,兴安西路与寿康大街交叉口东100米,栾城区,石家庄市,114.627173,37.977968,美的空调,河北省,无,美的
2019-09-09,恒泰家园南行100米永和家电维修部,正定县,石家庄市,114.563904,38.156032,美的售后,河北省,无,美的
2019-09-09,警安路西头大安舍小学对过,新华区,石家庄市,114.425225,38.091642,美的厨卫,河北省,无,美的
2019-09-09,联盟路柏林怡园底商北3号,新华区,石家庄市,114.487953,38.081067,美的中央空调(新华店),河北省,0311-8770028;17732124518,美的
2019-09-09,建设北路与307国道交叉口东北150米,井陉县,石家庄市,114.141240,38.043176,井陉美的旗舰店,河北省,0311-82036819,美的
2019-09-09,栾城镇宏远路76号,栾城区,石家庄市,114.646413,37.896560,美的售后店,河北省,无,美的
2019-09-09,东岗路雅清街交口(靠近佳友酒业),裕华区,石家庄市,114.567026,38.015474,美的中央空调,河北省,0311-85051753,美的
2019-09-09,石家庄中华南大街473号,桥西区,石家庄市,114.454220,38.004352,华安美的旗舰店,河北省,无,美的
2019-09-09,中山西路145号国美电器世纪店二楼,桥西区,石家庄市,114.477061,38.044319,美的厨卫,河北省,无,美的
2019-09-09,强镇街94号附近,长安区,石家庄市,114.647849,38.075383,美的智能空调,河北省,无,美的
2019-09-09,栾城镇宏达路与隆威街交叉口东行100米路南,栾城区,石家庄市,114.658616,37.894280,美的厨房电器·栾城专卖店,河北省,13930406089,美的
2019-09-09,中山街道中山西路135号新百家电城3楼,桥西区,石家庄市,114.479653,38.043610,美的冰箱,河北省,无,美的
2019-09-09,龙州镇升仙桥北路159号,行唐县,石家庄市,114.549985,38.441361,美的中央空调(升仙桥北路),河北省,0311-82981852;13803363166,美的
2019-09-09,机场路与303省道交叉口北150米,正定县,石家庄市,114.685245,38.260418,美的厨卫,河北省,无,美的
2019-09-09,五百东街与刘秀路交叉口西南200米,高邑县,石家庄市,114.607017,37.613940,美的售后服务,河北省,13933065441,美的
2019-09-09,获鹿镇镇宁路乾荣商业街5-31,鹿泉区,石家庄市,114.325688,38.085687,美的售后,河北省,无,美的
2019-09-09,新华路与西城街交叉口西100米,新乐市,石家庄市,114.708471,38.351904,美的中央空调(新乐店),河北省,13343217771,美的
2019-09-09,裕华东路49号中天世都商务公馆,桥西区,石家庄市,114.510869,38.036018,晶木裕华路美的专卖店,河北省,无,美的
2019-09-09,251乡道东50米,晋州市,石家庄市,115.022874,37.973815,美的空调,河北省,15031487881,美的
2019-09-09,东城南街广瑞电器1栋1号,藁城区,石家庄市,114.853563,38.026723,美的中央空调,河北省,0311-88192777,美的
2019-09-09,新开街北端路东16排1号,灵寿县,石家庄市,114.383817,38.315545,灵寿美的(旗舰店),河北省,0311-82518565,美的
2019-09-09,广源街与闽江道交叉口东100米,裕华区,石家庄市,114.586403,38.028176,美的厨卫电器,河北省,无,美的
2019-09-09,033省道北50米,赵县,石家庄市,114.641059,37.765333,美的橱柜,河北省,无,美的
2019-09-09,010县道附近,元氏县,石家庄市,114.521287,37.688024,美的日化,河北省,无,美的
2019-09-09,昌盛街(新未饭店西对面),藁城区,石家庄市,114.730004,37.964206,石家庄藁城丽阳美的专卖店,河北省,0311-86517325,美的
2019-09-09,兴发街与新园街交叉口东北50米,晋州市,石家庄市,115.062437,38.022242,美的橱柜,河北省,15081851988,美的
2019-09-09,电大街108附近,新华区,石家庄市,114.458071,38.070901,朝阳美的专卖,河北省,无,美的
2019-09-09,061县道与428乡道交叉口东100米,元氏县,石家庄市,114.503857,37.761859,美的旗舰店,河北省,无,美的
2019-09-09,仓丰路绿家小区7号楼4单元西边小门2楼,裕华区,石家庄市,114.503009,37.992910,美的空调,河北省,无,美的
2019-09-09,新凯路168附近,鹿泉区,石家庄市,114.319165,38.093513,美的家庭中央空调(新凯路),河北省,0311-82183016,美的
2019-09-09,和平东路428阳光宜家家装专业广场E座,长安区,石家庄市,114.547251,38.053737,同润美的(旗舰店),河北省,0311-89618778,美的
2019-09-09,大河路与014乡道交叉口西南50米,鹿泉区,石家庄市,114.384588,38.134032,大河美的专卖,河北省,无,美的
2019-09-09,天山大街155号北国电器一楼,裕华区,石家庄市,114.608946,38.035187,美的冰箱专柜,河北省,无,美的
2019-09-09,富强路80号,栾城区,石家庄市,114.660762,37.881132,美的生活电器(栾城体验馆),河北省,0311-88037766,美的
2019-09-09,赵州镇自强路碧水庄园1期西邻,赵县,石家庄市,114.771544,37.763899,美的中央空调(平棘大街),河北省,无,美的
2019-09-09,新开街68号,赞皇县,石家庄市,114.389163,37.663762,美的生活电器(新开街),河北省,0311-84220992,美的
2019-09-09,栾城区为民街与商贸路交叉口东北50米,栾城区,石家庄市,114.512847,37.899418,栾城窦妪金顺美的(海信专卖店),河北省,无,美的
2019-09-09,东岗路神兴小区2-7号(近谈固西街),裕华区,石家庄市,114.555945,38.008950,美的净水(东岗路),河北省,0311-85813667,美的
2019-09-09,昌荣巷与蟠龙路交叉口北50米,元氏县,石家庄市,114.530270,37.758534,美的元氏大恒旗舰店,河北省,无,美的
2019-09-09,和平路装饰材料市场和平路装饰材料市场一楼D区18号,长安区,石家庄市,114.542284,38.055288,美的整体吊顶,河北省,13171899909,美的
2019-09-09,广场北街38号,灵寿县,石家庄市,114.380404,38.311125,美的中央空调,河北省,18032755711,美的
2019-09-09,嘉惠街181号,元氏县,石家庄市,114.514178,37.763647,美的厨卫(嘉惠街),河北省,15930427198,美的
2019-09-09,蟠龙路8-5号,元氏县,石家庄市,114.541354,37.759145,美的日化(蟠龙路店),河北省,无,美的
2019-09-09,谈固东街紫鑫苑1号楼底商103,长安区,石家庄市,114.569599,38.051204,美的专卖店,河北省,无,美的
2019-09-09,004县道东50米,晋州市,石家庄市,115.069212,37.863193,美的中央空调,河北省,无,美的
2019-09-09,赞皇镇龙门大街82号,赞皇县,石家庄市,114.395146,37.661204,美的烟机整体厨卫,河北省,0311-84221933,美的
2019-09-09,兴德路南50米,正定县,石家庄市,114.539611,38.153874,正定美的专卖店,河北省,无,美的
2019-09-09,府前东路257号附近,深泽县,石家庄市,115.216791,38.183588,美的中央空调空气能,河北省,17732103351,美的
2019-09-09,联盟路366宏基商城一楼国美电器,新华区,石家庄市,114.465260,38.079362,美的烟机灶热水器,河北省,无,美的
2019-09-09,赵州镇自强路金穗家园1号门市,赵县,石家庄市,114.783072,37.762675,美的照明(赵县专卖店),河北省,0311-85943928;13126135206,美的
2019-09-09,正定镇恒山市场恒胜街2号,正定县,石家庄市,114.557062,38.150224,美的惠达,河北省,0311-88785487;13383617021,美的
2019-09-09,钟旺路7号附近,新华区,石家庄市,114.449530,38.067623,美的专卖(钟旺路店),河北省,无,美的
2019-09-09,胜利北街289号北国益庄购物中心4F层,长安区,石家庄市,114.516906,38.085693,美的净水机(北国益庄购物中心),河北省,无,美的
2019-09-09,青塔路与201省道交叉口南100米,灵寿县,石家庄市,114.353802,38.382756,灵寿青同美的专卖店,河北省,18713131512,美的
2019-09-09,,藁城区,石家庄市,114.741345,38.155639,美的生活电器(藁城只甲授权专卖店),河北省,13833155975,美的
2019-09-09,栾城镇大桥路47号,栾城区,石家庄市,114.653234,37.885392,广瑞美的(旗舰店),河北省,无,美的
2019-09-09,052县道东50米,灵寿县,石家庄市,114.296875,38.365857,灵寿马阜安美的专卖,河北省,无,美的
2019-09-09,晋州镇新华街58号,晋州市,石家庄市,115.022135,38.027822,美的中央空调(新华街店),河北省,无,美的
2019-09-09,珠峰大街和闽江道交叉口东行100米路北想象国际底商,裕华区,石家庄市,114.603967,38.028550,星美美的(旗舰店),河北省,13739759588,美的
2019-09-09,兴华北路268号电视塔北98米路西,辛集市,石家庄市,115.215059,37.933546,美的净水设备,河北省,无,美的
2019-09-09,梨乡大街西50米,赵县,石家庄市,114.968241,37.773994,美的家庭中央空调(中共赵县范庄镇委员会西南),河北省,15175779869,美的
2019-09-09,中山东路739号北国商城3F层,长安区,石家庄市,114.575636,38.044542,博世&美的洗衣机(北国商城),河北省,无,美的
2019-09-09,石清路附近,鹿泉区,石家庄市,114.348289,38.197830,美的家电户户通专卖,河北省,0311-82279979,美的
2019-09-09,建设东路与建设西路交叉口南50米,无极县,石家庄市,114.973465,38.179090,万达美的(旗舰店),河北省,13313046038,美的
2019-09-09,太行东路223号附近,赞皇县,石家庄市,114.397820,37.659048,赞皇美的净水服务站,河北省,13313038966,美的
2019-09-09,向阳街134号,元氏县,石家庄市,114.522774,37.760981,美的厨房电器·元氏厨语专卖店,河北省,无,美的
2019-09-09,建业路与装院路交叉口北100米,元氏县,石家庄市,114.406335,37.872804,美的生活电器(姬村华鑫店),河北省,无,美的
2019-09-09,翟营南大街386号北国电器益东店二楼,裕华区,石家庄市,114.554741,38.009249,美的微波炉,河北省,无,美的
2019-09-09,建设北大街2号燕华大厦国美电器二楼,长安区,石家庄市,114.511322,38.044251,美的微波炉,河北省,无,美的
2019-09-09,赵双路与309乡道交叉口北100米,赵县,石家庄市,114.781852,37.840390,美的品牌专卖店(赵县双庙店),河北省,0311-84781315,美的
2019-09-09,向阳街143号,元氏县,石家庄市,114.523150,37.762667,美的整体厨房专卖店(中央大街),河北省,15831928588,美的
2019-09-09,新兴路北200米,新乐市,石家庄市,114.695491,38.351355,格力美的空调,河北省,无,美的
2019-09-09,264乡道南50米,晋州市,石家庄市,115.136484,38.018723,美的生活电器(西卓宿专卖),河北省,无,美的
2019-09-09,市府东路281号,藁城区,石家庄市,114.866710,38.035564,美的云熙府,河北省,13283411566;0311-66576666,美的
2019-09-09,中山路新百广场二楼,桥西区,石家庄市,114.478035,38.044098,美的空调专卖,河北省,无,美的
2019-09-09,槐安西路21号美的售后安装点,桥西区,石家庄市,114.484189,38.025244,美的空调修理点,河北省,无,美的
2019-09-09,香港路52号附近,行唐县,石家庄市,114.563660,38.435426,美的整体厨房(香港路),河北省,无,美的
2019-09-09,006县道东50米,藁城区,石家庄市,114.800144,38.265210,美的空调专卖,河北省,无,美的
2019-09-09,仓兴街与塔南路交叉口西北100米,裕华区,石家庄市,114.507597,38.006219,铭湾现代城美的专卖店(铭湾现代城店),河北省,15373812253,美的
2019-09-09,107国道南100米,新乐市,石家庄市,114.800669,38.404620,美的空调专卖,河北省,无,美的
2019-09-09,301省道东50米,平山县,石家庄市,113.721727,38.392713,美的生活电器(小觉镇授权专卖店),河北省,13473406983,美的
2019-09-09,,平山县,石家庄市,114.187018,38.264435,美的厨卫专卖,河北省,15003319704;15076402226,美的
2019-09-09,新开路与鲜虞街交叉口西150米,新乐市,石家庄市,114.690147,38.346304,美的万宝全,河北省,0311-88598222,美的
2019-09-09,温塘镇桃源街16号,平山县,石家庄市,113.994742,38.262245,美的空调卫浴洁具,河北省,13230100696,美的
2019-09-09,柏林大街153号附近,赵县,石家庄市,114.783743,37.758553,美的厨语,河北省,无,美的
2019-09-09,202省道附近,井陉县,石家庄市,114.096419,37.985645,美的日用家电(秀林形象店),河北省,0311-82320121,美的
2019-09-09,中山东路157附近,平山县,石家庄市,114.221859,38.254655,美的家庭中央空调(冶河东路店),河北省,无,美的
2019-09-09,,正定县,石家庄市,114.571600,38.144203,正定宝纳美的旗舰店,河北省,0311-88016858,美的
2019-09-09,井元公路与红旗北大街交叉口西150米,元氏县,石家庄市,114.475590,37.834312,美的小家电,河北省,无,美的
2019-09-09,四中东路与红旗北大街交叉口西北50米,元氏县,石家庄市,114.476398,37.837138,美的因村专卖,河北省,无,美的
2019-09-09,大郭镇植物园街与和平路交叉口北行1000米路东,新华区,石家庄市,114.410122,38.076681,美的慧生活,河北省,13933842902,美的
2019-09-09,丘头镇石家庄石炼影剧院,藁城区,石家庄市,114.692797,37.993459,美的整体厨房,河北省,无,美的
2019-09-09,凤中路486号附近,高邑县,石家庄市,114.618377,37.603601,美的烟机灶具热水器,河北省,0311-84034846;15630108439,美的
2019-09-09,封龙大街,裕华区,石家庄市,114.594240,38.018460,石家庄吉祥海美的体验店(精英店),河北省,无,美的
2019-09-09,平安南大街与新藁路交叉口西北50米,新乐市,石家庄市,114.726129,38.320273,美的无风感空调,河北省,无,美的
2019-09-09,昌盛街68号,元氏县,石家庄市,114.528544,37.763372,美的净饮服务站,河北省,0311-84636119,美的
2019-09-09,赵州镇永通路60号赵县中学底商,赵县,石家庄市,114.781453,37.753127,美的厨语,河北省,无,美的
2019-09-09,五百东街,高邑县,石家庄市,114.607427,37.612566,美的空气源热泵,河北省,18348881181,美的
2019-09-09,107国道南50米,新乐市,石家庄市,114.756651,38.374881,美的烟机热水器(彭家庄专卖店),河北省,无,美的
2019-09-09,西九线北50米,无极县,石家庄市,114.871443,38.084622,美的净水机无极总代理,河北省,无,美的
2019-09-09,705乡道与706乡道交叉口南100米,无极县,石家庄市,114.878323,38.134349,美的空调专卖(高头店),河北省,无,美的
2019-09-09,中华街与新开路交叉口东150米,藁城区,石家庄市,114.769000,38.100751,美的整体厨卫南董指定专卖店,河北省,无,美的
2019-09-09,小康路与S9902新元高速交叉口西南100米,栾城区,石家庄市,114.587447,37.832036,美的专卖店,河北省,15175133638,美的
2019-09-09,中山东路739号北国商城3F层,长安区,石家庄市,114.575007,38.044576,苏泊尔&美的(北国商城),河北省,无,美的
2019-09-09,652乡道西50米,新乐市,石家庄市,114.798408,38.478509,美的净水机,河北省,无,美的
2019-09-09,联盟街道友谊大街与联盟路交口中远大厦六楼,新华区,石家庄市,114.453490,38.079999,美的办公区,河北省,无,美的
2019-09-09,商贸城7区1排2号,桥西区,石家庄市,114.409157,38.051495,美的专卖店,河北省,0311-87676222,美的
2019-09-09,和平路装饰材料市场D区18号,长安区,石家庄市,114.542310,38.054874,美的照明和平路店,河北省,18003211959,美的
2019-09-09,柏林大街附近,赵县,石家庄市,114.780705,37.728520,赵县固城美的生活小家电,河北省,18031178626,美的
2019-09-09,藁城区,藁城区,石家庄市,114.742917,38.131783,美的空气源热泵专卖店,河北省,无,美的
2019-09-09,人民西路与北庄街交叉口东50米,灵寿县,石家庄市,114.374374,38.308636,美的专卖店(人民西路),河北省,无,美的
2019-09-09,南二环胜利南大街313号,裕华区,石家庄市,114.494388,37.994041,美的美居旗舰店,河北省,0311-85880998;18631133826,美的
2019-09-09,平棘大街百佳超市旁,赵县,石家庄市,114.771598,37.764505,美的整体厨房专卖店(平棘大街),河北省,0311-85943800;15033442828,美的
2019-09-09,北二环西路283附近,新华区,石家庄市,114.465258,38.085194,香格里美的专卖店,河北省,无,美的
2019-09-09,联盟路625号北90米,新华区,石家庄市,114.464327,38.079983,美的星星冰箱冰柜,河北省,无,美的
2019-09-09,兴宁寺街,长安区,石家庄市,114.584704,38.045999,美的照明电工五金土产,河北省,无,美的
2019-09-09,上滋洋村,行唐县,石家庄市,114.411006,38.515111,子良电器美的专卖,河北省,无,美的
2019-09-09,西三庄街111号附近,新华区,石家庄市,114.448913,38.080423,西三庄美的旗舰店,河北省,无,美的
2019-09-09,平安北大街58号附近,长安区,石家庄市,114.501097,38.048893,美的惠生活,河北省,0311-85888315,美的
2019-09-09,农村信用合作联社塔上信用社西,灵寿县,石家庄市,114.213441,38.397363,灵寿塔上盛源美的专卖店,河北省,无,美的
2019-09-09,南佐镇,元氏县,石家庄市,114.366038,37.839613,美的小家电专卖,河北省,无,美的
2019-09-09,高新区69号东创商务广场一层3号商铺,裕华区,石家庄市,114.613976,38.028649,美的慧生活,河北省,无,美的
2019-09-09,苍霞道与风华路交叉口南150米,裕华区,石家庄市,114.520039,37.992735,白圭商贸美的旗舰店,河北省,13643210068,美的
2019-09-09,府前东路279号附近,深泽县,石家庄市,115.218005,38.183443,深泽瑞天美的专卖店,河北省,无,美的
2019-09-09,栾城区龙威街133号,栾城区,石家庄市,114.656904,37.888024,栾城美的厨语专卖店,河北省,0311-80852319,美的
2019-09-09,星河宾馆(柏坡西路),平山县,石家庄市,114.189802,38.263139,美的中央空调专业店,河北省,18831112566,美的
2019-09-09,辛集镇东华北路161号,辛集市,石家庄市,115.219226,37.929561,美的东石厨具专卖,河北省,13784313437;18033866018,美的
2019-09-09,赵陵铺镇赵陵北路北郡一区住宅小区,新华区,石家庄市,114.475140,38.099344,石家庄邻邦北郡美的(旗舰店),河北省,13833465399,美的
2019-09-09,东城南街075号,藁城区,石家庄市,114.853884,38.024043,玉兰壁纸美的吊顶厨卫,河北省,13331383817,美的
2019-09-09,建设大街供销商城1层,辛集市,石家庄市,115.214035,37.918296,辛集康华美的品牌专卖店,河北省,0311-89158052,美的
2019-09-09,建安街道和平东路华平胡同1号楼底商石家庄瑞辉商贸,长安区,石家庄市,114.506328,38.054138,美的慧生活,河北省,0311-86081919,美的
2019-09-09,商城大街附近,赵县,石家庄市,114.965103,37.772555,范庄顺意美的品牌专卖店,河北省,0311-84899226,美的
2019-09-09,西三庄街224附近,新华区,石家庄市,114.448674,38.083320,西三庄美的旗舰店,河北省,0311-87786529,美的
2019-09-09,大马装饰城8排5号,裕华区,石家庄市,114.563487,38.015222,锦帆美的旗舰店,河北省,0311-85887315,美的
2019-09-09,义南路29号,长安区,石家庄市,114.506335,38.071901,邻邦美的专卖店,河北省,0311-83022877,美的
2019-09-09,文兴路与横涧南街交叉口北侧90米,井陉矿区,石家庄市,114.064754,38.062327,井陉矿区宏利家电美的(宏利家电空调专卖店),河北省,0311-82070676,美的
2019-09-09,赵州镇永通路52号,赵县,石家庄市,114.782030,37.753097,美的慧生活,河北省,15830666868;0311-84943705;0311-84940530,美的
2019-09-09,栾城区第二中学西南门(冶河大街),栾城区,石家庄市,114.599988,37.942360,艺神电器九阳美的,河北省,14731101352,美的
2019-09-09,302省道南50米,藁城区,石家庄市,114.756823,38.153438,美的厨房生活电器旗舰店,河北省,无,美的
2019-09-09,赵陵铺路街道赵陵北路84号北郡,新华区,石家庄市,114.467341,38.099220,北郡美的电器仓库直销点,河北省,无,美的
2019-09-09,中山东路739号北国商城3F层,长安区,石家庄市,114.575609,38.044542,Little Swan&美的洗衣机(北国商城),河北省,无,美的
2019-09-09,高邑镇东环路东关小学东南400米,高邑县,石家庄市,114.628440,37.601477,美的中央空调空气能热水机,河北省,无,美的
2019-09-09,中华北大街新苑路燕都金地城底商e4,新华区,石家庄市,114.483201,38.089868,石家庄市瑞博燕都美的专卖店,河北省,0311-66693784;18632196940,美的
2019-09-09,太行西路23号,赞皇县,石家庄市,114.387085,37.659542,万家乐美的品牌专卖店,河北省,0311-84224810,美的
2019-09-09,石铜路与南二环交口明月装饰城2楼,桥西区,石家庄市,114.444484,38.002692,石家庄市环州商贸美的专卖店,河北省,无,美的
2019-09-09,兴华北路232号,辛集市,石家庄市,115.215420,37.929736,辛集丰鑫美的专卖店,河北省,无,美的
2019-09-09,中兴路284号,晋州市,石家庄市,115.041994,38.025845,晋州佳华美的专卖店,河北省,0311-84319717,美的
2019-09-09,槐安路与翟营大街交口北行100米,裕华区,石家庄市,114.554393,38.023998,美的中央空调服务站(翟营南大街),河北省,无,美的
2019-09-09,深泽镇府前西路府前小区(府前西路),深泽县,石家庄市,115.201832,38.183686,深泽振兴美的旗舰店,河北省,0311-83522999;0311-83523333,美的
2019-09-09,邯北路与651乡道交叉口南100米,新乐市,石家庄市,114.848057,38.317949,蓝天家电美的专卖店,河北省,无,美的
2019-09-09,赵佗路18-5号,新华区,石家庄市,114.487786,38.094522,科宝家电美的专卖店,河北省,0311-85938869,美的
2019-09-09,南甸村建设路62号,平山县,石家庄市,114.136063,38.385501,平山县东平南甸美的品牌专卖店,河北省,0311-82871699,美的
2019-09-09,赵辛线附近,赵县,石家庄市,114.745472,37.657518,赵县沙河店利伟美的专卖店,河北省,13833198687,美的
2019-09-09,392省道,鹿泉区,石家庄市,114.465108,37.943095,艳肖美的专卖店,河北省,0311-82260082,美的
2019-09-09,石铜路681号(鹿泉市铜冶中心卫生院东),鹿泉区,石家庄市,114.378143,37.966502,铜冶美的空调售后,河北省,无,美的
2019-09-09,建设南大街6号苏宁易购西美大厦店二楼,桥西区,石家庄市,114.511047,38.041412,美的空调专柜,河北省,无,美的
2019-09-09,友谊大街与裕华路交口益友西馆一楼,桥西区,石家庄市,114.449219,38.034050,美的空调专柜,河北省,无,美的
2019-09-09,灵寿县政府路,灵寿县,石家庄市,114.321593,38.451047,美的空调灵寿慈峪美的专卖店,河北省,无,美的
2019-09-09,恒达街,正定县,石家庄市,114.555878,38.151978,美的厨房和热水器专卖店,河北省,14730488808,美的
2019-09-09,栾城区李冶街,栾城区,石家庄市,114.660477,37.890648,美的厨房和热水电器专卖店,河北省,无,美的
2019-09-09,向阳大街104号鹿泉商厦2层,鹿泉区,石家庄市,114.316054,38.084073,鹿泉美的三和顺城旗舰店,河北省,15632368021,美的
2019-09-09,新兴路与繁荣胡同交叉口东50米,新乐市,石家庄市,114.679004,38.349592,梦丽莎卫浴·美的厨电,河北省,18632125469,美的
2019-09-09,唐相北街162,赞皇县,石家庄市,114.388982,37.664673,赞皇新城美的空调专卖店(新开街),河北省,0311-84220992,美的
2019-09-09,公园路64号附近,藁城区,石家庄市,114.844951,38.030215,美的洗悦家(藁城旗舰店),河北省,无,美的
2019-09-09,东二环与中山路交叉口南行200米建明中路领世郡小区对面,长安区,石家庄市,114.575050,38.040515,美的洗悦家(裕华店),河北省,无,美的
2019-09-09,平南路金辉汽车服务中心旁,平山县,石家庄市,114.212600,38.250007,樱花洁具美的厨卫,河北省,无,美的
2019-09-09,赵州镇柏林街正大巷86号,赵县,石家庄市,114.782414,37.749031,赵县盛美美的(旗舰店),河北省,0311-84958222;0311-84943705;15081833789,美的
2019-09-09,中山广场1楼东北角,平山县,石家庄市,114.204534,38.257504,平山佳泰美的(旗舰店),河北省,0311-82946698,美的
2019-09-09,新开街,赞皇县,石家庄市,114.385067,37.658238,美的空调旗舰店,河北省,0311-84220992;0311-84225192,美的
2019-09-09,华北商贸城17区7排5号,桥西区,石家庄市,114.413539,38.050951,品牌阿里斯顿热水器长虹电器美的电器,河北省,13147444481,美的
2019-09-09,邯北路与651乡道交叉口东100米,新乐市,石家庄市,114.848865,38.318719,美的全屋热水·净水专卖店,河北省,无,美的
2019-09-09,栾城镇宏达路与龙威街交叉口东行100米路南,栾城区,石家庄市,114.571855,37.883706,美的全屋热水·净水专卖店,河北省,无,美的
2019-09-09,中山东路739号北国商城3F层,长安区,石家庄市,114.575656,38.044625,SIEMENS&美的(北国商城),河北省,无,美的
2019-09-09,054县道与204省道交叉口南100米,藁城区,石家庄市,114.737512,38.198649,中华家电,河北省,无,美的
2019-09-09,友谊北大街368号中远大厦609,新华区,石家庄市,114.453324,38.079695,美的空调售后,河北省,无,美的
2019-09-09,朝阳路,晋州市,石家庄市,115.047432,38.029559,层刚批发天线制冷配件美的生活电器,河北省,无,美的
2019-09-09,中山大道与新开街交叉口南200米,灵寿县,石家庄市,114.383873,38.314438,美的慧生活全屋智能家电,河北省,无,美的
2019-09-09,南长槐安西路21号(近乔安居),桥西区,石家庄市,114.484431,38.025151,石家庄桥西区美佳美的专卖店,河北省,无,美的
2019-09-09,与育才街交口北国先天下五楼,长安区,石家庄市,114.526817,38.042107,美的空调不制冷漏水服务中心,河北省,无,美的
2019-09-09,建华南大街彬彤物流商铺8号,裕华区,石家庄市,114.548081,37.984255,美的空调不启动跳闸服务站(白圭专卖店),河北省,0311-85926997,美的
2019-09-09,中山西路83号银座商城F6层,新华区,石家庄市,114.485558,38.044535,美的空调移机加氟服务站(银座商城),河北省,无,美的
2019-09-09,槐安路和育才街交口怀特商业广场负一楼北国电器,裕华区,石家庄市,114.527198,38.023694,美的空调移机安装加氟服务中心,河北省,无,美的
2019-09-09,裕华东路119附近,长安区,石家庄市,114.536184,38.036412,石家庄美的空调售后,河北省,无,美的
2019-09-09,中山西路48号华银大厦写字楼13层1302,桥西区,石家庄市,114.483700,38.042950,石家庄美的空调售后,河北省,无,美的
2019-09-09,槐安路150号,裕华区,石家庄市,114.543210,38.024591,石家庄美的空调售后,河北省,0311-80899745,美的
2019-09-09,栾城区张举路,栾城区,石家庄市,114.662138,37.881555,美的栾城客户服务中心,河北省,无,美的
2019-09-09,永通路48号,赵县,石家庄市,114.782213,37.753121,国美电器(美的品牌专卖店),河北省,0311-84924958,美的
2019-09-09,栾城镇富强路85号,栾城区,石家庄市,114.661784,37.881524,美的售后服务站,河北省,无,美的
2019-09-09,北城路与文苑街交叉口西50米,新华区,石家庄市,114.467669,38.072559,美的石家庄地区站no.粤z0367,河北省,无,美的
2019-09-09,晋州镇和平街47号,晋州市,石家庄市,115.055617,38.022075,美的生活电器售后机接收站(和平街店),河北省,0311-84322717;13930194128,美的
2019-09-09,南二环胜利南大街313号,裕华区,石家庄市,114.494352,37.994061,旭创润德美旳专卖店,河北省,0311-85880998,美的
2019-09-09,长寿街道新华路40号花园广场,新乐市,石家庄市,114.694122,38.352964,祥云电器,河北省,0311-88566658;0311-88598222,美的
2019-09-09,无极镇中昌西路自来水公司对过,无极县,石家庄市,114.960926,38.172669,利民家电商场,河北省,13931987000;13180062900,美的
2019-09-09,府前路与393省道交叉口东50米,赞皇县,石家庄市,114.477569,37.630441,东东电器,河北省,18330100699;18230011688,美的
2019-09-09,联盟路368号益元百货2F层,新华区,石家庄市,114.464324,38.078529,热水器专卖(益元百货),河北省,无,美的
2019-09-09,石兆金街58号,长安区,石家庄市,114.599103,38.072374,Midea慧生活,河北省,无,美的
2019-09-09,文庙路97号附近,平山县,石家庄市,114.205021,38.250445,平山家旺家电经销铺,河北省,无,美的
2019-09-09,东盛路1栋1号,藁城区,石家庄市,114.853596,38.026921,广瑞电器(东城南街),河北省,0311-88156111;0311-88192777;0311-88197788,美的
2019-09-09,,路北区,唐山市,118.189576,39.672756,美的(唐山龙都旗舰店),河北省,18603157000,美的
2019-09-09,光明南路与新华步行街交叉口南100米,路南区,唐山市,118.134740,39.623813,美的,河北省,无,美的
2019-09-09,嘉兴路与裕民街交叉口西北100米,乐亭县,唐山市,119.009044,39.342147,美的,河北省,无,美的
2019-09-09,杨家板桥镇京哈高速公路北300米,玉田县,唐山市,117.669186,39.742123,美的,河北省,无,美的
2019-09-09,邱柳线东50米,丰润区,唐山市,118.043912,39.587150,美的,河北省,无,美的
2019-09-09,滦州市榛子镇家家乐超市西南50米(景泰花苑东北),滦州市,唐山市,118.339484,39.837417,美的,河北省,无,美的
2019-09-09,洪火线北50米,遵化市,唐山市,118.181785,40.070670,美的,河北省,无,美的
2019-09-09,100乡道东50米,滦南县,唐山市,118.713214,39.595678,美的,河北省,无,美的
2019-09-09,杨家板桥镇丰杨线顺义加油站旁,玉田县,唐山市,117.673249,39.756639,美的,河北省,无,美的
2019-09-09,平东线北50米,遵化市,唐山市,117.792349,40.054380,美的,河北省,无,美的
2019-09-09,洪火线东50米,遵化市,唐山市,118.141959,40.116580,美的,河北省,无,美的
2019-09-09,263省道东50米,曹妃甸区,唐山市,118.416942,39.379643,美的,河北省,无,美的
2019-09-09,131乡道北50米,玉田县,唐山市,117.665008,39.789329,美的,河北省,无,美的
2019-09-09,南新西道139号818室,路北区,唐山市,118.124031,39.617821,美的(天成专卖店),河北省,15530353685,美的
2019-09-09,友谊道275号,曹妃甸区,唐山市,118.216021,39.239362,美的(南堡新海丰旗舰店),河北省,无,美的
2019-09-09,西城路397号附近,玉田县,唐山市,117.751301,39.887486,美的(水之家专卖店),河北省,无,美的
2019-09-09,356省道北50米,遵化市,唐山市,117.835869,40.159385,美的(遵化市堡子店镇中北专卖店),河北省,无,美的
2019-09-09,南新东道269号君瑞家居二层,路南区,唐山市,118.180945,39.618218,美的(君瑞家居店),河北省,无,美的
2019-09-09,光明北路鹭港小区203S-09号,路北区,唐山市,118.134401,39.641360,唐山市鹭港美的专卖店,河北省,13831567069,美的
2019-09-09,建设北路152号人民购物广场B1层,路北区,唐山市,118.177011,39.669619,美的(人民购物广场),河北省,无,美的
2019-09-09,271乡道东50米,丰润区,唐山市,118.030520,39.846198,美的(长深高速公路店),河北省,无,美的
2019-09-09,唐丰公路与027省道交叉口西北100米,玉田县,唐山市,117.847473,39.752151,美的(玉滨公路店),河北省,无,美的
2019-09-09,264省道西50米,遵化市,唐山市,117.952816,40.129977,美的(振兴电器店),河北省,无,美的
2019-09-09,曹妃甸垦丰大街16号汽车站对面唐百四层,曹妃甸区,唐山市,118.464615,39.272459,美的(唐山百货店),河北省,无,美的
2019-09-09,光明道与富民路交叉口东南150米,丰南区,唐山市,118.373846,39.570704,美的(光明道店),河北省,无,美的
2019-09-09,稻胥路60号附近,路南区,唐山市,118.194751,39.538183,美的(丰商金升专卖店),河北省,无,美的
2019-09-09,赵各庄大马路赵各庄百货大楼2层,古冶区,唐山市,118.418709,39.764601,美的(大马路店),河北省,无,美的
2019-09-09,264省道东50米,遵化市,唐山市,117.894221,40.074508,美的(假日阳光购物广场店),河北省,无,美的
2019-09-09,文化北路与112国道交叉口北150米,遵化市,唐山市,117.965762,40.224756,美的(苏家洼国土资源所北),河北省,无,美的
2019-09-09,黄各庄镇黄各庄一村村委会底商,丰南区,唐山市,118.143047,39.478128,美的(黄各庄专卖店),河北省,15232515298,美的
2019-09-09,西南街(黄各庄镇乡村道路管理所西北),丰南区,唐山市,118.140632,39.498585,美的(黄各庄专卖店),河北省,0315-8329799,美的
2019-09-09,通唐线宏鑫超市西北侧20米,玉田县,唐山市,117.676445,39.669241,美的(玉田石臼窝露清店),河北省,0315-6529988,美的
2019-09-09,西三里乡华明北路82号唐百大楼四层,遵化市,唐山市,117.956939,40.201668,美的(华明北路店),河北省,无,美的
2019-09-09,和平路38号,滦南县,唐山市,118.680248,39.505851,滦南美的(旗舰店),河北省,0315-4128980,美的
2019-09-09,喜峰中路25-2号,迁西县,唐山市,118.306646,40.148317,迁西美的旗舰店,河北省,0315-5615528,美的
2019-09-09,翔云道街道梧桐大道商业街A10-05号,路北区,唐山市,118.145760,39.656270,美的中央空调(梧桐大道店),河北省,0315-6313837,美的
2019-09-09,迁安镇家乐超市三楼,迁安市,唐山市,118.711309,40.004004,美的空调,河北省,无,美的
2019-09-09,高新技术产业开发区远洋城苏宁电器一层,路北区,唐山市,118.175804,39.667904,美的空调,河北省,无,美的
2019-09-09,新城道108号北方购物广场一层,丰润区,唐山市,118.156459,39.828536,美的空调,河北省,无,美的
2019-09-09,女织寨乡复兴路吉祥旧物交易城35号底商,路南区,唐山市,118.200735,39.601832,美的电器,河北省,0315-2998830;13582874188,美的
2019-09-09,古范路东50米,古冶区,唐山市,118.437913,39.701355,美的专卖,河北省,15081928780,美的
2019-09-09,玉田镇无终东街249号,玉田县,唐山市,117.758066,39.883126,玉田北冰洋美的旗舰店,河北省,0315-6139818,美的
2019-09-09,南大路46-5号,乐亭县,唐山市,118.914359,39.421236,乐亭五洲美的旗舰店,河北省,无,美的
2019-09-09,华明路民政局对面,遵化市,唐山市,117.957458,40.182865,美的中央空调,河北省,无,美的
2019-09-09,伯雍东街49附近,玉田县,唐山市,117.757638,39.899179,美的中央空调,河北省,无,美的
2019-09-09,建设路恒茂国际7楼底商,路北区,唐山市,118.178015,39.664819,美的中央空调(建设北路店),河北省,无,美的
2019-09-09,金博士幼儿园(纬六街西),迁安市,唐山市,118.582960,39.995189,美的厨卫,河北省,15512021160;15512021560,美的
2019-09-09,大里路与长虹道交口北行100米路东309-3号铂悦山底商,路北区,唐山市,118.150621,39.652131,唐山铂悦山美的旗舰店,河北省,0315-2889677,美的
2019-09-09,滦州市团结路96号附近,滦州市,唐山市,118.695380,39.737185,美的净水专卖(滦县利鑫专卖店),河北省,无,美的
2019-09-09,曹雪芹东道158号北方购物广场1层,丰润区,唐山市,118.158788,39.828440,广东美的专卖(丰润鑫隆恒泰店),河北省,0315-3212338,美的
2019-09-09,海港经济开发区盛世景苑南门斜对面万隆底商,乐亭县,唐山市,118.983846,39.236167,美的厨卫专卖店,河北省,无,美的
2019-09-09,喜峰中路与紫玉街交叉口西北150米,迁西县,唐山市,118.305264,40.150703,美的窗帘,河北省,无,美的
2019-09-09,宏都饭店(京哈线北),玉田县,唐山市,117.631084,39.913098,美的电器,河北省,无,美的
2019-09-09,丰润镇曹雪芹大街196号天天购物对面,丰润区,唐山市,118.129255,39.829042,美的中央空调,河北省,15830581218,美的
2019-09-09,,迁西县,唐山市,118.209858,40.222876,美的专卖店,河北省,4008899315;13933327342,美的
2019-09-09,唐林北路与震兴道交叉口东150米,古冶区,唐山市,118.457582,39.745684,美的中央空调,河北省,无,美的
2019-09-09,建设大街明珠小区,曹妃甸区,唐山市,118.462726,39.282417,美的中央空调(建设大街),河北省,0315-8838111;13930509610,美的
2019-09-09,高新技术产业开发区远洋城苏宁电器二层,路北区,唐山市,118.175760,39.667236,美的冰箱,河北省,无,美的
2019-09-09,三抚公路与喜峰北路交叉口西北200米,迁西县,唐山市,118.302342,40.172708,美的中央空调,河北省,无,美的
2019-09-09,高新技术产业开发区大陆阳光101楼18层,路北区,唐山市,118.190725,39.676579,美的售后,河北省,无,美的
2019-09-09,北购总店六层,丰润区,唐山市,118.117737,39.827752,美的饮水机,河北省,无,美的
2019-09-09,美的空调安太五金专卖店(大碱线东),丰南区,唐山市,118.220771,39.467908,美的空调(安太五金专卖店),河北省,无,美的
2019-09-09,,滦州市,唐山市,118.691401,39.745874,美的中央空调,河北省,无,美的
2019-09-09,南大街23号,乐亭县,唐山市,118.912389,39.423112,乐亭宏大美的品牌,河北省,0315-4632868,美的
2019-09-09,唐马路与马陡路交叉口西北100米马家沟农行西侧,开平区,唐山市,118.247860,39.703143,开平安兴美的旗舰店,河北省,0315-3169938,美的
2019-09-09,263省道东50米,丰南区,唐山市,118.336910,39.422929,美的空调(建军专卖店),河北省,无,美的
2019-09-09,富强街326号,乐亭县,唐山市,118.888663,39.417989,美的净水机(乐亭专卖店),河北省,13582652388,美的
2019-09-09,257乡道南50米,丰润区,唐山市,118.165230,39.739403,海尔美的,河北省,无,美的
2019-09-09,开平街道西城路100号国税局北行50米,开平区,唐山市,118.263906,39.678112,美的中央空调(西城路),河北省,无,美的
2019-09-09,津源街北50米,迁西县,唐山市,118.296715,40.165077,美的厨语体验店,河北省,无,美的
2019-09-09,三抚公路与喜峰北路交叉口西100米,迁西县,唐山市,118.302926,40.171785,美的厨卫专卖店,河北省,无,美的
2019-09-09,258乡道北50米,丰润区,唐山市,118.008100,39.729780,卫东美的专卖店,河北省,无,美的
2019-09-09,友谊路街道千禧小区1-102号和平小区北门对过,滦南县,唐山市,118.678815,39.509556,美的照明(明辉灯具店),河北省,13785532178,美的
2019-09-09,文化大街阳光家园南门159号,丰南区,唐山市,118.104721,39.564074,美的空调(视都专卖),河北省,0315-8282418,美的
2019-09-09,永顺街南50米,迁安市,唐山市,118.692176,40.011316,美的集成吊顶(永顺街),河北省,18716069107,美的
2019-09-09,永顺街西头(金客隆超市斜对面),迁安市,唐山市,118.690674,40.011242,美的净水机(永顺街专卖店),河北省,13402470315,美的
2019-09-09,玉滨公路鸦鸿桥国际商贸城东南100米,玉田县,唐山市,117.843421,39.750965,美的生活小家电,河北省,无,美的
2019-09-09,602县道东50米,迁安市,唐山市,118.593354,39.935096,大佳美的小店,河北省,无,美的
2019-09-09,垦丰大街11号苏宁电器,曹妃甸区,唐山市,118.463444,39.273215,美的空调专卖,河北省,无,美的
2019-09-09,丰源道与学院路交汇处东行100米,路北区,唐山市,118.159162,39.669269,丰元美的空调,河北省,无,美的
2019-09-09,青年路18号丰南商场红星美凯龙(老万力皮革城)东三门一层,丰南区,唐山市,118.103371,39.578449,美的厨语,河北省,无,美的
2019-09-09,新林道中段林西平价购物中心2层,古冶区,唐山市,118.450734,39.714426,美的冰箱专柜,河北省,无,美的
2019-09-09,金融街东延新大东方二楼,乐亭县,唐山市,118.916807,39.431613,美的整体厨房,河北省,无,美的
2019-09-09,世博广场苏宁易购一层,路南区,唐山市,118.177185,39.623470,美的微波炉专柜,河北省,无,美的
2019-09-09,丰南镇胥新街12号,丰南区,唐山市,118.125310,39.567689,美的家用中央空调体验店,河北省,0315-8189298,美的
2019-09-09,林西百货大楼四层,古冶区,唐山市,118.456641,39.715278,美的热水器,河北省,无,美的
2019-09-09,303省道与614县道交叉口西南50米,玉田县,唐山市,117.625629,39.837561,美的厨电指定专营店,河北省,无,美的
2019-09-09,钓鱼台街道建华东道89号唐百家电城美的灶,路北区,唐山市,118.188171,39.645358,美的空调专柜,河北省,无,美的
2019-09-09,曹雪芹东道95号唐山联合压铸工业有限公司大院里,丰润区,唐山市,118.195671,39.827291,美的空调库房,河北省,无,美的
2019-09-09,华姿胡同与华明南路交叉口西南50米,遵化市,唐山市,117.957054,40.180558,遵化鑫盛和美的(旗舰店),河北省,0315-6648638,美的
2019-09-09,新开路与荣盛道交叉口西100米,开平区,唐山市,118.251543,39.665965,开平广兴美的水意体验馆,河北省,无,美的
2019-09-09,玉滨公路德康医院,玉田县,唐山市,117.735950,39.617478,玉田县蓝天美的专卖店,河北省,无,美的
2019-09-09,京哈公路北50米,玉田县,唐山市,117.656994,39.904843,玉田巨大美的电器专卖店,河北省,13393259961,美的
2019-09-09,新军屯镇(宏达家电商城内),丰润区,唐山市,117.963338,39.643152,唐山新军屯瑞达美的品牌专卖店,河北省,0315-5539772,美的
2019-09-09,262省道南50米,滦州市,唐山市,118.382154,39.820910,滦县麻湾坨美的品牌专卖店,河北省,无,美的
2019-09-09,北环路与玉遵东路交叉口西150米,玉田县,唐山市,117.766684,39.898099,玉田美的中央空调专卖店,河北省,无,美的
2019-09-09,垦丰大街50-5号附近,曹妃甸区,唐山市,118.453054,39.272321,刘辉电器美的旗舰店,河北省,无,美的
2019-09-09,胥涧线东50米,丰南区,唐山市,118.143184,39.478995,黄各庄利龙美的专卖店,河北省,无,美的
2019-09-09,团结西道99附近,滦州市,唐山市,118.694531,39.737820,滦县金尚美的品牌专卖店,河北省,13582924216,美的
2019-09-09,129乡道与303省道交叉口东100米,玉田县,唐山市,117.579760,39.837815,玉田林西美的品牌专卖店,河北省,无,美的
2019-09-09,倴城镇南大街鑫源家电,滦南县,唐山市,118.682443,39.504726,美的售后,河北省,无,美的
2019-09-09,迁安镇购物中心北花园街路口北行50米路西,迁安市,唐山市,118.704177,40.017973,迁安鑫百盛美的品牌店,河北省,0315-7685697,美的
2019-09-09,京建线与356省道交叉口西150米,迁西县,唐山市,118.251234,40.327099,洒河惠通美的专卖店,河北省,15930578681,美的
2019-09-09,157乡道与386乡道交叉口东北50米,丰南区,唐山市,118.103434,39.301488,丰南区宏通美的空调专卖店,河北省,无,美的
2019-09-09,浭阳街道唐丰路217号,丰润区,唐山市,118.135278,39.811427,丰润区旭森美的专卖店,河北省,无,美的
2019-09-09,102国道附近,丰润区,唐山市,117.943025,39.874935,沙流河云成美的空调专卖店,河北省,0315-5566022,美的
2019-09-09,赵庄子村集口北行200米,滦州市,唐山市,118.523700,39.784925,滦县九百户兴达美的品牌专卖店,河北省,0315-7551216,美的
2019-09-09,303省道北50米,玉田县,唐山市,117.618547,39.837936,林南仓万达美的专卖店,河北省,0315-6570696,美的
2019-09-09,宁国大路西50米,丰润区,唐山市,118.115986,39.780422,东那母庄美的品牌专卖店(NO.冀ZI204),河北省,无,美的
2019-09-09,卫国路丰源道交叉口景泰翰林底商,路北区,唐山市,118.163346,39.669094,唐山景泰翰林美的旗舰店,河北省,0315-2889655,美的
2019-09-09,学院北路64号附近,路北区,唐山市,118.157303,39.637662,适嘉制冷美的专卖店,河北省,无,美的
2019-09-09,邦宽线,遵化市,唐山市,117.699338,40.113657,徐强电器,河北省,0315-6099959,美的
2019-09-09,黄鸦线与128乡道交叉口西北50米,玉田县,唐山市,117.882956,39.875210,战友电器,河北省,0315-6441828,美的
2019-09-09,新丰路90号,丰润区,唐山市,118.137476,39.835421,美的售后维修,河北省,无,美的
2019-09-09,龙泽路裕华嘉苑3期9号1层,路北区,唐山市,118.186773,39.657398,唐山优友美的旗舰店(龙泽北路),河北省,0315-2880388,美的
2019-09-09,滦河街道新城建华大街108号,滦州市,唐山市,118.694966,39.747954,美的慧生活,河北省,0315-7129016,美的
2019-09-09,文化路与荣宁道交叉口西100米,丰润区,唐山市,118.129818,39.831743,美的星级服务中心,河北省,无,美的
2019-09-09,兴安大街与昌盛大路交叉口东南50米,迁安市,唐山市,118.697852,40.014280,迁安市祥福美的旗舰店,河北省,0315-7277578,美的
2019-09-09,迁安镇小三元街,迁安市,唐山市,118.698520,40.002173,美的空调售后服务中心,河北省,无,美的
2019-09-09,河北路付13号附近,路北区,唐山市,118.212174,39.691569,Midea,河北省,无,美的
2019-09-09,258乡道南50米,丰润区,唐山市,118.102304,39.711929,老庄子如顺家电,河北省,0315-5518768,美的
2019-09-09,学院北路与朝阳西道交叉口西北150米,路北区,唐山市,118.156821,39.656027,美地生活广场,河北省,无,美的
2019-09-09,经济技术开发区长江中道11号,海港区,秦皇岛市,119.541163,39.930376,美的(长江中道店),河北省,0335-8582679,美的
2019-09-09,联峰北路新集园小区北门门市,北戴河区,秦皇岛市,119.487379,39.833550,美的(北戴河专卖店),河北省,无,美的
2019-09-09,文化路229号,海港区,秦皇岛市,119.604576,39.942111,美的家用空调(文化路专卖店),河北省,无,美的
2019-09-09,港城大街街道民族路310大秦左岸4层,海港区,秦皇岛市,119.606479,39.948333,美的(秦皇东大街),河北省,无,美的
2019-09-09,北部工业区和月大街10号中兵集团1楼,海港区,秦皇岛市,119.574226,39.971996,美的空调,河北省,无,美的
2019-09-09,和平大街6号天洋电器一楼,海港区,秦皇岛市,119.608720,39.932928,美的空调,河北省,无,美的
2019-09-09,长江东道389号附近,海港区,秦皇岛市,119.563241,39.932938,美的中央空调,河北省,无,美的
2019-09-09,和平大街38号,海港区,秦皇岛市,119.590339,39.935579,滨庆美的旗舰店,河北省,0335-7186777,美的
2019-09-09,花溪地小区商11,卢龙县,秦皇岛市,118.872674,39.895966,美的中央空调,河北省,13722575666,美的
2019-09-09,西港路街道和平大街266号和平花园南门,海港区,秦皇岛市,119.569975,39.933352,美的,河北省,无,美的
2019-09-09,昌黎镇燕山路一街西花园19号,昌黎县,秦皇岛市,119.163181,39.709134,美的(昌黎云杰旗舰店),河北省,0335-7693669;13903332874,美的
2019-09-09,河北大街162号天洋电器二楼,海港区,秦皇岛市,119.603470,39.934155,美的冰箱,河北省,无,美的
2019-09-09,河北大街西段373号,海港区,秦皇岛市,119.533231,39.897867,美的中央空调,河北省,无,美的
2019-09-09,金山大街与青云路交叉口东100米,抚宁区,秦皇岛市,119.262265,39.873939,美的厨卫专卖店,河北省,无,美的
2019-09-09,碣阳大街东段碣石花苑对面,昌黎县,秦皇岛市,119.184023,39.718451,美的,河北省,无,美的
2019-09-09,261省道与L83省道交叉口南150米,昌黎县,秦皇岛市,119.159397,39.529854,美的冰箱,河北省,无,美的
2019-09-09,205国道北50米,北戴河区,秦皇岛市,119.401991,39.835794,美的专卖店,河北省,无,美的
2019-09-09,燕新线西50米,卢龙县,秦皇岛市,119.066970,40.036932,美的专卖店,河北省,4008899315;13933536392,美的
2019-09-09,北环路102号附近,海港区,秦皇岛市,119.622973,39.968738,美的专卖店,河北省,13731345901,美的
2019-09-09,金海大街南150米,昌黎县,秦皇岛市,119.158165,39.696723,美的厨电专卖店,河北省,无,美的
2019-09-09,察院口与长征路交叉口东北50米,抚宁区,秦皇岛市,119.238964,39.890575,抚宁蓝海美的空调专卖店,河北省,15033517588,美的
2019-09-09,海达路东50米,海港区,秦皇岛市,119.543790,39.960631,海阳镇麦田电器美的品牌专卖店,河北省,0335-8383600,美的
2019-09-09,关城南路95号南侧门市房,山海关区,秦皇岛市,119.762935,40.003334,秦皇岛万客隆美的旗舰店,河北省,无,美的
2019-09-09,和平大街204号,海港区,秦皇岛市,119.576267,39.934479,建家美的专卖店,河北省,无,美的
2019-09-09,东环路225号,海港区,秦皇岛市,119.616515,39.929539,秦皇岛市振杰美的(旗舰店),河北省,0335-7911544,美的
2019-09-09,碣阳大街东段35昌黎县广播电视台附近,昌黎县,秦皇岛市,119.168578,39.714545,蓝翔美的专卖店,河北省,0335-2986019,美的
2019-09-09,中兴路(领秀城宾馆隔壁),青龙满族自治县,秦皇岛市,118.969928,40.406065,青龙大众电器美的制冷综合专卖店,河北省,无,美的
2019-09-09,长征路53号,抚宁区,秦皇岛市,119.237639,39.894728,飞龙电器,河北省,18633532688,美的
2019-09-09,205国道与261省道交叉口北200米,昌黎县,秦皇岛市,119.158228,39.693881,美的中央空调晟禾专卖店,河北省,0335-2225557,美的
2019-09-09,九龙山小耿美的专卖店(205国道),昌黎县,秦皇岛市,118.990472,39.713619,小耿交电美的专卖店,河北省,0335-2052691,美的
2019-09-09,宁海道西150米,抚宁区,秦皇岛市,119.414236,39.799011,南戴河美的专卖店,河北省,13780387136,美的
2019-09-09,宁海道与新开路交叉口北150米,抚宁区,秦皇岛市,119.414438,39.802563,玉茗制冷美的专卖店,河北省,13780387136,美的
2019-09-09,昌黎镇民生路裕都商厦附近,昌黎县,秦皇岛市,119.163370,39.709242,美的星级服务站(河北昌黎地区站),河北省,无,美的
2019-09-09,天雄路北50米,大名县,邯郸市,115.161652,36.292045,美的,河北省,无,美的
2019-09-09,磁州镇崇文学校西行200米路北,磁县,邯郸市,114.385634,36.381131,美的,河北省,无,美的
2019-09-09,马头镇107国道交警队北行50米,邯山区,邯郸市,114.432028,36.477778,美的,河北省,无,美的
2019-09-09,073乡道西50米,肥乡区,邯郸市,114.986820,36.558686,美的,河北省,无,美的
2019-09-09,广平镇长春大道北段天主堂西北200米,广平县,邯郸市,114.956059,36.482400,美的,河北省,18831077776,美的
2019-09-09,001乡道西50米,永年区,邯郸市,114.564042,36.758021,美的,河北省,无,美的
2019-09-09,164乡道东50米,峰峰矿区,邯郸市,114.127222,36.476054,美的,河北省,无,美的
2019-09-09,南堡乡华耀城五金建材区B3-125,邯山区,邯郸市,114.508355,36.558959,美的,河北省,15533335401,美的
2019-09-09,十里铺乡新民居,广平县,邯郸市,114.998952,36.484841,美的,河北省,无,美的
2019-09-09,人民西路与健康街交叉口东100米,广平县,邯郸市,114.947947,36.481973,美的,河北省,无,美的
2019-09-09,107国道东50米,邯山区,邯郸市,114.430967,36.475317,美的,河北省,无,美的
2019-09-09,234省道西50米,魏县,邯郸市,114.971996,36.317572,美的,河北省,无,美的
2019-09-09,春晖小区南50米(青云北大街西),成安县,邯郸市,114.688943,36.443734,美的,河北省,无,美的
2019-09-09,212省道西50米,临漳县,邯郸市,114.610098,36.225413,美的,河北省,无,美的
2019-09-09,幸福街与096乡道交叉口东100米,曲周县,邯郸市,115.003508,36.865298,美的,河北省,无,美的
2019-09-09,075乡道南200米,邱县,邯郸市,115.260547,36.727202,美的,河北省,无,美的
2019-09-09,武安镇汽车站对面南环建材城A1区,武安市,邯郸市,114.188346,36.685066,美的,河北省,无,美的
2019-09-09,宋寨东头,丛台区,邯郸市,114.777928,36.672644,美的,河北省,15903200544,美的
2019-09-09,常元线西50米,大名县,邯郸市,115.108932,36.432500,美的,河北省,13730042799,美的
2019-09-09,磁州镇港台商厦楼下57号,磁县,邯郸市,114.379053,36.361065,美的,河北省,无,美的
2019-09-09,163乡道万福大药房旁,峰峰矿区,邯郸市,114.270360,36.474948,美的,河北省,无,美的
2019-09-09,世纪大道与人民路口北行50米路东,广平县,邯郸市,114.955350,36.484100,美的,河北省,15030044308,美的
2019-09-09,建安路与贸易街交叉口西50米,肥乡区,邯郸市,114.812533,36.552842,美的,河北省,无,美的
2019-09-09,丛峰线北50米,临漳县,邯郸市,114.518642,36.190128,美的,河北省,18131029993,美的
2019-09-09,309国道北50米,武安市,邯郸市,114.123886,36.651221,美的,河北省,0310-5774593,美的
2019-09-09,银行路行二十米路北,广平县,邯郸市,114.861456,36.391060,美的,河北省,0310-2682348;13930043156,美的
2019-09-09,从峰线与159乡道交叉口东100米,磁县,邯郸市,114.222356,36.286711,美的,河北省,无,美的
2019-09-09,大名府路新国人商场1层,大名县,邯郸市,115.155072,36.289293,美的(大名新国人专卖店),河北省,0310-6560222;15081758818,美的
2019-09-09,和平路319号(光明南大街与和平路交叉口西南角),邯山区,邯郸市,114.505873,36.601597,美的(邯郸新大新旗舰店),河北省,0310-3017977;0310-3102990,美的
2019-09-09,联纺东路505号阳光天鸿广场B座F4层,丛台区,邯郸市,114.520321,36.626737,美的(阳光天鸿广场店),河北省,无,美的
2019-09-09,东兴大街,丛台区,邯郸市,114.575122,36.681481,美的空调制冷设备有限公司,河北省,无,美的
2019-09-09,临漳镇邺都南大街135号,临漳县,邯郸市,114.612639,36.330080,美的(临漳滨鹏旗舰店),河北省,0310-7850345;13633202176,美的
2019-09-09,高开区世纪大街南大街汉成华都西门,丛台区,邯郸市,114.546488,36.608570,美的(人民东路店),河北省,无,美的
2019-09-09,202省道西50米,涉县,邯郸市,113.804792,36.696372,美的(西戌分店),河北省,无,美的
2019-09-09,234省道附近,魏县,邯郸市,114.962426,36.153199,美的(牙里专卖店),河北省,无,美的
2019-09-09,曹前线东50米,肥乡区,邯郸市,114.860012,36.655828,美的(未村店),河北省,无,美的
2019-09-09,振兴路新世纪商业广场5F层,涉县,邯郸市,113.671312,36.565093,美的(新世纪商业广场),河北省,无,美的
2019-09-09,新洺路与政府街交叉口处西行永年新世纪广场B1层,永年区,邯郸市,114.492982,36.776829,美的(永年专卖店),河北省,15333209611,美的
2019-09-09,科教西路1号,魏县,邯郸市,114.935815,36.346548,美的(科教西路店),河北省,15930009767,美的
2019-09-09,丛峰线与139乡道交叉口西南100米,临漳县,邯郸市,114.434787,36.239064,美的(临漳仁寿专卖店),河北省,无,美的
2019-09-09,,涉县,邯郸市,113.681101,36.574116,美的(龙城小区北),河北省,无,美的
2019-09-09,滏阳西路2号楼208号,峰峰矿区,邯郸市,114.188787,36.420817,美的(峰峰专卖店),河北省,0310-5219188;13931060648,美的
2019-09-09,光明街497号,曲周县,邯郸市,114.949800,36.766068,美的(光明街店),河北省,无,美的
2019-09-09,滏临南大街13号,峰峰矿区,邯郸市,114.211288,36.422772,美的(峰峰华晨专卖店),河北省,0310-5012678,美的
2019-09-09,友谊北大街199中盛国贸广场F1,磁县,邯郸市,114.373415,36.379772,美的(友谊北大街店),河北省,无,美的
2019-09-09,316省道南50米,临漳县,邯郸市,114.520142,36.348784,美的(南东坊镇人民政府西),河北省,13931086635,美的
2019-09-09,政府街附近,馆陶县,邯郸市,115.296806,36.536677,美的(政府东街店),河北省,0310-2825111,美的
2019-09-09,107国道西50米,邯山区,邯郸市,114.431528,36.476852,美的(马头镇店),河北省,0310-6011155,美的
2019-09-09,魏城镇魏都南大街南市场,魏县,邯郸市,114.936543,36.347972,美的(冀NO.C010013店),河北省,13831047808,美的
2019-09-09,东城街与长安路交叉口东150米,肥乡区,邯郸市,114.817540,36.557553,美的(肥乡讯科专卖店),河北省,无,美的
2019-09-09,义井前街,峰峰矿区,邯郸市,114.155871,36.483611,美的(峰峰义井专卖店),河北省,无,美的
2019-09-09,315省道南50米,邯山区,邯郸市,114.449175,36.464011,美的(辛庄营专卖店),河北省,无,美的
2019-09-09,129乡道与212省道交叉口北100米,临漳县,邯郸市,114.610779,36.229888,美的(张村集长印专卖店),河北省,无,美的
2019-09-09,212省道东50米,临漳县,邯郸市,114.615981,36.262328,美的(运青专卖),河北省,无,美的
2019-09-09,牙里镇中学旁边,魏县,邯郸市,114.960783,36.145198,美的(牙里集保民专卖店),河北省,无,美的
2019-09-09,洺兴路与菜市街交叉口北150米,永年区,邯郸市,114.488114,36.776168,美的(永年幸福树旗舰店),河北省,13463062436,美的
2019-09-09,166乡道东50米,峰峰矿区,邯郸市,114.240996,36.548340,美的(大社子兵专卖店),河北省,无,美的
2019-09-09,浮图店乡委,鸡泽县,邯郸市,114.773877,36.886513,美的(店上专卖店),河北省,15097679470,美的
2019-09-09,中兴路686号武安市供销大厦2层,武安市,邯郸市,114.205753,36.691298,美的(后马路专卖店),河北省,无,美的
2019-09-09,西门北大街205号,临漳县,邯郸市,114.609898,36.343091,美的(临漳滨鹏专卖店),河北省,15716819196;0310-7855345,美的
2019-09-09,318省道附近,永年区,邯郸市,114.652348,36.839330,美的(大北汪镇专卖店),河北省,无,美的
2019-09-09,鸡泽镇中长街(俊杰电器对面),鸡泽县,邯郸市,114.875652,36.917802,美的(中长街店),河北省,无,美的
2019-09-09,西门北大街225号,临漳县,邯郸市,114.609951,36.339571,美的(临漳玉山专卖店),河北省,0310-7865430,美的
2019-09-09,人民西路31号,广平县,邯郸市,114.948601,36.481954,美的(广平邯宏专卖店),河北省,0310-2510315;0310-2520358,美的
2019-09-09,安宁东路与安宁西路交叉口东50米,魏县,邯郸市,114.946676,36.097198,美的(张二庄专卖店),河北省,无,美的
2019-09-09,马庄路北50米,邯山区,邯郸市,114.478419,36.571404,美的(五仓街),河北省,无,美的
2019-09-09,新洺路与政府街交叉口处西行永年新世纪广场B1层,永年区,邯郸市,114.492710,36.776923,美的&至高(永年新世纪广场),河北省,无,美的
2019-09-09,鑫港电器城2层B2245,丛台区,邯郸市,114.517814,36.640256,美的售后,河北省,无,美的
2019-09-09,军师华府7号楼,丛台区,邯郸市,114.575331,36.627205,美的空调,河北省,15631003943,美的
2019-09-09,魏城镇望远南街305号,魏县,邯郸市,114.931454,36.353176,美的空调,河北省,无,美的
2019-09-09,漳河村路口南100米路西,魏县,邯郸市,115.033124,36.324049,美的专卖,河北省,无,美的
2019-09-09,凤城东路345附近,曲周县,邯郸市,114.963878,36.776515,美的烟酒,河北省,无,美的
2019-09-09,光明北大街69号国美电器1楼,丛台区,邯郸市,114.485027,36.605954,美的专柜,河北省,无,美的
2019-09-09,新兴东路93号南100米,成安县,邯郸市,114.700090,36.444454,美的照明,河北省,无,美的
2019-09-09,106县道北50米,曲周县,邯郸市,115.007920,36.727222,美的厨卫,河北省,无,美的
2019-09-09,光华大街与八一路交叉口西南50米,复兴区,邯郸市,114.452653,36.619753,美的厨卫,河北省,无,美的
2019-09-09,天龙建材市场西门,魏县,邯郸市,114.936169,36.343577,美的家电,河北省,18911499764,美的
2019-09-09,肥馆线南50米,肥乡区,邯郸市,114.872682,36.527558,美的厨卫,河北省,无,美的
2019-09-09,318省道北50米,永年区,邯郸市,114.646338,36.838541,美的厨卫,河北省,无,美的
2019-09-09,201县道浪淘沙美发北行20米路东,邱县,邯郸市,115.143840,36.887175,美的厨卫,河北省,13931030292;15930022141,美的
2019-09-09,长安路北150米,肥乡区,邯郸市,114.798298,36.559254,美的厨卫,河北省,无,美的
2019-09-09,崔庄村,肥乡区,邯郸市,114.851214,36.636773,美的厨卫,河北省,15100457379,美的
2019-09-09,315省道南50米,成安县,邯郸市,114.615234,36.447564,美的电器,河北省,13313005015,美的
2019-09-09,邯馆公路南50米,肥乡区,邯郸市,114.692931,36.577980,美的厨卫,河北省,无,美的
2019-09-09,广安西路与建新南街交汇处,广平县,邯郸市,114.943146,36.474879,美的中央空调,河北省,无,美的
2019-09-09,和平街道陵西大街中段阳光三联日月城三楼,丛台区,邯郸市,114.484091,36.605279,美的厨卫,河北省,无,美的
2019-09-09,环城西路26号稽山新天地b座苏宁电器1楼,丛台区,邯郸市,114.483184,36.606902,美的净水,河北省,无,美的
2019-09-09,318省道南150米,永年区,邯郸市,114.696297,36.839183,美的厨卫,河北省,13463075706,美的
2019-09-09,中华南大街阳光滏瑞特家居广场1层,邯山区,邯郸市,114.490108,36.570081,美的净水,河北省,无,美的
2019-09-09,邯武公路北50米,复兴区,邯郸市,114.349213,36.645090,美的家电,河北省,13730041710,美的
2019-09-09,邯大公路西50米,邯山区,邯郸市,114.585052,36.519523,美的家电,河北省,无,美的
2019-09-09,政府街与新华街北行80米路西,馆陶县,邯郸市,115.286830,36.540146,馆陶县美的(旗舰店),河北省,0310-2823686;15100441485,美的
2019-09-09,东风街与常青巷交叉口西北50米,丛台区,邯郸市,114.482848,36.616433,美的专卖店,河北省,无,美的
2019-09-09,"西马连固中学,西150米,路北,美的专卖店",曲周县,邯郸市,115.052968,36.642848,美的厨电,河北省,无,美的
2019-09-09,长安路南50米,肥乡区,邯郸市,114.795972,36.557844,美的厨卫(肥乡区总部),河北省,无,美的
2019-09-09,惠安巷与新城路交叉口西50米,邱县,邯郸市,115.182379,36.818905,美的中央空调,河北省,无,美的
2019-09-09,鼓山南街交通运输局公路管理站斜对面,峰峰矿区,邯郸市,114.208536,36.424348,美的Midea,河北省,无,美的
2019-09-09,建安路西141号附近,肥乡区,邯郸市,114.789997,36.554951,美的中央空调,河北省,15027944411,美的
2019-09-09,053乡道附近,大名县,邯郸市,115.319865,36.134585,美的空调,河北省,15075058141,美的
2019-09-09,陵西大街日月城阳光三联电器二楼,丛台区,邯郸市,114.484352,36.605537,美的冰箱,河北省,无,美的
2019-09-09,太行东路33号附近,峰峰矿区,邯郸市,114.221886,36.423185,美的中央空调,河北省,无,美的
2019-09-09,馆陶镇文卫街西段筑先广场西50米路南,馆陶县,邯郸市,115.281228,36.541552,美的中央空调,河北省,无,美的
2019-09-09,毛演堡乡,肥乡区,邯郸市,114.806981,36.638495,美的厨卫(066乡道),河北省,无,美的
2019-09-09,南开街308号附近,曲周县,邯郸市,114.957936,36.757303,美的中央空调,河北省,无,美的
2019-09-09,振兴路57号,邱县,邯郸市,115.178761,36.811004,美的中央空调,河北省,无,美的
2019-09-09,112乡道与206县道交叉口南200米,武安市,邯郸市,114.317394,36.815787,美的厨卫电器,河北省,13373109280,美的
2019-09-09,西关口北行100米路东,成安县,邯郸市,114.689203,36.442900,阿诗丹顿(青云北大街),河北省,无,美的
2019-09-09,武馆线与金凤街交叉口西北50米附近,馆陶县,邯郸市,115.303941,36.548566,美的e家,河北省,无,美的
2019-09-09,鸡泽镇电力局西行三百米路北,鸡泽县,邯郸市,114.882569,36.910261,美的中央空调,河北省,15832008488;18731086692,美的
2019-09-09,315省道南50米,成安县,邯郸市,114.562000,36.450635,美的太阳能,河北省,无,美的
2019-09-09,馆陶镇新华街北段,馆陶县,邯郸市,115.288305,36.546145,美的服务旗舰店,河北省,无,美的
2019-09-09,大名镇万大街与北京路交叉口往南100米,大名县,邯郸市,115.156855,36.297516,美的中央空调,河北省,无,美的
2019-09-09,束北线与106国道交叉口东北200米,大名县,邯郸市,115.228585,36.211229,美的厨卫电器,河北省,13784251561,美的
2019-09-09,寇公西路136附近,成安县,邯郸市,114.697655,36.440380,美的冰箱,河北省,无,美的
2019-09-09,阳光滏瑞特3楼,丛台区,邯郸市,114.521453,36.639212,美的整体吊顶,河北省,无,美的
2019-09-09,小海路与迎春街交叉口东南100米,涉县,邯郸市,113.663178,36.561902,美的照明(涉县专卖店),河北省,无,美的
2019-09-09,铜雀北大街第二医院,临漳县,邯郸市,114.601378,36.341774,美的中央空调,河北省,无,美的
2019-09-09,曲周镇南开街政府东150米,曲周县,邯郸市,114.960275,36.765563,万达家电(南开店),河北省,0310-8862222;0310-8897756,美的
2019-09-09,公园东街(阿米奇智能家居体验馆南30米),武安市,邯郸市,114.193974,36.687145,美的中央空调(公园东街),河北省,0310-5899966;18732086211,美的
2019-09-09,井堂街附近,肥乡区,邯郸市,114.800190,36.553424,美的专卖(建安路),河北省,0310-8562108;15031071530,美的
2019-09-09,人民路南,鸡泽县,邯郸市,114.875455,36.909713,鸡泽县美的(旗舰店),河北省,0310-7580800;15833107006,美的
2019-09-09,滏阳北大街,磁县,邯郸市,114.394029,36.372211,美的净水专卖店,河北省,无,美的
2019-09-09,中华北大街286附近,丛台区,邯郸市,114.495164,36.623999,美的邯郸中华旗舰店,河北省,0310-7091118,美的
2019-09-09,临洺关镇富强路富强小区楼下,永年区,邯郸市,114.501623,36.769420,美的净水专卖店,河北省,18932701370,美的
2019-09-09,丛台东街道丛台路东环交叉口富玛特大厦东行50米路北,丛台区,邯郸市,114.540599,36.615357,美的·罗兰春天城市展厅,河北省,无,美的
2019-09-09,南开街106号附近,曲周县,邯郸市,114.960375,36.768401,曲周腾飞美的专卖店,河北省,无,美的
2019-09-09,肥乡镇长安路中段东方城对过,肥乡区,邯郸市,114.806379,36.557888,美的净水体验中心,河北省,无,美的
2019-09-09,赵辛线与115乡道交叉口东南50米,永年区,邯郸市,114.647736,36.765823,美的冰箱空调洗衣机,河北省,无,美的
2019-09-09,交通岗北100米老民政局楼下,邱县,邯郸市,115.166599,36.817026,美的家庭中央空调(中兴路),河北省,15231893009;18634124029,美的
2019-09-09,龙山大街649号,涉县,邯郸市,113.687973,36.580593,美的家庭中央空调(崇州大酒店西南),河北省,13603109394,美的
2019-09-09,成安镇西关口北行人民浴池对面,成安县,邯郸市,114.680411,36.448478,成安美的厨卫专卖店,河北省,无,美的
2019-09-09,邯峰公路东100米,峰峰矿区,邯郸市,114.219310,36.519376,美的空调专卖,河北省,13930007527,美的
2019-09-09,213省道同庆堂药房附近,涉县,邯郸市,113.559638,36.667025,涉县石门美的专卖店,河北省,无,美的
2019-09-09,开元路京华商厦1层,魏县,邯郸市,114.935350,36.354037,魏县美的小家电专卖,河北省,0310-5207180;15833303322,美的
2019-09-09,建设大街212号百花电器2楼美的专柜,复兴区,邯郸市,114.461400,36.623497,美的小家电,河北省,15544742982,美的
2019-09-09,前屯村商贸路66号,临漳县,邯郸市,114.692270,36.174775,前屯美的厨卫,河北省,无,美的
2019-09-09,交警队南行50米路西,永年区,邯郸市,114.494133,36.762106,美的中央空调(永年店),河北省,13653100809,美的
2019-09-09,邯馆公路南50米,肥乡区,邯郸市,114.690864,36.577920,美的微波炉,河北省,无,美的
2019-09-09,涉城镇聚宝龙二楼,涉县,邯郸市,113.674136,36.564196,涉县美的连锁店,河北省,0310-3835934,美的
2019-09-09,人民路与光明路交叉路口恒亿大厦苏宁电器二楼,丛台区,邯郸市,114.501986,36.607713,美的微波炉,河北省,无,美的
2019-09-09,广府镇北大街,永年区,邯郸市,114.733080,36.702879,美的小家电,河北省,0310-6627826,美的
2019-09-09,龙山大街334号附近,涉县,邯郸市,113.674413,36.562240,涉县美的旗舰店,河北省,0310-3835934,美的
2019-09-09,广府镇北大街,磁县,邯郸市,114.105297,36.309787,美的小家电,河北省,13111344779,美的
2019-09-09,成安镇迎宾北大街39号,成安县,邯郸市,114.683120,36.447704,美的中央空调(成店新苑南),河北省,0310-5329158;15830073448,美的
2019-09-09,001乡道东50米,永年区,邯郸市,114.564311,36.752444,美的厨房电器,河北省,无,美的
2019-09-09,磁州路142号,磁县,邯郸市,114.389200,36.373690,美的中央空调(磁州路店),河北省,无,美的
2019-09-09,313省道南50米,大名县,邯郸市,115.327701,36.225241,美的专卖店(孙甘店),河北省,无,美的
2019-09-09,彭常大街与彭新路交叉口北150米,峰峰矿区,邯郸市,114.178590,36.427549,美的生活电器(彭常大街),河北省,13739607605;13400408511,美的
2019-09-09,建安路与金源商贸一条街交叉口东150米,肥乡区,邯郸市,114.793880,36.553911,肥乡中山美的(旗舰店),河北省,15031071530,美的
2019-09-09,龙山大街223号,涉县,邯郸市,113.672631,36.559721,涉县美的专卖店,河北省,0310-3835934,美的
2019-09-09,中华南大街456号附近,邯山区,邯郸市,114.489211,36.561380,美的时代城营销中心,河北省,无,美的
2019-09-09,迎宾街,邱县,邯郸市,115.177443,36.817321,君宁美的厨卫,河北省,13703100946,美的
2019-09-09,兼庄乡联纺东路16号,丛台区,邯郸市,114.484365,36.628205,美的·幸福时光营销中心,河北省,无,美的
2019-09-09,人民东路98招贤大厦9层903室,丛台区,邯郸市,114.487450,36.610384,美的小家电(招贤大厦),河北省,无,美的
2019-09-09,肥馆线,肥乡区,邯郸市,114.919570,36.490223,美的净水机,河北省,无,美的
2019-09-09,001县道与121乡道交叉口东北100米,丛台区,邯郸市,114.672152,36.640006,美的专卖店,河北省,无,美的
2019-09-09,馆陶镇政府街农行18米路南,馆陶县,邯郸市,115.277176,36.540272,美的专卖店,河北省,无,美的
2019-09-09,小寨镇人民政府附近,鸡泽县,邯郸市,114.890650,36.844831,美的专卖店,河北省,无,美的
2019-09-09,张二庄镇大严屯村粮站西附近,魏县,邯郸市,114.985178,36.103068,美的日用家电(大严屯专卖店),河北省,无,美的
2019-09-09,涉城镇滨河市场,涉县,邯郸市,113.661781,36.559258,美的净水机,河北省,无,美的
2019-09-09,107国道东200米,邯山区,邯郸市,114.431477,36.473912,美的净水机,河北省,无,美的
2019-09-09,长巷南街36号附近,成安县,邯郸市,114.557155,36.408669,美的日用家电(长巷专卖店),河北省,无,美的
2019-09-09,政府路北50米,丛台区,邯郸市,114.486302,36.686870,美的净水机,河北省,无,美的
2019-09-09,迎宾北大街9号附近,成安县,邯郸市,114.682276,36.443676,美的热水器专卖(成安县城旭升家电美的专卖店),河北省,无,美的
2019-09-09,001乡道与318省道交叉口西150米,永年区,邯郸市,114.578097,36.818397,美的厨卫橱柜衣柜,河北省,0310-6727511;15511036628,美的
2019-09-09,212省道西50米,成安县,邯郸市,114.551718,36.453508,美的日用家电(商城镇专卖店),河北省,15833300827,美的
2019-09-09,马头镇交警队路北50米,邯山区,邯郸市,114.420278,36.421753,美的专卖店,河北省,0310-2123699;13785005175,美的
2019-09-09,106国道柴堡小学西150米路南,馆陶县,邯郸市,115.273246,36.601939,美的日用家电(柴堡镇专卖店),河北省,无,美的
2019-09-09,滏阳西路291号附近,峰峰矿区,邯郸市,114.178138,36.421169,美的净水机,河北省,13931011430,美的
2019-09-09,前进大街复兴商贸城内,复兴区,邯郸市,114.449784,36.620828,美的专卖店(复兴商贸城店),河北省,13011537882,美的
2019-09-09,洺兴路与洺园街交叉口东南角美的专卖,永年区,邯郸市,114.489083,36.769475,永年美的厨卫旗舰店,河北省,13931031168,美的
2019-09-09,磁州镇振兴路与朝阳路路口东行300米路北,磁县,邯郸市,114.382889,36.370752,美的洗悦家,河北省,0310-7188118,美的
2019-09-09,大马村乡,魏县,邯郸市,115.078512,36.196856,美的厨卫电器总代理,河北省,15075096989;15232027080,美的
2019-09-09,迎宾街22号,邱县,邯郸市,115.177709,36.818803,邱县立达美的旗舰店,河北省,0310-8368088;0310-8362798;13932031144,美的
2019-09-09,丛峰线北50米临漳东方学校附近,临漳县,邯郸市,114.500240,36.190475,美的智能空调,河北省,无,美的
2019-09-09,元城街2046附近,大名县,邯郸市,115.141475,36.291879,美的净水机大名直营店,河北省,无,美的
2019-09-09,小康街北段路西,邱县,邯郸市,115.177475,36.817214,美的慧生活,河北省,0310-8381231,美的
2019-09-09,束北线与106国道交叉口东北200米,大名县,邯郸市,115.228588,36.211331,美的空调冰箱洗衣机专卖,河北省,无,美的
2019-09-09,齐创制冷设备销售有限公司,邯山区,邯郸市,114.507694,36.586801,美的慧生活,河北省,无,美的
2019-09-09,南开街72号,曲周县,邯郸市,114.960590,36.769462,曲周县日玥城格力美的,河北省,无,美的
2019-09-09,六和里与迎宾西路交叉口西北50米,磁县,邯郸市,114.374174,36.354397,美的小家电专卖店,河北省,无,美的
2019-09-09,东杨庄乡115乡道后马路,永年区,邯郸市,114.653812,36.766158,永年茹佐美的专卖,河北省,无,美的
2019-09-09,007乡道南50米,邯山区,邯郸市,114.436314,36.556593,美的热水器专卖,河北省,无,美的
2019-09-09,人民路世纪大街交叉口东行200米路南,丛台区,邯郸市,114.548351,36.606311,美的慧生活,河北省,15831026977,美的
2019-09-09,中华北大街429号,丛台区,邯郸市,114.496149,36.638827,中华北美的中央空调,河北省,13722488808,美的
2019-09-09,邯临公路附近,丛台区,邯郸市,114.678205,36.671050,南沿村美的专卖店,河北省,无,美的
2019-09-09,徘徊村,武安市,邯郸市,114.027564,36.618039,美的燕山专卖店,河北省,无,美的
2019-09-09,097乡道北100米,曲周县,邯郸市,114.882494,36.712558,胜军美的电磁炉,河北省,无,美的
2019-09-09,151县道南50米,曲周县,邯郸市,114.979301,36.671814,美的安寨信誉专卖店,河北省,无,美的
2019-09-09,粮东一街23附近,磁县,邯郸市,114.381520,36.369537,美的厨电整体橱柜厂,河北省,无,美的
2019-09-09,武馆线与075乡道交叉口东100米,馆陶县,邯郸市,115.385478,36.718900,双珍美的专卖店,河北省,无,美的
2019-09-09,151县道南50米,曲周县,邯郸市,114.976763,36.672032,美的曲周长青专卖店,河北省,无,美的
2019-09-09,安宁西路6附近,魏县,邯郸市,114.943265,36.096452,朱玉方美的九阳专卖店,河北省,无,美的
2019-09-09,313省道附近,大名县,邯郸市,115.415944,36.226698,九阳健康厨房电器,河北省,无,美的
2019-09-09,来家宾馆洗浴(长春大道南段东),广平县,邯郸市,114.950358,36.465037,长城卫浴,河北省,无,美的
2019-09-09,311省道北50米,邱县,邯郸市,115.278071,36.817162,香城固美的专卖店,河北省,0310-8217644,美的
2019-09-09,魏城镇中医院西杏林小区,魏县,邯郸市,114.938786,36.344835,美的中央空调专卖店,河北省,无,美的
2019-09-09,回漳路口加油站北行100米路西,临漳县,邯郸市,114.443052,36.310382,回漳美的专卖店,河北省,15226910555,美的
2019-09-09,龙王庙镇政府对面(龙王庙车站东侧),大名县,邯郸市,115.230874,36.216537,亿美家电美的专卖,河北省,0310-6363000,美的
2019-09-09,丛台东路南100米,丛台区,邯郸市,114.540793,36.614645,美的·拉德芳斯城市展厅,河北省,无,美的
2019-09-09,渚河路和光明大街交叉口西北角美食林二楼国美电器,邯山区,邯郸市,114.502170,36.601485,美的慧生活,河北省,无,美的
2019-09-09,曲周镇南开街182号,曲周县,邯郸市,114.960274,36.765547,曲周亿达美的旗舰店,河北省,18630095000,美的
2019-09-09,鑫欣嘉苑15号楼7号,涉县,邯郸市,113.749042,36.576874,美的净水机专卖店,河北省,0310-3985670;18602616985,美的
2019-09-09,联纺西路赵苑北门斜对面,复兴区,邯郸市,114.473729,36.628942,美的家庭中央空调专业店,河北省,无,美的
2019-09-09,雪涛北街12号,成安县,邯郸市,114.699142,36.441408,成安县恒鑫美的旗舰店,河北省,0310-5239022,美的
2019-09-09,中华南大街与水厂路交叉口西100米,邯山区,邯郸市,114.490144,36.582505,亚森美的专卖店,河北省,无,美的
2019-09-09,148乡道南50米,磁县,邯郸市,114.275708,36.430803,磁县九龙口美的专卖店,河北省,无,美的
2019-09-09,东马庄机电市场6排16号,武安市,邯郸市,114.163918,36.705198,美的电器净水机洁具,河北省,15232888161,美的
2019-09-09,032乡道南50米,魏县,邯郸市,115.035203,36.169018,边马美的专卖店,河北省,无,美的
2019-09-09,太行东路84号附近,峰峰矿区,邯郸市,114.218865,36.424092,美的烟机·灶具·热水器,河北省,13784257915,美的
2019-09-09,邯临公路与001乡道交叉口西南150米,丛台区,邯郸市,114.594733,36.663761,美的厨卫格兰仕,河北省,无,美的
2019-09-09,武安镇春天百货美食林二楼苏宁易购,武安市,邯郸市,114.194645,36.694516,美的日用家电(武安专卖店),河北省,0310-5659660,美的
2019-09-09,平安巷14号靠近翰林世家品鉴中心,成安县,邯郸市,114.688280,36.445565,新东方美的专卖店,河北省,18132955006;13930019002,美的
2019-09-09,人民东路北50米,广平县,邯郸市,114.960901,36.481281,广平峰宏美的专卖店,河北省,无,美的
2019-09-09,中长街附近,鸡泽县,邯郸市,114.877355,36.908115,美的慧生活,河北省,13931006788,美的
2019-09-09,318省道附近,永年区,邯郸市,114.581612,36.819305,永年刘营美的品牌专卖店,河北省,无,美的
2019-09-09,中长街南段,鸡泽县,邯郸市,114.875796,36.910143,鸡泽县忠心美的专卖店,河北省,15833107006;15832008488,美的
2019-09-09,贵乡街18号附近,大名县,邯郸市,115.162825,36.283861,美的厨房电器·大名厨语专卖店,河北省,无,美的
2019-09-09,天雄路北50米,大名县,邯郸市,115.161652,36.292045,美的大明佳豪专卖店,河北省,无,美的
2019-09-09,凤凰西路与幸福街交叉口东100米,成安县,邯郸市,114.689541,36.452102,美的厨房电器·成安厨语专卖店,河北省,无,美的
2019-09-09,临漳镇铜雀南大街路西,临漳县,邯郸市,114.600356,36.334080,临漳县和美电器美的空调专卖,河北省,0310-7888161;0310-7888181,美的
2019-09-09,210县道,邱县,邯郸市,115.166691,36.725217,耿五豪邦美的品牌专卖店,河北省,0310-8286606;13315025933,美的
2019-09-09,109乡道南50米,大名县,邯郸市,115.185688,36.439629,美的黄金堤喜超专卖店,河北省,无,美的
2019-09-09,115乡道南50米,永年区,邯郸市,114.731155,36.771393,美的太阳能热水器,河北省,无,美的
2019-09-09,浴新南大街与学院北路交叉口隆基泰和广场居然之家二楼,邯山区,邯郸市,114.480080,36.578384,美的中央空调专业店(天奕商厦店),河北省,15030005189,美的
2019-09-09,常元线,大名县,邯郸市,115.107903,36.429935,美的冒泡中高档女装,河北省,无,美的
2019-09-09,柳园镇新市场北大街6号,临漳县,邯郸市,114.594149,36.171201,美的空调柳园宏达专卖店,河北省,0310-7782343,美的
2019-09-09,234省道东100米,曲周县,邯郸市,114.999726,36.866227,四疃二建美的品牌专卖店,河北省,0310-8712105,美的
2019-09-09,G309(荣兰线),肥乡区,邯郸市,114.694976,36.578589,顺领家电城美的专卖,河北省,15511047929;13131033011,美的
2019-09-09,G106(京广线),馆陶县,邯郸市,115.252383,36.650428,美的全屋热水净水专卖店,河北省,无,美的
2019-09-09,武馆线,馆陶县,邯郸市,115.338549,36.630786,美的全屋热水净水专卖店,河北省,无,美的
2019-09-09,建安路105号附近,肥乡区,邯郸市,114.803088,36.553238,肥乡美的红波厨卫电器肥乡指定总代理,河北省,13931031671,美的
2019-09-09,辛安镇镇309国道金笛商贸城东250米,肥乡区,邯郸市,114.667471,36.577854,海信美的小天鹅永兴家电城,河北省,无,美的
2019-09-09,001乡道与318省道交叉口东北100米附近,永年区,邯郸市,114.579696,36.819316,美的沐歌太阳能厂家批发零售,河北省,无,美的
2019-09-09,浴新大街与水厂路交叉口东行200米,邯山区,邯郸市,114.479112,36.583219,邯郸启彰美的专卖店,河北省,18003206155,美的
2019-09-09,311省道南150米,邱县,邯郸市,115.279742,36.816288,邱县香城固西军美的品牌专卖店,河北省,13031984848,美的
2019-09-09,318省道北50米,永年区,邯郸市,114.527281,36.805922,永年朱庄美的品牌专卖店,河北省,无,美的
2019-09-09,万金路,大名县,邯郸市,115.184088,36.385038,美的净水机油烟机,河北省,无,美的
2019-09-09,北卷村十字街,永年区,邯郸市,114.692010,36.818824,美的厨房和热水电器,河北省,无,美的
2019-09-09,利民街与振兴东路交叉口东南200米,曲周县,邯郸市,114.965932,36.772691,美的厨卫电器曲周总代理,河北省,0310-8897323,美的
2019-09-09,束馆镇胡气村北路东,大名县,邯郸市,115.454275,36.192611,李师傅维修电动车冰箱洗衣机美的空调专卖店,河北省,13703303417,美的
2019-09-09,丛峰线东50米,临漳县,邯郸市,114.693863,36.220006,美的全屋热水·净水专卖店,河北省,无,美的
2019-09-09,215省道附近,魏县,邯郸市,114.992780,36.103690,魏县大严屯美的空调专卖店,河北省,0310-3685508;13513106678,美的
2019-09-09,邯临公路附近,丛台区,邯郸市,114.678336,36.671076,水晶电器,河北省,无,美的
2019-09-09,洹水大道(西段)与金华路交叉口南50米,魏县,邯郸市,114.929672,36.348930,美的售后,河北省,0310-3663689,美的
2019-09-09,107国道西50米,邯山区,邯郸市,114.432177,36.478525,美的售后,河北省,无,美的
2019-09-09,中华北大街85号,丛台区,邯郸市,114.494563,36.625236,美的慧生活,河北省,0310-7091118;13930019731,美的
2019-09-09,礼贤南街2号,魏县,邯郸市,114.942679,36.359016,美的星极服务中心,河北省,13784214877,美的
2019-09-09,百家大街与联纺西路交叉口东北150米,复兴区,邯郸市,114.441321,36.631622,美的慧生活,河北省,无,美的
2019-09-09,邯馆公路北50米,丛台区,邯郸市,114.657663,36.579166,美的售后服务站,河北省,无,美的
2019-09-09,乾侯南街与朝阳西路交叉口北150米,成安县,邯郸市,114.677699,36.437796,美的客户服务中心,河北省,无,美的
2019-09-09,绿化街与陵园路交叉口南100米,邯山区,邯郸市,114.496221,36.598028,美的空调售后维修,河北省,0310-3037576,美的
2019-09-09,安宁东路84-1号附近,魏县,邯郸市,114.952260,36.097933,张二庄(三合美的专卖店),河北省,13803100262,美的
2019-09-09,313省道北50米,大名县,邯郸市,115.238309,36.221964,龙王面(亿美美的专卖店),河北省,无,美的
2019-09-09,兴凯东路与兴凯西路交叉口西100米,临漳县,邯郸市,114.613118,36.338833,美的小家电售后机接收站,河北省,无,美的
2019-09-09,虎威街南100米,永年区,邯郸市,114.499367,36.777439,遥森家电维修美的售后服务,河北省,15176052934,美的
2019-09-09,守敬南路345-42号,桥西区,邢台市,114.483165,37.047068,美的,河北省,13831968220,美的
2019-09-09,开元北路282号,桥东区,邢台市,114.514589,37.088334,美的,河北省,无,美的
2019-09-09,吕尖线,临西县,邢台市,115.487644,36.789345,美的,河北省,无,美的
2019-09-09,大梁庄乡东关街397号辛庄村百花市场对过,桥东区,邢台市,114.533352,37.066380,美的,河北省,13673196449,美的
2019-09-09,308国道西150米,南宫市,邢台市,115.577306,37.207841,美的,河北省,无,美的
2019-09-09,东方路与育才街交叉口北200米,任县,邢台市,114.692419,37.118451,美的,河北省,无,美的
2019-09-09,311省道北50米,临西县,邢台市,115.383738,36.856368,美的,河北省,无,美的
2019-09-09,325省道117号附近,威县,邢台市,115.358662,37.085071,美的,河北省,无,美的
2019-09-09,325省道与704乡道交叉口东150米,清河县,邢台市,115.569999,37.060527,美的,河北省,无,美的
2019-09-09,临城镇西环路射兽中学南邻路西平芬家电,临城县,邢台市,114.490758,37.446648,美的,河北省,无,美的
2019-09-09,中兴路与朝阳中街交叉口东北50米,宁晋县,邢台市,115.120410,37.790936,美的,河北省,无,美的
2019-09-09,393省道南50米,宁晋县,邢台市,114.831739,37.596245,美的,河北省,无,美的
2019-09-09,新兴街246号,任县,邢台市,114.694309,37.130049,美的,河北省,无,美的
2019-09-09,太行大街843附近,沙河市,邢台市,114.490160,36.856753,美的,河北省,无,美的
2019-09-09,东街与801乡道交叉口东100米,南宫市,邢台市,115.384484,37.361294,美的,河北省,无,美的
2019-09-09,人民路与槐东大街交叉口南200米,柏乡县,邢台市,114.696392,37.490521,美的,河北省,0319-7728578,美的
2019-09-09,760乡道南50米,临西县,邢台市,115.410286,36.802056,美的,河北省,无,美的
2019-09-09,007县道与206乡道交叉口东南150米,柏乡县,邢台市,114.696304,37.448009,美的,河北省,无,美的
2019-09-09,褡裢街道迎新街482号,沙河市,邢台市,114.503567,36.859001,美的,河北省,0319-8902349,美的
2019-09-09,丰仓街芙蓉花园大门东侧50米,桥东区,邢台市,114.498670,37.049119,美的(新兴东大街),河北省,无,美的
2019-09-09,文明路与204县道交叉口西150米,隆尧县,邢台市,114.787184,37.461091,美的(文明路店),河北省,0319-6605136;13171858946,美的
2019-09-09,中兴东大街五一桥东行450米,桥东区,邢台市,114.520928,37.071204,美的(南长街办事处东北),河北省,无,美的
2019-09-09,新兴路278号,沙河市,邢台市,114.516555,36.873485,美的(凯华电器店),河北省,无,美的
2019-09-09,健康西路与霞广南街交叉口西150米,巨鹿县,邢台市,115.022450,37.216594,美的(巨鹿专卖店),河北省,无,美的
2019-09-09,康庄西路与柴荣街交叉口东北150米,隆尧县,邢台市,114.758195,37.352034,美的(新华路店),河北省,无,美的
2019-09-09,沙河财政局(公交站)财政局南行100米建设路路西,沙河市,邢台市,114.507848,36.874676,美的(建设路店),河北省,无,美的
2019-09-09,253县道南50米,任县,邢台市,114.811917,37.116252,美的(骆庄三辉专卖店),河北省,无,美的
2019-09-09,八一大街12号附近,桥西区,邢台市,114.472604,37.066428,美的(四处家属院西),河北省,无,美的
2019-09-09,107国道东50米,沙河市,邢台市,114.506570,36.962418,美的(沙河城国土资源所南),河北省,无,美的
2019-09-09,博悦商务快捷宾馆(亿购商城东),南宫市,邢台市,115.398387,37.355510,美的(南宫市旗舰店),河北省,15131383504,美的
2019-09-09,中兴路与商业大街交叉口东北50米,南和县,邢台市,114.693936,37.001408,美的(邢台南和站店),河北省,4008899316,美的
2019-09-09,新兴路273号,任县,邢台市,114.686655,37.129174,美的(任县专卖店),河北省,0319-7517981,美的
2019-09-09,西刘庄前街北200米,广宗县,邢台市,115.151658,37.079686,美的(广宗店),河北省,0319-7215537,美的
2019-09-09,东楼线与槐东大街交叉口北100米,柏乡县,邢台市,114.695911,37.483745,美的(中共柏乡县交通局总支委员会南),河北省,0319-7721256,美的
2019-09-09,葛仙庄镇武松中街农行西20米路南,清河县,邢台市,115.671780,37.071484,美的(清河紫祥旗舰店),河北省,无,美的
2019-09-09,新华北路与团结东大街交汇处天一广场c座B1层,桥东区,邢台市,114.497528,37.076908,美的(团结东大街店),河北省,无,美的
2019-09-09,振堂路与新兴街交叉口南行路东,新河县,邢台市,115.244222,37.522559,新河美的(旗舰店),河北省,15932197866,美的
2019-09-09,洺水东路271号(369品牌托管对面),威县,邢台市,115.263578,36.983773,威县凯旋美的(旗舰店),河北省,0319-5962228,美的
2019-09-09,柏人商城大街中段(宏创电脑公司南50米),隆尧县,邢台市,114.770260,37.349430,美的空调,河北省,无,美的
2019-09-09,临泉路222,临城县,邢台市,114.507106,37.440140,美的经销,河北省,4008899315;15132941333,美的
2019-09-09,建设大街71号众友家居一层,桥西区,邢台市,114.478996,37.054092,美的专卖店,河北省,无,美的
2019-09-09,河古庙镇菜市口西100米路北,平乡县,邢台市,115.114623,36.979915,美的旗舰店,河北省,0319-7884689,美的
2019-09-09,滏阳路东50米,任县,邢台市,114.670149,37.124048,美的厨电,河北省,无,美的
2019-09-09,宋璟路与文谦大街交叉口南100米,沙河市,邢台市,114.500754,36.868126,美的厨电,河北省,无,美的
2019-09-09,107国道与327省道交叉口东南50米,隆尧县,邢台市,114.570647,37.390101,美的中央空调,河北省,13103096020,美的
2019-09-09,镇内西街南50米,临城县,邢台市,114.609486,37.459267,美的Midea(镇内专卖店),河北省,无,美的
2019-09-09,家乐园购物广场负一层,桥西区,邢台市,114.475390,37.060588,美的厨电,河北省,无,美的
2019-09-09,325省道北50米,平乡县,邢台市,114.964468,37.061858,美的厨卫电器,河北省,无,美的
2019-09-09,建设大街与文明路交叉口南100米,平乡县,邢台市,115.016848,37.066994,美的中央空调,河北省,18833423000,美的
2019-09-09,巨鹿镇西平街西平车站红绿灯往北30米路东,巨鹿县,邢台市,115.020570,37.216914,美的中央空调,河北省,15200188022,美的
2019-09-09,新华北街西50米,巨鹿县,邢台市,115.036450,37.229362,美的中央空调,河北省,15200188022;15630939979,美的
2019-09-09,新兴东大街504号,桥东区,邢台市,114.517932,37.049305,美的厨卫(新兴东大街店),河北省,无,美的
2019-09-09,中兴北大街附近,内丘县,邢台市,114.516328,37.283178,美的厨卫(中兴南大街专卖店),河北省,0319-6887623;0319-6887795,美的
2019-09-09,205县道,邢台县,邢台市,114.394282,37.065434,美的家电(邢台县中医院西北),河北省,13933716452,美的
2019-09-09,建设大街135号,南和县,邢台市,114.694573,37.007846,南和县美的(旗舰店),河北省,0319-4567222,美的
2019-09-09,G107(南环路),沙河市,邢台市,114.507074,36.843706,美的洗悦家,河北省,无,美的
2019-09-09,大黄庄正中心,临西县,邢台市,115.601954,36.804833,格力美的空调,河北省,0319-8520539,美的
2019-09-09,太行大街799号附近,沙河市,邢台市,114.491822,36.856542,格力美的空调,河北省,无,美的
2019-09-09,洺州镇三多大街三局小区北行50米路西,威县,邢台市,115.284439,36.987126,美的顾客旗舰店,河北省,无,美的
2019-09-09,中兴北大街57号附近,内丘县,邢台市,114.517432,37.293773,内丘伟业美的专卖店,河北省,无,美的
2019-09-09,交通南大街与顺城路交叉口南100米,威县,邢台市,115.268170,36.979766,美的奔腾电器专卖,河北省,0319-6163717,美的
2019-09-09,天口镇北定杨官线东购百货商场西100米,任县,邢台市,114.875454,37.181945,美的电磁炉专卖,河北省,13653395143,美的
2019-09-09,201县道和建设街的交叉口附近,广宗县,邢台市,115.145564,37.080506,美的整体橱柜·衣柜,河北省,18831919558,美的
2019-09-09,201县道附近,广宗县,邢台市,115.144614,37.076598,美的旗舰专卖店,河北省,0319-7212836,美的
2019-09-09,丰仓街60号,桥东区,邢台市,114.494102,37.045575,美的扬子空调,河北省,0319-3861119,美的
2019-09-09,富强街与振堂路交叉口东行50米路北(时光电脑西行20米),新河县,邢台市,115.239977,37.523488,美的净水设备,河北省,15369948208,美的
2019-09-09,新飞厨卫电器(平任线北),平乡县,邢台市,114.943867,37.122701,美的厨房电器,河北省,15931992410,美的
2019-09-09,万盛北街128附近,巨鹿县,邢台市,115.044038,37.225476,美的厨房电器,河北省,无,美的
2019-09-09,326省道与358乡道交叉口南150米,南和县,邢台市,114.649691,37.004998,美的厨房电器,河北省,无,美的
2019-09-09,兴安装饰城A区15号,桥西区,邢台市,114.494484,37.093490,美的中央空调(兴安装饰城店),河北省,0319-2588677;13229075090,美的
2019-09-09,高重线,平乡县,邢台市,115.087474,37.059049,美的小家电,河北省,15031915082;13223295726,美的
2019-09-09,临泉路152号,临城县,邢台市,114.505391,37.441263,海尔美的电器,河北省,0319-7165888;13785963067,美的
2019-09-09,393省道北50米,宁晋县,邢台市,114.788571,37.596224,美的厨房电器,河北省,无,美的
2019-09-09,高重线东50米,平乡县,邢台市,115.087655,37.061729,美的厨房电器,河北省,15226800256,美的
2019-09-09,325省道北50米,平乡县,邢台市,114.929392,37.069002,美的厨房电器,河北省,13363191018,美的
2019-09-09,大霍村附近,隆尧县,邢台市,114.683210,37.394205,美的小家电,河北省,0319-6766408;13582495338,美的
2019-09-09,851乡道东50米,沙河市,邢台市,114.148217,36.878402,美的厨具大全,河北省,13784898023,美的
2019-09-09,建设大街与003乡道交叉口南行200米路东,平乡县,邢台市,115.017162,37.074113,美的中央空调(泽馨园小区西南),河北省,15097914863,美的
2019-09-09,槐东大街槐阳桥北桥头路西东南方向94米,柏乡县,邢台市,114.695495,37.484630,柏乡美的专卖店,河北省,0319-7721256,美的
2019-09-09,光明路与新兴街交叉口西南50米,任县,邢台市,114.686955,37.128747,美的三星电子,河北省,无,美的
2019-09-09,任城镇滏阳路41号,任县,邢台市,114.670294,37.126876,美的家庭中央空调,河北省,无,美的
2019-09-09,纬二街与329省道交叉口西100米,沙河市,邢台市,114.606135,36.905002,美的家电总汇,河北省,无,美的
2019-09-09,人民路183附近,平乡县,邢台市,115.029895,37.071186,美的专卖店,河北省,无,美的
2019-09-09,234省道附近,宁晋县,邢台市,114.993436,37.450372,美的厨卫专卖店,河北省,无,美的
2019-09-09,326省道南50米,南和县,邢台市,114.653873,37.005646,美的全屋热水,河北省,无,美的
2019-09-09,中兴北大街西50米,内丘县,邢台市,114.516433,37.288015,美的专卖店,河北省,无,美的
2019-09-09,234省道东50米,巨鹿县,邢台市,115.058344,37.353998,美的净水机,河北省,无,美的
2019-09-09,嵩山北路与武松中街交叉口东100米,清河县,邢台市,115.675594,37.072063,清河县顺帆美的专卖店,河北省,0319-8059000,美的
2019-09-09,军民路与107国道交叉口东北150米,沙河市,邢台市,114.505634,36.943146,美的厨卫专卖店,河北省,无,美的
